{"type":"FeatureCollection","features":[{"type":"Feature","properties":{"year":2014,"instnm":"Adirondack Community College","CZ_label":"Albany","inst_cmplt_tot":531,"inst_green_cmplt_tot":35,"inst_perc_green_tot":0.0659134},"geometry":{"type":"Point","coordinates":[-73.655014,43.3534393]}},{"type":"Feature","properties":{"year":2014,"instnm":"Aiken Technical College","CZ_label":"Hilton Head Island & Aiken","inst_cmplt_tot":546,"inst_green_cmplt_tot":96,"inst_perc_green_tot":0.1758242},"geometry":{"type":"Point","coordinates":[-81.8424225,33.5336342]}},{"type":"Feature","properties":{"year":2014,"instnm":"Aims Community College","CZ_label":"Fort Collins","inst_cmplt_tot":1109,"inst_green_cmplt_tot":152,"inst_perc_green_tot":0.1370604},"geometry":{"type":"Point","coordinates":[-104.7643356,40.4090385]}},{"type":"Feature","properties":{"year":2014,"instnm":"Alabama Southern Community College","CZ_label":"Andalusia & Atmore","inst_cmplt_tot":236,"inst_green_cmplt_tot":79,"inst_perc_green_tot":0.3347458},"geometry":{"type":"Point","coordinates":[-87.326355,31.4889259]}},{"type":"Feature","properties":{"year":2014,"instnm":"Alamance Community College","CZ_label":"Burlington","inst_cmplt_tot":369,"inst_green_cmplt_tot":55,"inst_perc_green_tot":0.1490515},"geometry":{"type":"Point","coordinates":[-79.3576584,36.0666847]}},{"type":"Feature","properties":{"year":2014,"instnm":"Albany Technical College","CZ_label":"Albany","inst_cmplt_tot":1379,"inst_green_cmplt_tot":695,"inst_perc_green_tot":0.5039884},"geometry":{"type":"Point","coordinates":[-84.1742859,31.5543404]}},{"type":"Feature","properties":{"year":2014,"instnm":"Alexandria Technical & Community College","CZ_label":"Alexandria & Fergus Falls","inst_cmplt_tot":657,"inst_green_cmplt_tot":285,"inst_perc_green_tot":0.43379},"geometry":{"type":"Point","coordinates":[-95.371582,45.8685913]}},{"type":"Feature","properties":{"year":2014,"instnm":"Allan Hancock College","CZ_label":"Santa Barbara","inst_cmplt_tot":1307,"inst_green_cmplt_tot":173,"inst_perc_green_tot":0.1323642},"geometry":{"type":"Point","coordinates":[-120.4214859,34.9429779]}},{"type":"Feature","properties":{"year":2014,"instnm":"Allegany College of Maryland","CZ_label":"Cumberland","inst_cmplt_tot":622,"inst_green_cmplt_tot":9,"inst_perc_green_tot":0.0144695},"geometry":{"type":"Point","coordinates":[-78.7297668,39.6526566]}},{"type":"Feature","properties":{"year":2014,"instnm":"Allen County Community College","CZ_label":"Parsons & Chanute","inst_cmplt_tot":584,"inst_green_cmplt_tot":186,"inst_perc_green_tot":0.3184932},"geometry":{"type":"Point","coordinates":[-95.3968124,37.9376984]}},{"type":"Feature","properties":{"year":2014,"instnm":"Alpena Community College","CZ_label":"Alpena","inst_cmplt_tot":414,"inst_green_cmplt_tot":150,"inst_perc_green_tot":0.3623188},"geometry":{"type":"Point","coordinates":[-83.4450684,45.081646]}},{"type":"Feature","properties":{"year":2014,"instnm":"Alvin Community College","CZ_label":"Houston","inst_cmplt_tot":807,"inst_green_cmplt_tot":132,"inst_perc_green_tot":0.1635688},"geometry":{"type":"Point","coordinates":[-95.2410812,29.3965816]}},{"type":"Feature","properties":{"year":2014,"instnm":"Amarillo College","CZ_label":"Amarillo","inst_cmplt_tot":1410,"inst_green_cmplt_tot":300,"inst_perc_green_tot":0.212766},"geometry":{"type":"Point","coordinates":[-101.8471069,35.1884117]}},{"type":"Feature","properties":{"year":2014,"instnm":"American River College","CZ_label":"Sacramento","inst_cmplt_tot":6213,"inst_green_cmplt_tot":1261,"inst_perc_green_tot":0.2029615},"geometry":{"type":"Point","coordinates":[-121.3460083,38.6497345]}},{"type":"Feature","properties":{"year":2014,"instnm":"Angelina College","CZ_label":"Lufkin","inst_cmplt_tot":677,"inst_green_cmplt_tot":103,"inst_perc_green_tot":0.1521418},"geometry":{"type":"Point","coordinates":[-94.7316284,31.2873592]}},{"type":"Feature","properties":{"year":2014,"instnm":"Anne Arundel Community College","CZ_label":"Baltimore","inst_cmplt_tot":1072,"inst_green_cmplt_tot":184,"inst_perc_green_tot":0.1716418},"geometry":{"type":"Point","coordinates":[-76.5122223,39.0498123]}},{"type":"Feature","properties":{"year":2014,"instnm":"Anoka Technical College","CZ_label":"Minneapolis","inst_cmplt_tot":396,"inst_green_cmplt_tot":89,"inst_perc_green_tot":0.2247475},"geometry":{"type":"Point","coordinates":[-93.4159546,45.2163315]}},{"type":"Feature","properties":{"year":2014,"instnm":"Anoka-Ramsey Community College","CZ_label":"Minneapolis","inst_cmplt_tot":1210,"inst_green_cmplt_tot":18,"inst_perc_green_tot":0.014876},"geometry":{"type":"Point","coordinates":[-93.3516998,45.1729774]}},{"type":"Feature","properties":{"year":2014,"instnm":"Antelope Valley College","CZ_label":"Los Angeles","inst_cmplt_tot":1687,"inst_green_cmplt_tot":440,"inst_perc_green_tot":0.260818},"geometry":{"type":"Point","coordinates":[-118.1861649,34.6762085]}},{"type":"Feature","properties":{"year":2014,"instnm":"Arapahoe Community College","CZ_label":"Denver","inst_cmplt_tot":1264,"inst_green_cmplt_tot":62,"inst_perc_green_tot":0.0490506},"geometry":{"type":"Point","coordinates":[-105.018631,39.6075058]}},{"type":"Feature","properties":{"year":2014,"instnm":"Arizona Western College","CZ_label":"Yuma","inst_cmplt_tot":1793,"inst_green_cmplt_tot":966,"inst_perc_green_tot":0.5387619},"geometry":{"type":"Point","coordinates":[-114.4959717,32.6893044]}},{"type":"Feature","properties":{"year":2014,"instnm":"Arkansas Northeastern College","CZ_label":"Blytheville","inst_cmplt_tot":372,"inst_green_cmplt_tot":88,"inst_perc_green_tot":0.2365591},"geometry":{"type":"Point","coordinates":[-89.922493,35.8973618]}},{"type":"Feature","properties":{"year":2014,"instnm":"Arkansas State University-Beebe","CZ_label":"Searcy","inst_cmplt_tot":1131,"inst_green_cmplt_tot":377,"inst_perc_green_tot":0.3333333},"geometry":{"type":"Point","coordinates":[-91.8961639,35.0745125]}},{"type":"Feature","properties":{"year":2014,"instnm":"Arkansas State University-Mountain Home","CZ_label":"Mountain Home","inst_cmplt_tot":488,"inst_green_cmplt_tot":12,"inst_perc_green_tot":0.0245902},"geometry":{"type":"Point","coordinates":[-92.3833542,36.3353348]}},{"type":"Feature","properties":{"year":2014,"instnm":"Arkansas State University-Newport","CZ_label":"Searcy","inst_cmplt_tot":590,"inst_green_cmplt_tot":300,"inst_perc_green_tot":0.5084746},"geometry":{"type":"Point","coordinates":[-91.1895218,35.6403275]}},{"type":"Feature","properties":{"year":2014,"instnm":"Asheville-Buncombe Technical Community College","CZ_label":"Asheville","inst_cmplt_tot":1063,"inst_green_cmplt_tot":174,"inst_perc_green_tot":0.1636877},"geometry":{"type":"Point","coordinates":[-82.5558395,35.5710564]}},{"type":"Feature","properties":{"year":2014,"instnm":"Ashland Community and Technical College","CZ_label":"Huntington","inst_cmplt_tot":1111,"inst_green_cmplt_tot":628,"inst_perc_green_tot":0.5652565},"geometry":{"type":"Point","coordinates":[-82.6506653,38.4692001]}},{"type":"Feature","properties":{"year":2014,"instnm":"Asnuntuck Community College","CZ_label":null,"inst_cmplt_tot":456,"inst_green_cmplt_tot":265,"inst_perc_green_tot":0.5811404},"geometry":{"type":"Point","coordinates":[-72.5701752,41.9984093]}},{"type":"Feature","properties":{"year":2014,"instnm":"Athens Technical College","CZ_label":"Athens","inst_cmplt_tot":1530,"inst_green_cmplt_tot":614,"inst_perc_green_tot":0.4013072},"geometry":{"type":"Point","coordinates":[-83.3395996,33.9901848]}},{"type":"Feature","properties":{"year":2014,"instnm":"Atlanta Technical College","CZ_label":"Atlanta","inst_cmplt_tot":1603,"inst_green_cmplt_tot":814,"inst_perc_green_tot":0.5077979},"geometry":{"type":"Point","coordinates":[-84.4049988,33.7120094]}},{"type":"Feature","properties":{"year":2014,"instnm":"Atlantic Cape Community College","CZ_label":"Trenton","inst_cmplt_tot":786,"inst_green_cmplt_tot":6,"inst_perc_green_tot":0.0076336},"geometry":{"type":"Point","coordinates":[-74.6822891,39.4613876]}},{"type":"Feature","properties":{"year":2014,"instnm":"Augusta Technical College","CZ_label":"Augusta","inst_cmplt_tot":1427,"inst_green_cmplt_tot":695,"inst_perc_green_tot":0.4870357},"geometry":{"type":"Point","coordinates":[-82.048439,33.4189911]}},{"type":"Feature","properties":{"year":2014,"instnm":"Austin Community College District","CZ_label":"Austin","inst_cmplt_tot":2341,"inst_green_cmplt_tot":524,"inst_perc_green_tot":0.223836},"geometry":{"type":"Point","coordinates":[-97.6817169,30.3335075]}},{"type":"Feature","properties":{"year":2014,"instnm":"Bakersfield College","CZ_label":"Bakersfield","inst_cmplt_tot":1746,"inst_green_cmplt_tot":439,"inst_perc_green_tot":0.2514318},"geometry":{"type":"Point","coordinates":[-118.9734879,35.4108009]}},{"type":"Feature","properties":{"year":2014,"instnm":"Baltimore City Community College","CZ_label":"Baltimore","inst_cmplt_tot":523,"inst_green_cmplt_tot":24,"inst_perc_green_tot":0.0458891},"geometry":{"type":"Point","coordinates":[-76.6628799,39.3199768]}},{"type":"Feature","properties":{"year":2014,"instnm":"Barstow Community College","CZ_label":"Los Angeles","inst_cmplt_tot":255,"inst_green_cmplt_tot":8,"inst_perc_green_tot":0.0313725},"geometry":{"type":"Point","coordinates":[-117.0252304,34.8714523]}},{"type":"Feature","properties":{"year":2014,"instnm":"Barton County Community College","CZ_label":"Great Bend","inst_cmplt_tot":936,"inst_green_cmplt_tot":68,"inst_perc_green_tot":0.0726496},"geometry":{"type":"Point","coordinates":[-98.7316971,38.4033089]}},{"type":"Feature","properties":{"year":2014,"instnm":"Bates Technical College","CZ_label":"Seattle","inst_cmplt_tot":1084,"inst_green_cmplt_tot":552,"inst_perc_green_tot":0.5092251},"geometry":{"type":"Point","coordinates":[-122.4464111,47.2515297]}},{"type":"Feature","properties":{"year":2014,"instnm":"Baton Rouge Community College","CZ_label":"Baton Rouge","inst_cmplt_tot":1636,"inst_green_cmplt_tot":179,"inst_perc_green_tot":0.1094132},"geometry":{"type":"Point","coordinates":[-91.1379318,30.4482765]}},{"type":"Feature","properties":{"year":2014,"instnm":"Bay de Noc Community College","CZ_label":"Marquette","inst_cmplt_tot":496,"inst_green_cmplt_tot":71,"inst_perc_green_tot":0.1431452},"geometry":{"type":"Point","coordinates":[-87.0807114,45.7697144]}},{"type":"Feature","properties":{"year":2014,"instnm":"Beaufort County Community College","CZ_label":"Washington","inst_cmplt_tot":293,"inst_green_cmplt_tot":38,"inst_perc_green_tot":0.1296928},"geometry":{"type":"Point","coordinates":[-77.0425034,35.5732307]}},{"type":"Feature","properties":{"year":2014,"instnm":"Bellevue College","CZ_label":"Seattle","inst_cmplt_tot":2405,"inst_green_cmplt_tot":251,"inst_perc_green_tot":0.1043659},"geometry":{"type":"Point","coordinates":[-122.1499557,47.5847778]}},{"type":"Feature","properties":{"year":2014,"instnm":"Bellingham Technical College","CZ_label":"Seattle","inst_cmplt_tot":688,"inst_green_cmplt_tot":278,"inst_perc_green_tot":0.4040698},"geometry":{"type":"Point","coordinates":[-122.5121613,48.7661896]}},{"type":"Feature","properties":{"year":2014,"instnm":"Belmont College","CZ_label":"Wheeling","inst_cmplt_tot":315,"inst_green_cmplt_tot":68,"inst_perc_green_tot":0.215873},"geometry":{"type":"Point","coordinates":[-80.9667435,40.0770836]}},{"type":"Feature","properties":{"year":2014,"instnm":"Bergen Community College","CZ_label":"Newark & Jersey City","inst_cmplt_tot":512,"inst_green_cmplt_tot":55,"inst_perc_green_tot":0.1074219},"geometry":{"type":"Point","coordinates":[-74.0940857,40.9537315]}},{"type":"Feature","properties":{"year":2014,"instnm":"Berkeley City College","CZ_label":"San Francisco","inst_cmplt_tot":234,"inst_green_cmplt_tot":2,"inst_perc_green_tot":0.008547},"geometry":{"type":"Point","coordinates":[-122.2697906,37.8704681]}},{"type":"Feature","properties":{"year":2014,"instnm":"Berkshire Community College","CZ_label":"Pittsfield","inst_cmplt_tot":395,"inst_green_cmplt_tot":44,"inst_perc_green_tot":0.1113924},"geometry":{"type":"Point","coordinates":[-73.31884,42.4608765]}},{"type":"Feature","properties":{"year":2014,"instnm":"Bevill State Community College","CZ_label":"Birmingham","inst_cmplt_tot":667,"inst_green_cmplt_tot":248,"inst_perc_green_tot":0.3718141},"geometry":{"type":"Point","coordinates":[-87.2650375,33.8357849]}},{"type":"Feature","properties":{"year":2014,"instnm":"Big Bend Community College","CZ_label":"Moses Lake","inst_cmplt_tot":578,"inst_green_cmplt_tot":120,"inst_perc_green_tot":0.2076125},"geometry":{"type":"Point","coordinates":[-119.3185043,47.1850815]}},{"type":"Feature","properties":{"year":2014,"instnm":"Big Sandy Community and Technical College","CZ_label":"Pikeville","inst_cmplt_tot":1432,"inst_green_cmplt_tot":898,"inst_perc_green_tot":0.627095},"geometry":{"type":"Point","coordinates":[-82.778389,37.6875839]}},{"type":"Feature","properties":{"year":2014,"instnm":"Bishop State Community College","CZ_label":"Mobile","inst_cmplt_tot":757,"inst_green_cmplt_tot":435,"inst_perc_green_tot":0.5746367},"geometry":{"type":"Point","coordinates":[-88.0569839,30.6939716]}},{"type":"Feature","properties":{"year":2014,"instnm":"Bismarck State College","CZ_label":"Bismarck","inst_cmplt_tot":868,"inst_green_cmplt_tot":329,"inst_perc_green_tot":0.3790323},"geometry":{"type":"Point","coordinates":[-100.8184814,46.8206558]}},{"type":"Feature","properties":{"year":2014,"instnm":"Black Hawk College","CZ_label":"Davenport","inst_cmplt_tot":940,"inst_green_cmplt_tot":175,"inst_perc_green_tot":0.1861702},"geometry":{"type":"Point","coordinates":[-90.4494934,41.4759827]}},{"type":"Feature","properties":{"year":2014,"instnm":"Black River Technical College","CZ_label":"Jonesboro","inst_cmplt_tot":639,"inst_green_cmplt_tot":104,"inst_perc_green_tot":0.1627543},"geometry":{"type":"Point","coordinates":[-90.9510345,36.2397919]}},{"type":"Feature","properties":{"year":2014,"instnm":"Blackhawk Technical College","CZ_label":"Milwaukee","inst_cmplt_tot":719,"inst_green_cmplt_tot":166,"inst_perc_green_tot":0.2308762},"geometry":{"type":"Point","coordinates":[-89.0161591,42.5932159]}},{"type":"Feature","properties":{"year":2014,"instnm":"Bladen Community College","CZ_label":"Fayetteville","inst_cmplt_tot":110,"inst_green_cmplt_tot":17,"inst_perc_green_tot":0.1545455},"geometry":{"type":"Point","coordinates":[-78.7317505,34.6460915]}},{"type":"Feature","properties":{"year":2014,"instnm":"Blinn College","CZ_label":"College Station","inst_cmplt_tot":1586,"inst_green_cmplt_tot":339,"inst_perc_green_tot":0.2137453},"geometry":{"type":"Point","coordinates":[-96.4096756,30.1597137]}},{"type":"Feature","properties":{"year":2014,"instnm":"Blue Mountain Community College","CZ_label":"Kennewick","inst_cmplt_tot":338,"inst_green_cmplt_tot":54,"inst_perc_green_tot":0.1597633},"geometry":{"type":"Point","coordinates":[-118.8169403,45.6773148]}},{"type":"Feature","properties":{"year":2014,"instnm":"Blue Ridge Community College","CZ_label":"Asheville","inst_cmplt_tot":328,"inst_green_cmplt_tot":122,"inst_perc_green_tot":0.3719512},"geometry":{"type":"Point","coordinates":[-82.4255447,35.3080406]}},{"type":"Feature","properties":{"year":2014,"instnm":"Blue Ridge Community College","CZ_label":"Harrisonburg","inst_cmplt_tot":768,"inst_green_cmplt_tot":111,"inst_perc_green_tot":0.1445312},"geometry":{"type":"Point","coordinates":[-78.9390411,38.279583]}},{"type":"Feature","properties":{"year":2014,"instnm":"Blue Ridge Community and Technical College","CZ_label":"Winchester","inst_cmplt_tot":609,"inst_green_cmplt_tot":7,"inst_perc_green_tot":0.0114943},"geometry":{"type":"Point","coordinates":[-78.0026703,39.4376335]}},{"type":"Feature","properties":{"year":2014,"instnm":"Bluegrass Community and Technical College","CZ_label":"Lexington","inst_cmplt_tot":2356,"inst_green_cmplt_tot":863,"inst_perc_green_tot":0.3662988},"geometry":{"type":"Point","coordinates":[-84.5023346,38.0244675]}},{"type":"Feature","properties":{"year":2014,"instnm":"Bossier Parish Community College","CZ_label":"Shreveport","inst_cmplt_tot":1043,"inst_green_cmplt_tot":132,"inst_perc_green_tot":0.126558},"geometry":{"type":"Point","coordinates":[-93.6468811,32.5395508]}},{"type":"Feature","properties":{"year":2014,"instnm":"Brazosport College","CZ_label":"Houston","inst_cmplt_tot":507,"inst_green_cmplt_tot":158,"inst_perc_green_tot":0.3116371},"geometry":{"type":"Point","coordinates":[-95.4090042,29.0483608]}},{"type":"Feature","properties":{"year":2014,"instnm":"BridgeValley Community & Technical College","CZ_label":"Charleston","inst_cmplt_tot":0,"inst_green_cmplt_tot":0,"inst_perc_green_tot":"NA"},"geometry":{"type":"Point","coordinates":[-81.70755,38.3554993]}},{"type":"Feature","properties":{"year":2014,"instnm":"Bristol Community College","CZ_label":"Providence","inst_cmplt_tot":1574,"inst_green_cmplt_tot":101,"inst_perc_green_tot":0.0641677},"geometry":{"type":"Point","coordinates":[-71.1202621,41.7213364]}},{"type":"Feature","properties":{"year":2014,"instnm":"Brookdale Community College","CZ_label":"Long Branch","inst_cmplt_tot":1913,"inst_green_cmplt_tot":146,"inst_perc_green_tot":0.0763199},"geometry":{"type":"Point","coordinates":[-74.1327438,40.3249054]}},{"type":"Feature","properties":{"year":2014,"instnm":"Brookhaven College","CZ_label":"Dallas","inst_cmplt_tot":1057,"inst_green_cmplt_tot":148,"inst_perc_green_tot":0.1400189},"geometry":{"type":"Point","coordinates":[-96.8501587,32.9282379]}},{"type":"Feature","properties":{"year":2014,"instnm":"Broward College","CZ_label":"Miami","inst_cmplt_tot":7456,"inst_green_cmplt_tot":626,"inst_perc_green_tot":0.0839592},"geometry":{"type":"Point","coordinates":[-80.2354126,26.0797195]}},{"type":"Feature","properties":{"year":2014,"instnm":"Brunswick Community College","CZ_label":"Wilmington","inst_cmplt_tot":284,"inst_green_cmplt_tot":86,"inst_perc_green_tot":0.3028169},"geometry":{"type":"Point","coordinates":[-78.2297897,34.0389748]}},{"type":"Feature","properties":{"year":2014,"instnm":"Bucks County Community College","CZ_label":"Philadelphia","inst_cmplt_tot":881,"inst_green_cmplt_tot":63,"inst_perc_green_tot":0.0715096},"geometry":{"type":"Point","coordinates":[-74.9658432,40.2391014]}},{"type":"Feature","properties":{"year":2014,"instnm":"Bunker Hill Community College","CZ_label":"Boston","inst_cmplt_tot":1443,"inst_green_cmplt_tot":165,"inst_perc_green_tot":0.1143451},"geometry":{"type":"Point","coordinates":[-71.0692596,42.3748055]}},{"type":"Feature","properties":{"year":2014,"instnm":"Burlington County College","CZ_label":"Trenton","inst_cmplt_tot":367,"inst_green_cmplt_tot":43,"inst_perc_green_tot":0.1171662},"geometry":{"type":"Point","coordinates":[-74.6454697,39.9643517]}},{"type":"Feature","properties":{"year":2014,"instnm":"Butler Community College","CZ_label":"Wichita","inst_cmplt_tot":1083,"inst_green_cmplt_tot":74,"inst_perc_green_tot":0.0683287},"geometry":{"type":"Point","coordinates":[-96.8827209,37.8063774]}},{"type":"Feature","properties":{"year":2014,"instnm":"Butler County Community College","CZ_label":"Pittsburgh","inst_cmplt_tot":412,"inst_green_cmplt_tot":57,"inst_perc_green_tot":0.1383495},"geometry":{"type":"Point","coordinates":[-79.9128342,40.8283463]}},{"type":"Feature","properties":{"year":2014,"instnm":"Butte College","CZ_label":"Redding & Chico","inst_cmplt_tot":2585,"inst_green_cmplt_tot":621,"inst_perc_green_tot":0.2402321},"geometry":{"type":"Point","coordinates":[-121.6446915,39.6491165]}},{"type":"Feature","properties":{"year":2014,"instnm":"CUNY Borough of Manhattan Community College","CZ_label":"New York","inst_cmplt_tot":3450,"inst_green_cmplt_tot":318,"inst_perc_green_tot":0.0921739},"geometry":{"type":"Point","coordinates":[-74.0118256,40.7187881]}},{"type":"Feature","properties":{"year":2014,"instnm":"CUNY Bronx Community College","CZ_label":"New York","inst_cmplt_tot":1525,"inst_green_cmplt_tot":181,"inst_perc_green_tot":0.1186885},"geometry":{"type":"Point","coordinates":[-73.9097443,40.8571854]}},{"type":"Feature","properties":{"year":2014,"instnm":"CUNY Hostos Community College","CZ_label":"New York","inst_cmplt_tot":903,"inst_green_cmplt_tot":68,"inst_perc_green_tot":0.0753045},"geometry":{"type":"Point","coordinates":[-73.9273605,40.8176003]}},{"type":"Feature","properties":{"year":2014,"instnm":"CUNY Kingsborough Community College","CZ_label":"New York","inst_cmplt_tot":3070,"inst_green_cmplt_tot":455,"inst_perc_green_tot":0.1482085},"geometry":{"type":"Point","coordinates":[-73.9347763,40.5764465]}},{"type":"Feature","properties":{"year":2014,"instnm":"CUNY LaGuardia Community College","CZ_label":"New York","inst_cmplt_tot":2735,"inst_green_cmplt_tot":465,"inst_perc_green_tot":0.1700183},"geometry":{"type":"Point","coordinates":[-73.9350586,40.7444992]}},{"type":"Feature","properties":{"year":2014,"instnm":"CUNY Queensborough Community College","CZ_label":"New York","inst_cmplt_tot":2185,"inst_green_cmplt_tot":458,"inst_perc_green_tot":0.209611},"geometry":{"type":"Point","coordinates":[-73.7545471,40.7548561]}},{"type":"Feature","properties":{"year":2014,"instnm":"Cabrillo College","CZ_label":"San Jose","inst_cmplt_tot":1447,"inst_green_cmplt_tot":132,"inst_perc_green_tot":0.0912232},"geometry":{"type":"Point","coordinates":[-121.9279251,36.9891014]}},{"type":"Feature","properties":{"year":2014,"instnm":"Caldwell Community College and Technical Institute","CZ_label":"Hickory","inst_cmplt_tot":603,"inst_green_cmplt_tot":55,"inst_perc_green_tot":0.0912106},"geometry":{"type":"Point","coordinates":[-81.4841461,35.8546028]}},{"type":"Feature","properties":{"year":2014,"instnm":"Camden County College","CZ_label":"Trenton","inst_cmplt_tot":1456,"inst_green_cmplt_tot":69,"inst_perc_green_tot":0.0473901},"geometry":{"type":"Point","coordinates":[-75.0404739,39.7850838]}},{"type":"Feature","properties":{"year":2014,"instnm":"Canada College","CZ_label":"San Francisco","inst_cmplt_tot":516,"inst_green_cmplt_tot":45,"inst_perc_green_tot":0.0872093},"geometry":{"type":"Point","coordinates":[-122.2655487,37.4473648]}},{"type":"Feature","properties":{"year":2014,"instnm":"Cape Cod Community College","CZ_label":"Boston","inst_cmplt_tot":656,"inst_green_cmplt_tot":48,"inst_perc_green_tot":0.0731707},"geometry":{"type":"Point","coordinates":[-70.3373337,41.6919212]}},{"type":"Feature","properties":{"year":2014,"instnm":"Cape Fear Community College","CZ_label":"Wilmington","inst_cmplt_tot":854,"inst_green_cmplt_tot":392,"inst_perc_green_tot":0.4590164},"geometry":{"type":"Point","coordinates":[-77.9489822,34.240242]}},{"type":"Feature","properties":{"year":2014,"instnm":"Capital Area Technical College","CZ_label":"Baton Rouge","inst_cmplt_tot":649,"inst_green_cmplt_tot":384,"inst_perc_green_tot":0.5916795},"geometry":{"type":"Point","coordinates":[-91.1554031,30.4775867]}},{"type":"Feature","properties":{"year":2014,"instnm":"Capital Community College","CZ_label":null,"inst_cmplt_tot":449,"inst_green_cmplt_tot":5,"inst_perc_green_tot":0.0111359},"geometry":{"type":"Point","coordinates":[-72.6727371,41.7683983]}},{"type":"Feature","properties":{"year":2014,"instnm":"Carl Albert State College","CZ_label":"McAlester","inst_cmplt_tot":511,"inst_green_cmplt_tot":51,"inst_perc_green_tot":0.0998043},"geometry":{"type":"Point","coordinates":[-94.6338272,35.0382118]}},{"type":"Feature","properties":{"year":2014,"instnm":"Carl Sandburg College","CZ_label":"Davenport","inst_cmplt_tot":547,"inst_green_cmplt_tot":122,"inst_perc_green_tot":0.2230347},"geometry":{"type":"Point","coordinates":[-90.4082031,40.9812813]}},{"type":"Feature","properties":{"year":2014,"instnm":"Carroll Community College","CZ_label":"Baltimore","inst_cmplt_tot":658,"inst_green_cmplt_tot":10,"inst_perc_green_tot":0.0151976},"geometry":{"type":"Point","coordinates":[-76.9911118,39.5318031]}},{"type":"Feature","properties":{"year":2014,"instnm":"Carteret Community College","CZ_label":"Jacksonville","inst_cmplt_tot":244,"inst_green_cmplt_tot":29,"inst_perc_green_tot":0.1188525},"geometry":{"type":"Point","coordinates":[-76.7566757,34.7246361]}},{"type":"Feature","properties":{"year":2014,"instnm":"Cascadia College","CZ_label":"Seattle","inst_cmplt_tot":454,"inst_green_cmplt_tot":63,"inst_perc_green_tot":0.1387665},"geometry":{"type":"Point","coordinates":[-122.1911087,47.7599564]}},{"type":"Feature","properties":{"year":2014,"instnm":"Casper College","CZ_label":"Casper","inst_cmplt_tot":828,"inst_green_cmplt_tot":221,"inst_perc_green_tot":0.2669082},"geometry":{"type":"Point","coordinates":[-106.3270035,42.8305168]}},{"type":"Feature","properties":{"year":2014,"instnm":"Catawba Valley Community College","CZ_label":"Hickory","inst_cmplt_tot":577,"inst_green_cmplt_tot":68,"inst_perc_green_tot":0.117851},"geometry":{"type":"Point","coordinates":[-81.2879181,35.6997337]}},{"type":"Feature","properties":{"year":2014,"instnm":"Cayuga County Community College","CZ_label":"Syracuse","inst_cmplt_tot":529,"inst_green_cmplt_tot":8,"inst_perc_green_tot":0.0151229},"geometry":{"type":"Point","coordinates":[-76.54319,42.9438019]}},{"type":"Feature","properties":{"year":2014,"instnm":"Cecil College","CZ_label":"Philadelphia","inst_cmplt_tot":284,"inst_green_cmplt_tot":2,"inst_perc_green_tot":0.0070423},"geometry":{"type":"Point","coordinates":[-75.9559479,39.6422234]}},{"type":"Feature","properties":{"year":2014,"instnm":"Cedar Valley College","CZ_label":"Dallas","inst_cmplt_tot":768,"inst_green_cmplt_tot":190,"inst_perc_green_tot":0.2473958},"geometry":{"type":"Point","coordinates":[-96.7634201,32.6256866]}},{"type":"Feature","properties":{"year":2014,"instnm":"Central Alabama Community College","CZ_label":"Anniston","inst_cmplt_tot":260,"inst_green_cmplt_tot":25,"inst_perc_green_tot":0.0961538},"geometry":{"type":"Point","coordinates":[-85.9465332,32.9244308]}},{"type":"Feature","properties":{"year":2014,"instnm":"Central Arizona College","CZ_label":"Phoenix","inst_cmplt_tot":743,"inst_green_cmplt_tot":197,"inst_perc_green_tot":0.2651413},"geometry":{"type":"Point","coordinates":[-111.652504,32.9570923]}},{"type":"Feature","properties":{"year":2014,"instnm":"Central Carolina Community College","CZ_label":"Fayetteville","inst_cmplt_tot":844,"inst_green_cmplt_tot":179,"inst_perc_green_tot":0.2120853},"geometry":{"type":"Point","coordinates":[-79.1445084,35.4723167]}},{"type":"Feature","properties":{"year":2014,"instnm":"Central Carolina Technical College","CZ_label":"Columbia","inst_cmplt_tot":568,"inst_green_cmplt_tot":233,"inst_perc_green_tot":0.4102113},"geometry":{"type":"Point","coordinates":[-80.3674011,33.9328003]}},{"type":"Feature","properties":{"year":2014,"instnm":"Central Community College","CZ_label":"Grand Island","inst_cmplt_tot":1182,"inst_green_cmplt_tot":501,"inst_perc_green_tot":0.4238579},"geometry":{"type":"Point","coordinates":[-98.372551,40.8895836]}},{"type":"Feature","properties":{"year":2014,"instnm":"Central Georgia Technical College","CZ_label":"Macon & Warner Robins","inst_cmplt_tot":3081,"inst_green_cmplt_tot":641,"inst_perc_green_tot":0.2080493},"geometry":{"type":"Point","coordinates":[-83.6675339,32.5450211]}},{"type":"Feature","properties":{"year":2014,"instnm":"Central Lakes College-Brainerd","CZ_label":"Bemidji & Brainerd","inst_cmplt_tot":1034,"inst_green_cmplt_tot":298,"inst_perc_green_tot":0.2882012},"geometry":{"type":"Point","coordinates":[-94.2152405,46.3460045]}},{"type":"Feature","properties":{"year":2014,"instnm":"Central Louisiana Technical Community College","CZ_label":"Alexandria","inst_cmplt_tot":838,"inst_green_cmplt_tot":438,"inst_perc_green_tot":0.522673},"geometry":{"type":"Point","coordinates":[-92.4450455,31.2595596]}},{"type":"Feature","properties":{"year":2014,"instnm":"Central Maine Community College","CZ_label":"Portland","inst_cmplt_tot":389,"inst_green_cmplt_tot":104,"inst_perc_green_tot":0.2673522},"geometry":{"type":"Point","coordinates":[-70.2354965,44.134346]}},{"type":"Feature","properties":{"year":2014,"instnm":"Central New Mexico Community College","CZ_label":"Albuquerque","inst_cmplt_tot":6206,"inst_green_cmplt_tot":1370,"inst_perc_green_tot":0.2207541},"geometry":{"type":"Point","coordinates":[-106.6249542,35.0759888]}},{"type":"Feature","properties":{"year":2014,"instnm":"Central Ohio Technical College","CZ_label":"Columbus","inst_cmplt_tot":584,"inst_green_cmplt_tot":8,"inst_perc_green_tot":0.0136986},"geometry":{"type":"Point","coordinates":[-82.4474411,40.069313]}},{"type":"Feature","properties":{"year":2014,"instnm":"Central Oregon Community College","CZ_label":"Bend","inst_cmplt_tot":1002,"inst_green_cmplt_tot":90,"inst_perc_green_tot":0.0898204},"geometry":{"type":"Point","coordinates":[-121.3458023,44.070652]}},{"type":"Feature","properties":{"year":2014,"instnm":"Central Piedmont Community College","CZ_label":"Charlotte","inst_cmplt_tot":771,"inst_green_cmplt_tot":90,"inst_perc_green_tot":0.1167315},"geometry":{"type":"Point","coordinates":[-80.8297958,35.2177734]}},{"type":"Feature","properties":{"year":2014,"instnm":"Central Texas College","CZ_label":"Killeen","inst_cmplt_tot":3386,"inst_green_cmplt_tot":190,"inst_perc_green_tot":0.0561134},"geometry":{"type":"Point","coordinates":[-97.8097076,31.1190548]}},{"type":"Feature","properties":{"year":2014,"instnm":"Central Virginia Community College","CZ_label":"Lynchburg","inst_cmplt_tot":830,"inst_green_cmplt_tot":114,"inst_perc_green_tot":0.1373494},"geometry":{"type":"Point","coordinates":[-79.1843872,37.3588943]}},{"type":"Feature","properties":{"year":2014,"instnm":"Central Wyoming College","CZ_label":"Riverton","inst_cmplt_tot":271,"inst_green_cmplt_tot":67,"inst_perc_green_tot":0.2472325},"geometry":{"type":"Point","coordinates":[-108.4270096,43.0304909]}},{"type":"Feature","properties":{"year":2014,"instnm":"Centralia College","CZ_label":"Seattle","inst_cmplt_tot":979,"inst_green_cmplt_tot":347,"inst_perc_green_tot":0.3544433},"geometry":{"type":"Point","coordinates":[-122.9607468,46.716301]}},{"type":"Feature","properties":{"year":2014,"instnm":"Century College","CZ_label":"Minneapolis","inst_cmplt_tot":1743,"inst_green_cmplt_tot":147,"inst_perc_green_tot":0.0843373},"geometry":{"type":"Point","coordinates":[-92.9821091,45.0418167]}},{"type":"Feature","properties":{"year":2014,"instnm":"Cerritos College","CZ_label":"Los Angeles","inst_cmplt_tot":1430,"inst_green_cmplt_tot":173,"inst_perc_green_tot":0.120979},"geometry":{"type":"Point","coordinates":[-118.0972595,33.8858414]}},{"type":"Feature","properties":{"year":2014,"instnm":"Cerro Coso Community College","CZ_label":"Bakersfield","inst_cmplt_tot":282,"inst_green_cmplt_tot":11,"inst_perc_green_tot":0.0390071},"geometry":{"type":"Point","coordinates":[-117.6677094,35.5677643]}},{"type":"Feature","properties":{"year":2014,"instnm":"Chabot College","CZ_label":"San Francisco","inst_cmplt_tot":1037,"inst_green_cmplt_tot":308,"inst_perc_green_tot":0.2970106},"geometry":{"type":"Point","coordinates":[-122.1069717,37.6425133]}},{"type":"Feature","properties":{"year":2014,"instnm":"Chaffey College","CZ_label":"Los Angeles","inst_cmplt_tot":2012,"inst_green_cmplt_tot":194,"inst_perc_green_tot":0.0964215},"geometry":{"type":"Point","coordinates":[-117.5730896,34.147049]}},{"type":"Feature","properties":{"year":2014,"instnm":"Chandler-Gilbert Community College","CZ_label":"Phoenix","inst_cmplt_tot":2619,"inst_green_cmplt_tot":843,"inst_perc_green_tot":0.3218786},"geometry":{"type":"Point","coordinates":[-111.7959213,33.2938957]}},{"type":"Feature","properties":{"year":2014,"instnm":"Chattahoochee Technical College","CZ_label":"Atlanta","inst_cmplt_tot":1427,"inst_green_cmplt_tot":593,"inst_perc_green_tot":0.4155571},"geometry":{"type":"Point","coordinates":[-84.5524902,33.9290924]}},{"type":"Feature","properties":{"year":2014,"instnm":"Chattahoochee Valley Community College","CZ_label":"Columbus","inst_cmplt_tot":208,"inst_green_cmplt_tot":3,"inst_perc_green_tot":0.0144231},"geometry":{"type":"Point","coordinates":[-85.0314865,32.4239082]}},{"type":"Feature","properties":{"year":2014,"instnm":"Chattanooga State Community College","CZ_label":"Chattanooga","inst_cmplt_tot":1181,"inst_green_cmplt_tot":138,"inst_perc_green_tot":0.1168501},"geometry":{"type":"Point","coordinates":[-85.2373886,35.1002007]}},{"type":"Feature","properties":{"year":2014,"instnm":"Chemeketa Community College","CZ_label":"Portland","inst_cmplt_tot":1825,"inst_green_cmplt_tot":166,"inst_perc_green_tot":0.0909589},"geometry":{"type":"Point","coordinates":[-122.9771805,44.9782066]}},{"type":"Feature","properties":{"year":2014,"instnm":"Chesapeake College","CZ_label":"Dover","inst_cmplt_tot":273,"inst_green_cmplt_tot":0,"inst_perc_green_tot":0},"geometry":{"type":"Point","coordinates":[-76.0831146,38.9517784]}},{"type":"Feature","properties":{"year":2014,"instnm":"Chipola College","CZ_label":"Panama City","inst_cmplt_tot":452,"inst_green_cmplt_tot":22,"inst_perc_green_tot":0.0486726},"geometry":{"type":"Point","coordinates":[-85.2319489,30.7906475]}},{"type":"Feature","properties":{"year":2014,"instnm":"Chippewa Valley Technical College","CZ_label":"Eau Claire","inst_cmplt_tot":1891,"inst_green_cmplt_tot":439,"inst_perc_green_tot":0.2321523},"geometry":{"type":"Point","coordinates":[-91.5056763,44.7948685]}},{"type":"Feature","properties":{"year":2014,"instnm":"Cincinnati State Technical and Community College","CZ_label":"Cincinnati","inst_cmplt_tot":1093,"inst_green_cmplt_tot":144,"inst_perc_green_tot":0.1317475},"geometry":{"type":"Point","coordinates":[-84.5352325,39.1505699]}},{"type":"Feature","properties":{"year":2014,"instnm":"Cisco College","CZ_label":"Graham","inst_cmplt_tot":622,"inst_green_cmplt_tot":189,"inst_perc_green_tot":0.3038585},"geometry":{"type":"Point","coordinates":[-98.9856796,32.4016953]}},{"type":"Feature","properties":{"year":2014,"instnm":"Citrus College","CZ_label":"Los Angeles","inst_cmplt_tot":1964,"inst_green_cmplt_tot":111,"inst_perc_green_tot":0.0565173},"geometry":{"type":"Point","coordinates":[-117.8852692,34.1354866]}},{"type":"Feature","properties":{"year":2014,"instnm":"City College of San Francisco","CZ_label":"San Francisco","inst_cmplt_tot":2732,"inst_green_cmplt_tot":390,"inst_perc_green_tot":0.1427526},"geometry":{"type":"Point","coordinates":[-122.4511566,37.7259521]}},{"type":"Feature","properties":{"year":2014,"instnm":"City Colleges of Chicago-Harold Washington College","CZ_label":"Chicago","inst_cmplt_tot":1142,"inst_green_cmplt_tot":16,"inst_perc_green_tot":0.0140105},"geometry":{"type":"Point","coordinates":[-87.6265945,41.8860664]}},{"type":"Feature","properties":{"year":2014,"instnm":"City Colleges of Chicago-Harry S Truman College","CZ_label":"Chicago","inst_cmplt_tot":1229,"inst_green_cmplt_tot":46,"inst_perc_green_tot":0.0374288},"geometry":{"type":"Point","coordinates":[-87.6591034,41.9645004]}},{"type":"Feature","properties":{"year":2014,"instnm":"City Colleges of Chicago-Kennedy-King College","CZ_label":"Chicago","inst_cmplt_tot":1057,"inst_green_cmplt_tot":506,"inst_perc_green_tot":0.4787133},"geometry":{"type":"Point","coordinates":[-87.643425,41.7802544]}},{"type":"Feature","properties":{"year":2014,"instnm":"City Colleges of Chicago-Malcolm X College","CZ_label":"Chicago","inst_cmplt_tot":927,"inst_green_cmplt_tot":0,"inst_perc_green_tot":0},"geometry":{"type":"Point","coordinates":[-87.6741257,41.8769417]}},{"type":"Feature","properties":{"year":2014,"instnm":"City Colleges of Chicago-Olive-Harvey College","CZ_label":"Chicago","inst_cmplt_tot":6375,"inst_green_cmplt_tot":5968,"inst_perc_green_tot":0.9361569},"geometry":{"type":"Point","coordinates":[-87.5892487,41.7099953]}},{"type":"Feature","properties":{"year":2014,"instnm":"City Colleges of Chicago-Richard J Daley College","CZ_label":"Chicago","inst_cmplt_tot":1587,"inst_green_cmplt_tot":652,"inst_perc_green_tot":0.4108381},"geometry":{"type":"Point","coordinates":[-87.7239838,41.7559547]}},{"type":"Feature","properties":{"year":2014,"instnm":"City Colleges of Chicago-Wilbur Wright College","CZ_label":"Chicago","inst_cmplt_tot":1619,"inst_green_cmplt_tot":133,"inst_perc_green_tot":0.0821495},"geometry":{"type":"Point","coordinates":[-87.7878647,41.9587746]}},{"type":"Feature","properties":{"year":2014,"instnm":"Clackamas Community College","CZ_label":"Portland","inst_cmplt_tot":840,"inst_green_cmplt_tot":195,"inst_perc_green_tot":0.2321429},"geometry":{"type":"Point","coordinates":[-122.5742722,45.323185]}},{"type":"Feature","properties":{"year":2014,"instnm":"Clarendon College","CZ_label":"Amarillo","inst_cmplt_tot":199,"inst_green_cmplt_tot":90,"inst_perc_green_tot":0.4522613},"geometry":{"type":"Point","coordinates":[-100.9045792,34.945076]}},{"type":"Feature","properties":{"year":2014,"instnm":"Clark College","CZ_label":"Portland","inst_cmplt_tot":2282,"inst_green_cmplt_tot":217,"inst_perc_green_tot":0.095092},"geometry":{"type":"Point","coordinates":[-122.652977,45.6343079]}},{"type":"Feature","properties":{"year":2014,"instnm":"Clark State Community College","CZ_label":"Dayton","inst_cmplt_tot":727,"inst_green_cmplt_tot":22,"inst_perc_green_tot":0.0302613},"geometry":{"type":"Point","coordinates":[-83.7992859,39.8963394]}},{"type":"Feature","properties":{"year":2014,"instnm":"Clatsop Community College","CZ_label":"Aberdeen","inst_cmplt_tot":183,"inst_green_cmplt_tot":20,"inst_perc_green_tot":0.1092896},"geometry":{"type":"Point","coordinates":[-123.8247528,46.1831779]}},{"type":"Feature","properties":{"year":2014,"instnm":"Cleveland Community College","CZ_label":"Charlotte","inst_cmplt_tot":355,"inst_green_cmplt_tot":75,"inst_perc_green_tot":0.2112676},"geometry":{"type":"Point","coordinates":[-81.4917145,35.2777901]}},{"type":"Feature","properties":{"year":2014,"instnm":"Cleveland State Community College","CZ_label":"Chattanooga","inst_cmplt_tot":766,"inst_green_cmplt_tot":146,"inst_perc_green_tot":0.1906005},"geometry":{"type":"Point","coordinates":[-84.8791428,35.200779]}},{"type":"Feature","properties":{"year":2014,"instnm":"Clinton Community College","CZ_label":"Plattsburgh","inst_cmplt_tot":396,"inst_green_cmplt_tot":29,"inst_perc_green_tot":0.0732323},"geometry":{"type":"Point","coordinates":[-73.4420624,44.6481056]}},{"type":"Feature","properties":{"year":2014,"instnm":"Cloud County Community College","CZ_label":"Concordia","inst_cmplt_tot":574,"inst_green_cmplt_tot":1,"inst_perc_green_tot":0.0017422},"geometry":{"type":"Point","coordinates":[-97.6641464,39.5541992]}},{"type":"Feature","properties":{"year":2014,"instnm":"Clover Park Technical College","CZ_label":"Seattle","inst_cmplt_tot":828,"inst_green_cmplt_tot":88,"inst_perc_green_tot":0.1062802},"geometry":{"type":"Point","coordinates":[-122.4955215,47.1754761]}},{"type":"Feature","properties":{"year":2014,"instnm":"Clovis Community College","CZ_label":"Clovis","inst_cmplt_tot":707,"inst_green_cmplt_tot":41,"inst_perc_green_tot":0.0579915},"geometry":{"type":"Point","coordinates":[-103.1658859,34.4024849]}},{"type":"Feature","properties":{"year":2014,"instnm":"Coahoma Community College","CZ_label":"Oxford","inst_cmplt_tot":337,"inst_green_cmplt_tot":32,"inst_perc_green_tot":0.0949555},"geometry":{"type":"Point","coordinates":[-90.5703049,34.2556267]}},{"type":"Feature","properties":{"year":2014,"instnm":"Coastal Bend College","CZ_label":"McAllen","inst_cmplt_tot":818,"inst_green_cmplt_tot":464,"inst_perc_green_tot":0.5672372},"geometry":{"type":"Point","coordinates":[-97.7563171,28.4357567]}},{"type":"Feature","properties":{"year":2014,"instnm":"Coastal Carolina Community College","CZ_label":"Jacksonville","inst_cmplt_tot":1002,"inst_green_cmplt_tot":157,"inst_perc_green_tot":0.1566866},"geometry":{"type":"Point","coordinates":[-77.3847885,34.7716866]}},{"type":"Feature","properties":{"year":2014,"instnm":"Coastal Pines Technical College","CZ_label":"Brunswick","inst_cmplt_tot":1099,"inst_green_cmplt_tot":510,"inst_perc_green_tot":0.4640582},"geometry":{"type":"Point","coordinates":[-82.381691,31.2136669]}},{"type":"Feature","properties":{"year":2014,"instnm":"Coastline Community College","CZ_label":"Los Angeles","inst_cmplt_tot":1397,"inst_green_cmplt_tot":185,"inst_perc_green_tot":0.1324266},"geometry":{"type":"Point","coordinates":[-117.8618469,33.6097717]}},{"type":"Feature","properties":{"year":2014,"instnm":"Cochise County Community College District","CZ_label":"Tucson","inst_cmplt_tot":2308,"inst_green_cmplt_tot":742,"inst_perc_green_tot":0.3214905},"geometry":{"type":"Point","coordinates":[-109.6904221,31.365757]}},{"type":"Feature","properties":{"year":2014,"instnm":"Coconino Community College","CZ_label":"Prescott Valley & Flagstaff","inst_cmplt_tot":124,"inst_green_cmplt_tot":2,"inst_perc_green_tot":0.016129},"geometry":{"type":"Point","coordinates":[-111.6456299,35.1713295]}},{"type":"Feature","properties":{"year":2014,"instnm":"Coffeyville Community College","CZ_label":"Bartlesville","inst_cmplt_tot":478,"inst_green_cmplt_tot":29,"inst_perc_green_tot":0.0606695},"geometry":{"type":"Point","coordinates":[-95.621376,37.0338135]}},{"type":"Feature","properties":{"year":2014,"instnm":"Colby Community College","CZ_label":"Colby","inst_cmplt_tot":318,"inst_green_cmplt_tot":23,"inst_perc_green_tot":0.072327},"geometry":{"type":"Point","coordinates":[-101.0513,39.3780212]}},{"type":"Feature","properties":{"year":2014,"instnm":"College of Alameda","CZ_label":"San Francisco","inst_cmplt_tot":383,"inst_green_cmplt_tot":91,"inst_perc_green_tot":0.2375979},"geometry":{"type":"Point","coordinates":[-122.2792587,37.7823906]}},{"type":"Feature","properties":{"year":2014,"instnm":"College of Central Florida","CZ_label":"Orlando","inst_cmplt_tot":1741,"inst_green_cmplt_tot":65,"inst_perc_green_tot":0.0373349},"geometry":{"type":"Point","coordinates":[-82.1756897,29.1660786]}},{"type":"Feature","properties":{"year":2014,"instnm":"College of DuPage","CZ_label":"Chicago","inst_cmplt_tot":3484,"inst_green_cmplt_tot":259,"inst_perc_green_tot":0.0743398},"geometry":{"type":"Point","coordinates":[-88.0716324,41.8415756]}},{"type":"Feature","properties":{"year":2014,"instnm":"College of Lake County","CZ_label":"Chicago","inst_cmplt_tot":3214,"inst_green_cmplt_tot":684,"inst_perc_green_tot":0.2128189},"geometry":{"type":"Point","coordinates":[-88.0123901,42.3558807]}},{"type":"Feature","properties":{"year":2014,"instnm":"College of Marin","CZ_label":"San Francisco","inst_cmplt_tot":317,"inst_green_cmplt_tot":14,"inst_perc_green_tot":0.044164},"geometry":{"type":"Point","coordinates":[-122.5499344,37.9550133]}},{"type":"Feature","properties":{"year":2014,"instnm":"College of Micronesia-FSM","CZ_label":null,"inst_cmplt_tot":395,"inst_green_cmplt_tot":91,"inst_perc_green_tot":0.2303797},"geometry":{"type":"Point","coordinates":[158.2092285,6.9552498]}},{"type":"Feature","properties":{"year":2014,"instnm":"College of San Mateo","CZ_label":"San Francisco","inst_cmplt_tot":1166,"inst_green_cmplt_tot":158,"inst_perc_green_tot":0.135506},"geometry":{"type":"Point","coordinates":[-122.3360748,37.5343552]}},{"type":"Feature","properties":{"year":2014,"instnm":"College of Southern Idaho","CZ_label":"Twin Falls","inst_cmplt_tot":913,"inst_green_cmplt_tot":143,"inst_perc_green_tot":0.1566265},"geometry":{"type":"Point","coordinates":[-114.4743729,42.5814781]}},{"type":"Feature","properties":{"year":2014,"instnm":"College of Southern Maryland","CZ_label":"Washington","inst_cmplt_tot":1480,"inst_green_cmplt_tot":180,"inst_perc_green_tot":0.1216216},"geometry":{"type":"Point","coordinates":[-77.0093307,38.5596466]}},{"type":"Feature","properties":{"year":2014,"instnm":"College of Southern Nevada","CZ_label":"Las Vegas","inst_cmplt_tot":4113,"inst_green_cmplt_tot":499,"inst_perc_green_tot":0.1213226},"geometry":{"type":"Point","coordinates":[-115.2337875,36.1584435]}},{"type":"Feature","properties":{"year":2014,"instnm":"College of Western Idaho","CZ_label":"Boise","inst_cmplt_tot":1151,"inst_green_cmplt_tot":446,"inst_perc_green_tot":0.3874891},"geometry":{"type":"Point","coordinates":[-116.5073166,43.6141052]}},{"type":"Feature","properties":{"year":2014,"instnm":"College of the Albemarle","CZ_label":"Virginia Beach","inst_cmplt_tot":352,"inst_green_cmplt_tot":18,"inst_perc_green_tot":0.0511364},"geometry":{"type":"Point","coordinates":[-76.2196045,36.3248253]}},{"type":"Feature","properties":{"year":2014,"instnm":"College of the Canyons","CZ_label":"Los Angeles","inst_cmplt_tot":1892,"inst_green_cmplt_tot":67,"inst_perc_green_tot":0.0354123},"geometry":{"type":"Point","coordinates":[-118.5695267,34.4031219]}},{"type":"Feature","properties":{"year":2014,"instnm":"College of the Desert","CZ_label":"Los Angeles","inst_cmplt_tot":679,"inst_green_cmplt_tot":47,"inst_perc_green_tot":0.0692194},"geometry":{"type":"Point","coordinates":[-116.3876114,33.7324829]}},{"type":"Feature","properties":{"year":2014,"instnm":"College of the Mainland","CZ_label":"Houston","inst_cmplt_tot":561,"inst_green_cmplt_tot":136,"inst_perc_green_tot":0.2424242},"geometry":{"type":"Point","coordinates":[-94.9997406,29.3955135]}},{"type":"Feature","properties":{"year":2014,"instnm":"College of the Marshall Islands","CZ_label":null,"inst_cmplt_tot":106,"inst_green_cmplt_tot":0,"inst_perc_green_tot":0},"geometry":{"type":"Point","coordinates":[171.3784485,7.1027398]}},{"type":"Feature","properties":{"year":2014,"instnm":"College of the Ouachitas","CZ_label":"Hot Springs","inst_cmplt_tot":576,"inst_green_cmplt_tot":124,"inst_perc_green_tot":0.2152778},"geometry":{"type":"Point","coordinates":[-92.8214188,34.378746]}},{"type":"Feature","properties":{"year":2014,"instnm":"College of the Redwoods","CZ_label":"Eureka","inst_cmplt_tot":354,"inst_green_cmplt_tot":50,"inst_perc_green_tot":0.1412429},"geometry":{"type":"Point","coordinates":[-124.195076,40.696743]}},{"type":"Feature","properties":{"year":2014,"instnm":"College of the Sequoias","CZ_label":"Fresno","inst_cmplt_tot":1350,"inst_green_cmplt_tot":168,"inst_perc_green_tot":0.1244444},"geometry":{"type":"Point","coordinates":[-119.3147736,36.3229561]}},{"type":"Feature","properties":{"year":2014,"instnm":"College of the Siskiyous","CZ_label":"Klamath Falls","inst_cmplt_tot":217,"inst_green_cmplt_tot":18,"inst_perc_green_tot":0.0829493},"geometry":{"type":"Point","coordinates":[-122.3891678,41.4138489]}},{"type":"Feature","properties":{"year":2014,"instnm":"Collin County Community College District","CZ_label":"Dallas","inst_cmplt_tot":1946,"inst_green_cmplt_tot":14,"inst_perc_green_tot":0.0071942},"geometry":{"type":"Point","coordinates":[-96.6389389,33.1624107]}},{"type":"Feature","properties":{"year":2014,"instnm":"Colorado Mountain College","CZ_label":"Rifle & Edwards","inst_cmplt_tot":668,"inst_green_cmplt_tot":27,"inst_perc_green_tot":0.0404192},"geometry":{"type":"Point","coordinates":[-107.3243942,39.54636]}},{"type":"Feature","properties":{"year":2014,"instnm":"Colorado Northwestern Community College","CZ_label":"Steamboat Springs","inst_cmplt_tot":210,"inst_green_cmplt_tot":74,"inst_perc_green_tot":0.352381},"geometry":{"type":"Point","coordinates":[-108.7902985,40.0807457]}},{"type":"Feature","properties":{"year":2014,"instnm":"Columbia Basin College","CZ_label":"Kennewick","inst_cmplt_tot":1174,"inst_green_cmplt_tot":119,"inst_perc_green_tot":0.1013629},"geometry":{"type":"Point","coordinates":[-119.1186066,46.2515488]}},{"type":"Feature","properties":{"year":2014,"instnm":"Columbia College","CZ_label":"Stockton & Modesto","inst_cmplt_tot":297,"inst_green_cmplt_tot":29,"inst_perc_green_tot":0.0976431},"geometry":{"type":"Point","coordinates":[-120.3876038,38.0303612]}},{"type":"Feature","properties":{"year":2014,"instnm":"Columbia Gorge Community College","CZ_label":"The Dalles","inst_cmplt_tot":181,"inst_green_cmplt_tot":16,"inst_perc_green_tot":0.0883978},"geometry":{"type":"Point","coordinates":[-121.1902008,45.5907249]}},{"type":"Feature","properties":{"year":2014,"instnm":"Columbia State Community College","CZ_label":"Spring Hill","inst_cmplt_tot":389,"inst_green_cmplt_tot":11,"inst_perc_green_tot":0.0282776},"geometry":{"type":"Point","coordinates":[-87.1019135,35.6167564]}},{"type":"Feature","properties":{"year":2014,"instnm":"Columbia-Greene Community College","CZ_label":"Albany","inst_cmplt_tot":356,"inst_green_cmplt_tot":35,"inst_perc_green_tot":0.0983146},"geometry":{"type":"Point","coordinates":[-73.7878113,42.2301788]}},{"type":"Feature","properties":{"year":2014,"instnm":"Columbus State Community College","CZ_label":"Columbus","inst_cmplt_tot":4323,"inst_green_cmplt_tot":360,"inst_perc_green_tot":0.0832755},"geometry":{"type":"Point","coordinates":[-82.9876556,39.9699745]}},{"type":"Feature","properties":{"year":2014,"instnm":"Columbus Technical College","CZ_label":"Columbus","inst_cmplt_tot":1004,"inst_green_cmplt_tot":307,"inst_perc_green_tot":0.3057769},"geometry":{"type":"Point","coordinates":[-84.9793472,32.5056953]}},{"type":"Feature","properties":{"year":2014,"instnm":"Community College of Allegheny County","CZ_label":"Pittsburgh","inst_cmplt_tot":1941,"inst_green_cmplt_tot":558,"inst_perc_green_tot":0.2874807},"geometry":{"type":"Point","coordinates":[-80.0185471,40.4506302]}},{"type":"Feature","properties":{"year":2014,"instnm":"Community College of Aurora","CZ_label":"Denver","inst_cmplt_tot":544,"inst_green_cmplt_tot":38,"inst_perc_green_tot":0.0698529},"geometry":{"type":"Point","coordinates":[-104.8018646,39.7177658]}},{"type":"Feature","properties":{"year":2014,"instnm":"Community College of Beaver County","CZ_label":"Pittsburgh","inst_cmplt_tot":421,"inst_green_cmplt_tot":96,"inst_perc_green_tot":0.2280285},"geometry":{"type":"Point","coordinates":[-80.305275,40.6548233]}},{"type":"Feature","properties":{"year":2014,"instnm":"Community College of Denver","CZ_label":"Denver","inst_cmplt_tot":866,"inst_green_cmplt_tot":15,"inst_perc_green_tot":0.017321},"geometry":{"type":"Point","coordinates":[-105.003006,39.7414207]}},{"type":"Feature","properties":{"year":2014,"instnm":"Community College of Philadelphia","CZ_label":"Philadelphia","inst_cmplt_tot":2138,"inst_green_cmplt_tot":276,"inst_perc_green_tot":0.1290926},"geometry":{"type":"Point","coordinates":[-75.1660614,39.9623756]}},{"type":"Feature","properties":{"year":2014,"instnm":"Community College of Rhode Island","CZ_label":"Providence","inst_cmplt_tot":1961,"inst_green_cmplt_tot":90,"inst_perc_green_tot":0.045895},"geometry":{"type":"Point","coordinates":[-71.4815063,41.7128181]}},{"type":"Feature","properties":{"year":2014,"instnm":"Community College of Vermont","CZ_label":"Burlington","inst_cmplt_tot":665,"inst_green_cmplt_tot":50,"inst_perc_green_tot":0.075188},"geometry":{"type":"Point","coordinates":[-73.1818161,44.4915962]}},{"type":"Feature","properties":{"year":2014,"instnm":"Connors State College","CZ_label":"Muskogee","inst_cmplt_tot":427,"inst_green_cmplt_tot":107,"inst_perc_green_tot":0.2505855},"geometry":{"type":"Point","coordinates":[-95.3195419,35.4928741]}},{"type":"Feature","properties":{"year":2014,"instnm":"Contra Costa College","CZ_label":"San Francisco","inst_cmplt_tot":756,"inst_green_cmplt_tot":116,"inst_perc_green_tot":0.1534392},"geometry":{"type":"Point","coordinates":[-122.3423843,37.9686241]}},{"type":"Feature","properties":{"year":2014,"instnm":"Copiah-Lincoln Community College","CZ_label":"Jackson","inst_cmplt_tot":906,"inst_green_cmplt_tot":256,"inst_perc_green_tot":0.2825607},"geometry":{"type":"Point","coordinates":[-90.3991318,31.6900597]}},{"type":"Feature","properties":{"year":2014,"instnm":"Copper Mountain Community College","CZ_label":"Los Angeles","inst_cmplt_tot":160,"inst_green_cmplt_tot":12,"inst_perc_green_tot":0.075},"geometry":{"type":"Point","coordinates":[-116.2139359,34.1404648]}},{"type":"Feature","properties":{"year":2014,"instnm":"Corning Community College","CZ_label":"Ithaca & Elmira","inst_cmplt_tot":705,"inst_green_cmplt_tot":114,"inst_perc_green_tot":0.1617021},"geometry":{"type":"Point","coordinates":[-77.0737076,42.1172409]}},{"type":"Feature","properties":{"year":2014,"instnm":"Cossatot Community College of the University of Arkansas","CZ_label":"Idabel & De Queen & Mena","inst_cmplt_tot":378,"inst_green_cmplt_tot":115,"inst_perc_green_tot":0.3042328},"geometry":{"type":"Point","coordinates":[-94.3673019,34.0433884]}},{"type":"Feature","properties":{"year":2014,"instnm":"Cosumnes River College","CZ_label":"Sacramento","inst_cmplt_tot":1259,"inst_green_cmplt_tot":578,"inst_perc_green_tot":0.4590945},"geometry":{"type":"Point","coordinates":[-121.4229736,38.4538345]}},{"type":"Feature","properties":{"year":2014,"instnm":"County College of Morris","CZ_label":"Newark & Jersey City","inst_cmplt_tot":1377,"inst_green_cmplt_tot":64,"inst_perc_green_tot":0.0464779},"geometry":{"type":"Point","coordinates":[-74.577507,40.8534279]}},{"type":"Feature","properties":{"year":2014,"instnm":"Cowley County Community College","CZ_label":"Wichita","inst_cmplt_tot":591,"inst_green_cmplt_tot":83,"inst_perc_green_tot":0.1404399},"geometry":{"type":"Point","coordinates":[-97.0419388,37.0619164]}},{"type":"Feature","properties":{"year":2014,"instnm":"Crafton Hills College","CZ_label":"Los Angeles","inst_cmplt_tot":596,"inst_green_cmplt_tot":56,"inst_perc_green_tot":0.0939597},"geometry":{"type":"Point","coordinates":[-117.1008224,34.0385132]}},{"type":"Feature","properties":{"year":2014,"instnm":"Craven Community College","CZ_label":"Jacksonville","inst_cmplt_tot":578,"inst_green_cmplt_tot":66,"inst_perc_green_tot":0.1141869},"geometry":{"type":"Point","coordinates":[-77.1022339,35.111515]}},{"type":"Feature","properties":{"year":2014,"instnm":"Crowder College","CZ_label":"Joplin","inst_cmplt_tot":892,"inst_green_cmplt_tot":249,"inst_perc_green_tot":0.279148},"geometry":{"type":"Point","coordinates":[-94.3632202,36.8117104]}},{"type":"Feature","properties":{"year":2014,"instnm":"Cuesta College","CZ_label":"Santa Barbara","inst_cmplt_tot":729,"inst_green_cmplt_tot":92,"inst_perc_green_tot":0.1262003},"geometry":{"type":"Point","coordinates":[-120.7416229,35.3298607]}},{"type":"Feature","properties":{"year":2014,"instnm":"Cumberland County College","CZ_label":"Trenton","inst_cmplt_tot":531,"inst_green_cmplt_tot":4,"inst_perc_green_tot":0.007533},"geometry":{"type":"Point","coordinates":[-75.0546875,39.4384155]}},{"type":"Feature","properties":{"year":2014,"instnm":"Cuyahoga Community College District","CZ_label":"Cleveland","inst_cmplt_tot":3317,"inst_green_cmplt_tot":104,"inst_perc_green_tot":0.0313536},"geometry":{"type":"Point","coordinates":[-81.6696396,41.4939804]}},{"type":"Feature","properties":{"year":2014,"instnm":"Cuyamaca College","CZ_label":"San Diego","inst_cmplt_tot":709,"inst_green_cmplt_tot":147,"inst_perc_green_tot":0.2073343},"geometry":{"type":"Point","coordinates":[-116.9410477,32.7430725]}},{"type":"Feature","properties":{"year":2014,"instnm":"Cypress College","CZ_label":"Los Angeles","inst_cmplt_tot":1348,"inst_green_cmplt_tot":371,"inst_perc_green_tot":0.2752226},"geometry":{"type":"Point","coordinates":[-118.0238876,33.8276253]}},{"type":"Feature","properties":{"year":2014,"instnm":"Dabney S Lancaster Community College","CZ_label":"Covington","inst_cmplt_tot":146,"inst_green_cmplt_tot":30,"inst_perc_green_tot":0.2054795},"geometry":{"type":"Point","coordinates":[-79.8517914,37.8125458]}},{"type":"Feature","properties":{"year":2014,"instnm":"Dakota College at Bottineau","CZ_label":"Minot","inst_cmplt_tot":73,"inst_green_cmplt_tot":3,"inst_perc_green_tot":0.0410959},"geometry":{"type":"Point","coordinates":[-100.4411011,48.8325043]}},{"type":"Feature","properties":{"year":2014,"instnm":"Dakota County Technical College","CZ_label":"Minneapolis","inst_cmplt_tot":767,"inst_green_cmplt_tot":235,"inst_perc_green_tot":0.3063885},"geometry":{"type":"Point","coordinates":[-93.0793457,44.7389297]}},{"type":"Feature","properties":{"year":2014,"instnm":"Danville Area Community College","CZ_label":"Lafayette","inst_cmplt_tot":677,"inst_green_cmplt_tot":136,"inst_perc_green_tot":0.2008863},"geometry":{"type":"Point","coordinates":[-87.5863495,40.1284676]}},{"type":"Feature","properties":{"year":2014,"instnm":"Danville Community College","CZ_label":"Burlington","inst_cmplt_tot":773,"inst_green_cmplt_tot":318,"inst_perc_green_tot":0.4113842},"geometry":{"type":"Point","coordinates":[-79.4085464,36.5657158]}},{"type":"Feature","properties":{"year":2014,"instnm":"Davidson County Community College","CZ_label":"Winston-Salem","inst_cmplt_tot":719,"inst_green_cmplt_tot":168,"inst_perc_green_tot":0.2336579},"geometry":{"type":"Point","coordinates":[-80.1817398,35.8655396]}},{"type":"Feature","properties":{"year":2014,"instnm":"Dawson Community College","CZ_label":"Miles City","inst_cmplt_tot":79,"inst_green_cmplt_tot":3,"inst_perc_green_tot":0.0379747},"geometry":{"type":"Point","coordinates":[-104.7252426,47.0852242]}},{"type":"Feature","properties":{"year":2014,"instnm":"Daytona State College","CZ_label":"Deltona","inst_cmplt_tot":3749,"inst_green_cmplt_tot":253,"inst_perc_green_tot":0.0674847},"geometry":{"type":"Point","coordinates":[-81.0512695,29.2022858]}},{"type":"Feature","properties":{"year":2014,"instnm":"De Anza College","CZ_label":"San Jose","inst_cmplt_tot":1480,"inst_green_cmplt_tot":135,"inst_perc_green_tot":0.0912162},"geometry":{"type":"Point","coordinates":[-122.0453644,37.3191757]}},{"type":"Feature","properties":{"year":2014,"instnm":"Del Mar College","CZ_label":"McAllen","inst_cmplt_tot":1395,"inst_green_cmplt_tot":449,"inst_perc_green_tot":0.3218638},"geometry":{"type":"Point","coordinates":[-97.4076233,27.7636223]}},{"type":"Feature","properties":{"year":2014,"instnm":"Delaware County Community College","CZ_label":"Philadelphia","inst_cmplt_tot":1386,"inst_green_cmplt_tot":240,"inst_perc_green_tot":0.1731602},"geometry":{"type":"Point","coordinates":[-75.3930817,39.9667244]}},{"type":"Feature","properties":{"year":2014,"instnm":"Delaware Technical Community College-Terry","CZ_label":"Dover","inst_cmplt_tot":337,"inst_green_cmplt_tot":16,"inst_perc_green_tot":0.0474777},"geometry":{"type":"Point","coordinates":[-75.5601196,39.1983719]}},{"type":"Feature","properties":{"year":2014,"instnm":"Delgado Community College","CZ_label":"New Orleans","inst_cmplt_tot":3231,"inst_green_cmplt_tot":469,"inst_perc_green_tot":0.1451563},"geometry":{"type":"Point","coordinates":[-90.1039658,29.9851494]}},{"type":"Feature","properties":{"year":2014,"instnm":"Delta College","CZ_label":"Saginaw","inst_cmplt_tot":1538,"inst_green_cmplt_tot":153,"inst_perc_green_tot":0.0994798},"geometry":{"type":"Point","coordinates":[-83.9859467,43.5594902]}},{"type":"Feature","properties":{"year":2014,"instnm":"Denmark Technical College","CZ_label":"Columbia","inst_cmplt_tot":365,"inst_green_cmplt_tot":172,"inst_perc_green_tot":0.4712329},"geometry":{"type":"Point","coordinates":[-81.1236267,33.3133545]}},{"type":"Feature","properties":{"year":2014,"instnm":"Des Moines Area Community College","CZ_label":"Des Moines","inst_cmplt_tot":2803,"inst_green_cmplt_tot":382,"inst_perc_green_tot":0.1362826},"geometry":{"type":"Point","coordinates":[-93.6115952,41.7073479]}},{"type":"Feature","properties":{"year":2014,"instnm":"Diablo Valley College","CZ_label":"San Francisco","inst_cmplt_tot":1369,"inst_green_cmplt_tot":193,"inst_perc_green_tot":0.1409788},"geometry":{"type":"Point","coordinates":[-122.0698624,37.9680367]}},{"type":"Feature","properties":{"year":2014,"instnm":"Dine College","CZ_label":"Gallup","inst_cmplt_tot":169,"inst_green_cmplt_tot":23,"inst_perc_green_tot":0.1360947},"geometry":{"type":"Point","coordinates":[-109.2168427,36.2933273]}},{"type":"Feature","properties":{"year":2014,"instnm":"Dodge City Community College","CZ_label":"Dodge City","inst_cmplt_tot":216,"inst_green_cmplt_tot":43,"inst_perc_green_tot":0.1990741},"geometry":{"type":"Point","coordinates":[-100.0372772,37.7778397]}},{"type":"Feature","properties":{"year":2014,"instnm":"Durham Technical Community College","CZ_label":"Raleigh","inst_cmplt_tot":665,"inst_green_cmplt_tot":94,"inst_perc_green_tot":0.1413534},"geometry":{"type":"Point","coordinates":[-78.8807373,35.9752007]}},{"type":"Feature","properties":{"year":2014,"instnm":"Dutchess Community College","CZ_label":"Poughkeepsie","inst_cmplt_tot":1233,"inst_green_cmplt_tot":165,"inst_perc_green_tot":0.13382},"geometry":{"type":"Point","coordinates":[-73.904953,41.7264748]}},{"type":"Feature","properties":{"year":2014,"instnm":"Dyersburg State Community College","CZ_label":"Dyersburg","inst_cmplt_tot":199,"inst_green_cmplt_tot":6,"inst_perc_green_tot":0.0301508},"geometry":{"type":"Point","coordinates":[-89.3906631,36.0471954]}},{"type":"Feature","properties":{"year":2014,"instnm":"East Arkansas Community College","CZ_label":"Forrest City","inst_cmplt_tot":250,"inst_green_cmplt_tot":33,"inst_perc_green_tot":0.132},"geometry":{"type":"Point","coordinates":[-90.7674484,35.0396729]}},{"type":"Feature","properties":{"year":2014,"instnm":"East Central College","CZ_label":"St. Louis","inst_cmplt_tot":458,"inst_green_cmplt_tot":50,"inst_perc_green_tot":0.1091703},"geometry":{"type":"Point","coordinates":[-90.9755325,38.4302979]}},{"type":"Feature","properties":{"year":2014,"instnm":"East Central Community College","CZ_label":"Meridian","inst_cmplt_tot":422,"inst_green_cmplt_tot":67,"inst_perc_green_tot":0.1587678},"geometry":{"type":"Point","coordinates":[-89.1140671,32.4620743]}},{"type":"Feature","properties":{"year":2014,"instnm":"East Los Angeles College","CZ_label":"Los Angeles","inst_cmplt_tot":2813,"inst_green_cmplt_tot":191,"inst_perc_green_tot":0.067899},"geometry":{"type":"Point","coordinates":[-118.1483841,34.0392036]}},{"type":"Feature","properties":{"year":2014,"instnm":"East Mississippi Community College","CZ_label":"Meridian","inst_cmplt_tot":1000,"inst_green_cmplt_tot":359,"inst_perc_green_tot":0.359},"geometry":{"type":"Point","coordinates":[-88.4835129,32.830246]}},{"type":"Feature","properties":{"year":2014,"instnm":"Eastern Arizona College","CZ_label":"Deming","inst_cmplt_tot":1378,"inst_green_cmplt_tot":502,"inst_perc_green_tot":0.3642961},"geometry":{"type":"Point","coordinates":[-109.7616653,32.8407173]}},{"type":"Feature","properties":{"year":2014,"instnm":"Eastern Florida State College","CZ_label":"Palm Bay & Port St. Lucie","inst_cmplt_tot":3648,"inst_green_cmplt_tot":197,"inst_perc_green_tot":0.0540022},"geometry":{"type":"Point","coordinates":[-80.7581329,28.3847904]}},{"type":"Feature","properties":{"year":2014,"instnm":"Eastern Gateway Community College","CZ_label":"Wheeling","inst_cmplt_tot":263,"inst_green_cmplt_tot":41,"inst_perc_green_tot":0.1558935},"geometry":{"type":"Point","coordinates":[-80.6724091,40.3761749]}},{"type":"Feature","properties":{"year":2014,"instnm":"Eastern Idaho Technical College","CZ_label":"Idaho Falls","inst_cmplt_tot":248,"inst_green_cmplt_tot":91,"inst_perc_green_tot":0.3669355},"geometry":{"type":"Point","coordinates":[-111.984642,43.4818001]}},{"type":"Feature","properties":{"year":2014,"instnm":"Eastern Iowa Community College District","CZ_label":"Davenport","inst_cmplt_tot":985,"inst_green_cmplt_tot":114,"inst_perc_green_tot":0.115736},"geometry":{"type":"Point","coordinates":[-90.5771637,41.5202789]}},{"type":"Feature","properties":{"year":2014,"instnm":"Eastern Maine Community College","CZ_label":"Bangor","inst_cmplt_tot":388,"inst_green_cmplt_tot":133,"inst_perc_green_tot":0.3427835},"geometry":{"type":"Point","coordinates":[-68.7444534,44.8260498]}},{"type":"Feature","properties":{"year":2014,"instnm":"Eastern New Mexico University-Roswell Campus","CZ_label":"Roswell","inst_cmplt_tot":755,"inst_green_cmplt_tot":287,"inst_perc_green_tot":0.3801325},"geometry":{"type":"Point","coordinates":[-104.5243378,33.3139]}},{"type":"Feature","properties":{"year":2014,"instnm":"Eastern New Mexico University-Ruidoso Campus","CZ_label":"Alamogordo","inst_cmplt_tot":62,"inst_green_cmplt_tot":6,"inst_perc_green_tot":0.0967742},"geometry":{"type":"Point","coordinates":[-105.66539,33.3586311]}},{"type":"Feature","properties":{"year":2014,"instnm":"Eastern Oklahoma State College","CZ_label":"McAlester","inst_cmplt_tot":290,"inst_green_cmplt_tot":44,"inst_perc_green_tot":0.1517241},"geometry":{"type":"Point","coordinates":[-95.3276825,34.9133377]}},{"type":"Feature","properties":{"year":2014,"instnm":"Eastern Shore Community College","CZ_label":"Chincoteague","inst_cmplt_tot":141,"inst_green_cmplt_tot":25,"inst_perc_green_tot":0.177305},"geometry":{"type":"Point","coordinates":[-75.7508011,37.640461]}},{"type":"Feature","properties":{"year":2014,"instnm":"Eastern West Virginia Community and Technical College","CZ_label":"Cumberland","inst_cmplt_tot":99,"inst_green_cmplt_tot":13,"inst_perc_green_tot":0.1313131},"geometry":{"type":"Point","coordinates":[-78.9320908,39.0753899]}},{"type":"Feature","properties":{"year":2014,"instnm":"Eastern Wyoming College","CZ_label":"Torrington","inst_cmplt_tot":171,"inst_green_cmplt_tot":65,"inst_perc_green_tot":0.380117},"geometry":{"type":"Point","coordinates":[-104.1908264,42.0793533]}},{"type":"Feature","properties":{"year":2014,"instnm":"Eastfield College","CZ_label":"Dallas","inst_cmplt_tot":1597,"inst_green_cmplt_tot":415,"inst_perc_green_tot":0.2598622},"geometry":{"type":"Point","coordinates":[-96.6594696,32.8156776]}},{"type":"Feature","properties":{"year":2014,"instnm":"Edgecombe Community College","CZ_label":"Rocky Mount & Wilson","inst_cmplt_tot":248,"inst_green_cmplt_tot":22,"inst_perc_green_tot":0.0887097},"geometry":{"type":"Point","coordinates":[-77.571785,35.8798676]}},{"type":"Feature","properties":{"year":2014,"instnm":"Edison State Community College","CZ_label":"Dayton","inst_cmplt_tot":332,"inst_green_cmplt_tot":22,"inst_perc_green_tot":0.0662651},"geometry":{"type":"Point","coordinates":[-84.2125549,40.1579971]}},{"type":"Feature","properties":{"year":2014,"instnm":"Edmonds Community College","CZ_label":"Seattle","inst_cmplt_tot":2040,"inst_green_cmplt_tot":693,"inst_perc_green_tot":0.3397059},"geometry":{"type":"Point","coordinates":[-122.3274841,47.8167419]}},{"type":"Feature","properties":{"year":2014,"instnm":"El Camino College-Compton Center","CZ_label":"Los Angeles","inst_cmplt_tot":141,"inst_green_cmplt_tot":14,"inst_perc_green_tot":0.0992908},"geometry":{"type":"Point","coordinates":[-118.2091827,33.8766632]}},{"type":"Feature","properties":{"year":2014,"instnm":"El Camino Community College District","CZ_label":"Los Angeles","inst_cmplt_tot":1975,"inst_green_cmplt_tot":499,"inst_perc_green_tot":0.2526582},"geometry":{"type":"Point","coordinates":[-118.326622,33.8855858]}},{"type":"Feature","properties":{"year":2014,"instnm":"El Centro College","CZ_label":"Dallas","inst_cmplt_tot":934,"inst_green_cmplt_tot":0,"inst_perc_green_tot":0},"geometry":{"type":"Point","coordinates":[-96.8053589,32.7798157]}},{"type":"Feature","properties":{"year":2014,"instnm":"El Paso Community College","CZ_label":"El Paso","inst_cmplt_tot":3938,"inst_green_cmplt_tot":681,"inst_perc_green_tot":0.1729304},"geometry":{"type":"Point","coordinates":[-106.3691254,31.7736073]}},{"type":"Feature","properties":{"year":2014,"instnm":"Elgin Community College","CZ_label":"Chicago","inst_cmplt_tot":2486,"inst_green_cmplt_tot":846,"inst_perc_green_tot":0.3403057},"geometry":{"type":"Point","coordinates":[-88.3219376,42.0180664]}},{"type":"Feature","properties":{"year":2014,"instnm":"Elizabethtown Community and Technical College","CZ_label":"Elizabethtown","inst_cmplt_tot":1702,"inst_green_cmplt_tot":645,"inst_perc_green_tot":0.3789659},"geometry":{"type":"Point","coordinates":[-85.8614197,37.7030678]}},{"type":"Feature","properties":{"year":2014,"instnm":"Ellsworth Community College","CZ_label":"Iowa Falls & Hampton","inst_cmplt_tot":197,"inst_green_cmplt_tot":18,"inst_perc_green_tot":0.0913706},"geometry":{"type":"Point","coordinates":[-93.2658539,42.527523]}},{"type":"Feature","properties":{"year":2014,"instnm":"Enterprise State Community College","CZ_label":"Dothan","inst_cmplt_tot":373,"inst_green_cmplt_tot":238,"inst_perc_green_tot":0.6380697},"geometry":{"type":"Point","coordinates":[-85.8369522,31.2974968]}},{"type":"Feature","properties":{"year":2014,"instnm":"Erie Community College","CZ_label":"Buffalo","inst_cmplt_tot":2592,"inst_green_cmplt_tot":421,"inst_perc_green_tot":0.1624228},"geometry":{"type":"Point","coordinates":[-78.8726807,42.8817711]}},{"type":"Feature","properties":{"year":2014,"instnm":"Essex County College","CZ_label":"Newark & Jersey City","inst_cmplt_tot":1604,"inst_green_cmplt_tot":346,"inst_perc_green_tot":0.2157107},"geometry":{"type":"Point","coordinates":[-74.1782303,40.7384453]}},{"type":"Feature","properties":{"year":2014,"instnm":"Estrella Mountain Community College","CZ_label":"Phoenix","inst_cmplt_tot":1662,"inst_green_cmplt_tot":237,"inst_perc_green_tot":0.1425993},"geometry":{"type":"Point","coordinates":[-112.3431549,33.4807205]}},{"type":"Feature","properties":{"year":2014,"instnm":"Everett Community College","CZ_label":"Seattle","inst_cmplt_tot":1930,"inst_green_cmplt_tot":497,"inst_perc_green_tot":0.257513},"geometry":{"type":"Point","coordinates":[-122.2047348,48.0066261]}},{"type":"Feature","properties":{"year":2014,"instnm":"Evergreen Valley College","CZ_label":"San Jose","inst_cmplt_tot":583,"inst_green_cmplt_tot":38,"inst_perc_green_tot":0.0651801},"geometry":{"type":"Point","coordinates":[-121.7666855,37.3017349]}},{"type":"Feature","properties":{"year":2014,"instnm":"Fashion Institute of Technology","CZ_label":"New York","inst_cmplt_tot":2024,"inst_green_cmplt_tot":0,"inst_perc_green_tot":0},"geometry":{"type":"Point","coordinates":[-73.9947815,40.7473106]}},{"type":"Feature","properties":{"year":2014,"instnm":"Fayetteville Technical Community College","CZ_label":"Fayetteville","inst_cmplt_tot":1591,"inst_green_cmplt_tot":160,"inst_perc_green_tot":0.1005657},"geometry":{"type":"Point","coordinates":[-78.9245148,35.0683136]}},{"type":"Feature","properties":{"year":2014,"instnm":"Feather River Community College District","CZ_label":"Susanville","inst_cmplt_tot":255,"inst_green_cmplt_tot":68,"inst_perc_green_tot":0.2666667},"geometry":{"type":"Point","coordinates":[-120.9708786,39.9523964]}},{"type":"Feature","properties":{"year":2014,"instnm":"Finger Lakes Community College","CZ_label":"Rochester","inst_cmplt_tot":920,"inst_green_cmplt_tot":173,"inst_perc_green_tot":0.1880435},"geometry":{"type":"Point","coordinates":[-77.2417984,42.8675575]}},{"type":"Feature","properties":{"year":2014,"instnm":"Flathead Valley Community College","CZ_label":"Kalispell","inst_cmplt_tot":402,"inst_green_cmplt_tot":38,"inst_perc_green_tot":0.0945274},"geometry":{"type":"Point","coordinates":[-114.3272552,48.2273903]}},{"type":"Feature","properties":{"year":2014,"instnm":"Fletcher Technical Community College","CZ_label":"Houma","inst_cmplt_tot":3190,"inst_green_cmplt_tot":3014,"inst_perc_green_tot":0.9448276},"geometry":{"type":"Point","coordinates":[-90.8125916,29.6905632]}},{"type":"Feature","properties":{"year":2014,"instnm":"Flint Hills Technical College","CZ_label":"Emporia","inst_cmplt_tot":434,"inst_green_cmplt_tot":269,"inst_perc_green_tot":0.6198157},"geometry":{"type":"Point","coordinates":[-96.2236252,38.4209557]}},{"type":"Feature","properties":{"year":2014,"instnm":"Florence-Darlington Technical College","CZ_label":"Myrtle Beach","inst_cmplt_tot":690,"inst_green_cmplt_tot":170,"inst_perc_green_tot":0.2463768},"geometry":{"type":"Point","coordinates":[-79.8146896,34.2438812]}},{"type":"Feature","properties":{"year":2014,"instnm":"Florida Gateway College","CZ_label":"Gainesville","inst_cmplt_tot":657,"inst_green_cmplt_tot":31,"inst_perc_green_tot":0.0471842},"geometry":{"type":"Point","coordinates":[-82.569664,30.1743069]}},{"type":"Feature","properties":{"year":2014,"instnm":"Florida Keys Community College","CZ_label":"Miami","inst_cmplt_tot":236,"inst_green_cmplt_tot":22,"inst_perc_green_tot":0.0932203},"geometry":{"type":"Point","coordinates":[-81.7444611,24.5827484]}},{"type":"Feature","properties":{"year":2014,"instnm":"Florida SouthWestern State College","CZ_label":"Cape Coral","inst_cmplt_tot":2294,"inst_green_cmplt_tot":17,"inst_perc_green_tot":0.0074106},"geometry":{"type":"Point","coordinates":[-81.8873749,26.5547371]}},{"type":"Feature","properties":{"year":2014,"instnm":"Florida State College at Jacksonville","CZ_label":"Jacksonville","inst_cmplt_tot":6759,"inst_green_cmplt_tot":603,"inst_perc_green_tot":0.0892144},"geometry":{"type":"Point","coordinates":[-81.6599045,30.3349171]}},{"type":"Feature","properties":{"year":2014,"instnm":"Folsom Lake College","CZ_label":"Sacramento","inst_cmplt_tot":835,"inst_green_cmplt_tot":96,"inst_perc_green_tot":0.1149701},"geometry":{"type":"Point","coordinates":[-121.1266937,38.6625977]}},{"type":"Feature","properties":{"year":2014,"instnm":"Fond du Lac Tribal and Community College","CZ_label":"Duluth","inst_cmplt_tot":408,"inst_green_cmplt_tot":12,"inst_perc_green_tot":0.0294118},"geometry":{"type":"Point","coordinates":[-92.4441299,46.6888237]}},{"type":"Feature","properties":{"year":2014,"instnm":"Foothill College","CZ_label":"San Jose","inst_cmplt_tot":1107,"inst_green_cmplt_tot":50,"inst_perc_green_tot":0.0451671},"geometry":{"type":"Point","coordinates":[-122.1283264,37.3611031]}},{"type":"Feature","properties":{"year":2014,"instnm":"Forsyth Technical Community College","CZ_label":"Winston-Salem","inst_cmplt_tot":992,"inst_green_cmplt_tot":154,"inst_perc_green_tot":0.1552419},"geometry":{"type":"Point","coordinates":[-80.2722168,36.0685387]}},{"type":"Feature","properties":{"year":2014,"instnm":"Fort Scott Community College","CZ_label":"Joplin","inst_cmplt_tot":680,"inst_green_cmplt_tot":225,"inst_perc_green_tot":0.3308824},"geometry":{"type":"Point","coordinates":[-94.7159653,37.8161926]}},{"type":"Feature","properties":{"year":2014,"instnm":"Fox Valley Technical College","CZ_label":"Appleton","inst_cmplt_tot":2572,"inst_green_cmplt_tot":862,"inst_perc_green_tot":0.3351477},"geometry":{"type":"Point","coordinates":[-88.458931,44.2831726]}},{"type":"Feature","properties":{"year":2014,"instnm":"Frank Phillips College","CZ_label":"Amarillo","inst_cmplt_tot":199,"inst_green_cmplt_tot":117,"inst_perc_green_tot":0.5879397},"geometry":{"type":"Point","coordinates":[-101.4056549,35.6551514]}},{"type":"Feature","properties":{"year":2014,"instnm":"Frederick Community College","CZ_label":"Hagerstown & Frederick","inst_cmplt_tot":778,"inst_green_cmplt_tot":19,"inst_perc_green_tot":0.0244216},"geometry":{"type":"Point","coordinates":[-77.4178467,39.45224]}},{"type":"Feature","properties":{"year":2014,"instnm":"Fresno City College","CZ_label":"Fresno","inst_cmplt_tot":1354,"inst_green_cmplt_tot":193,"inst_perc_green_tot":0.1425406},"geometry":{"type":"Point","coordinates":[-119.7951279,36.7675171]}},{"type":"Feature","properties":{"year":2014,"instnm":"Front Range Community College","CZ_label":"Denver","inst_cmplt_tot":3106,"inst_green_cmplt_tot":537,"inst_perc_green_tot":0.1728912},"geometry":{"type":"Point","coordinates":[-105.03936,39.9017563]}},{"type":"Feature","properties":{"year":2014,"instnm":"Frontier Community College","CZ_label":"Olney","inst_cmplt_tot":256,"inst_green_cmplt_tot":25,"inst_perc_green_tot":0.0976562},"geometry":{"type":"Point","coordinates":[-88.3921356,38.3822746]}},{"type":"Feature","properties":{"year":2014,"instnm":"Fullerton College","CZ_label":"Los Angeles","inst_cmplt_tot":1566,"inst_green_cmplt_tot":220,"inst_perc_green_tot":0.1404853},"geometry":{"type":"Point","coordinates":[-117.9169846,33.8767929]}},{"type":"Feature","properties":{"year":2014,"instnm":"Fulton-Montgomery Community College","CZ_label":"Albany","inst_cmplt_tot":347,"inst_green_cmplt_tot":32,"inst_perc_green_tot":0.092219},"geometry":{"type":"Point","coordinates":[-74.2941437,42.9830475]}},{"type":"Feature","properties":{"year":2014,"instnm":"Gadsden State Community College","CZ_label":"Gadsden","inst_cmplt_tot":677,"inst_green_cmplt_tot":156,"inst_perc_green_tot":0.2304284},"geometry":{"type":"Point","coordinates":[-85.9913025,33.9918671]}},{"type":"Feature","properties":{"year":2014,"instnm":"Galveston College","CZ_label":"Houston","inst_cmplt_tot":421,"inst_green_cmplt_tot":147,"inst_perc_green_tot":0.3491686},"geometry":{"type":"Point","coordinates":[-94.8085403,29.2842121]}},{"type":"Feature","properties":{"year":2014,"instnm":"Garden City Community College","CZ_label":"Garden City","inst_cmplt_tot":281,"inst_green_cmplt_tot":58,"inst_perc_green_tot":0.2064057},"geometry":{"type":"Point","coordinates":[-100.8473587,37.9709778]}},{"type":"Feature","properties":{"year":2014,"instnm":"Garrett College","CZ_label":"Cumberland","inst_cmplt_tot":111,"inst_green_cmplt_tot":9,"inst_perc_green_tot":0.0810811},"geometry":{"type":"Point","coordinates":[-79.3432693,39.5606575]}},{"type":"Feature","properties":{"year":2014,"instnm":"Gaston College","CZ_label":"Charlotte","inst_cmplt_tot":925,"inst_green_cmplt_tot":206,"inst_perc_green_tot":0.2227027},"geometry":{"type":"Point","coordinates":[-81.1894836,35.3120155]}},{"type":"Feature","properties":{"year":2014,"instnm":"GateWay Community College","CZ_label":"Phoenix","inst_cmplt_tot":1340,"inst_green_cmplt_tot":424,"inst_perc_green_tot":0.3164179},"geometry":{"type":"Point","coordinates":[-111.9965286,33.449501]}},{"type":"Feature","properties":{"year":2014,"instnm":"Gateway Community College","CZ_label":null,"inst_cmplt_tot":722,"inst_green_cmplt_tot":97,"inst_perc_green_tot":0.134349},"geometry":{"type":"Point","coordinates":[-72.9274979,41.3044891]}},{"type":"Feature","properties":{"year":2014,"instnm":"Gateway Community and Technical College","CZ_label":"Cincinnati","inst_cmplt_tot":804,"inst_green_cmplt_tot":203,"inst_perc_green_tot":0.2524876},"geometry":{"type":"Point","coordinates":[-84.6294708,38.9610596]}},{"type":"Feature","properties":{"year":2014,"instnm":"Gateway Technical College","CZ_label":"Chicago","inst_cmplt_tot":2064,"inst_green_cmplt_tot":235,"inst_perc_green_tot":0.1138566},"geometry":{"type":"Point","coordinates":[-87.8466949,42.6056786]}},{"type":"Feature","properties":{"year":2014,"instnm":"Gavilan College","CZ_label":"San Jose","inst_cmplt_tot":449,"inst_green_cmplt_tot":74,"inst_perc_green_tot":0.1648107},"geometry":{"type":"Point","coordinates":[-121.5681763,36.9732742]}},{"type":"Feature","properties":{"year":2014,"instnm":"Genesee Community College","CZ_label":"Buffalo","inst_cmplt_tot":744,"inst_green_cmplt_tot":5,"inst_perc_green_tot":0.0067204},"geometry":{"type":"Point","coordinates":[-78.1380234,43.0168304]}},{"type":"Feature","properties":{"year":2014,"instnm":"George C Wallace State Community College-Dothan","CZ_label":"Dothan","inst_cmplt_tot":809,"inst_green_cmplt_tot":153,"inst_perc_green_tot":0.1891224},"geometry":{"type":"Point","coordinates":[-85.4635468,31.3160858]}},{"type":"Feature","properties":{"year":2014,"instnm":"George C Wallace State Community College-Hanceville","CZ_label":"Birmingham","inst_cmplt_tot":851,"inst_green_cmplt_tot":126,"inst_perc_green_tot":0.1480611},"geometry":{"type":"Point","coordinates":[-86.7817459,34.07341]}},{"type":"Feature","properties":{"year":2014,"instnm":"George C Wallace State Community College-Selma","CZ_label":"Tuscaloosa","inst_cmplt_tot":421,"inst_green_cmplt_tot":169,"inst_perc_green_tot":0.4014252},"geometry":{"type":"Point","coordinates":[-87.013237,32.44561]}},{"type":"Feature","properties":{"year":2014,"instnm":"Georgia Northwestern Technical College","CZ_label":"Dalton","inst_cmplt_tot":1232,"inst_green_cmplt_tot":294,"inst_perc_green_tot":0.2386364},"geometry":{"type":"Point","coordinates":[-85.1713638,34.2246742]}},{"type":"Feature","properties":{"year":2014,"instnm":"Georgia Piedmont Technical College","CZ_label":"Atlanta","inst_cmplt_tot":726,"inst_green_cmplt_tot":221,"inst_perc_green_tot":0.3044077},"geometry":{"type":"Point","coordinates":[-84.2345047,33.7898979]}},{"type":"Feature","properties":{"year":2014,"instnm":"Germanna Community College","CZ_label":"Culpeper","inst_cmplt_tot":1776,"inst_green_cmplt_tot":116,"inst_perc_green_tot":0.0653153},"geometry":{"type":"Point","coordinates":[-77.7801285,38.3755569]}},{"type":"Feature","properties":{"year":2014,"instnm":"Glen Oaks Community College","CZ_label":"South Bend","inst_cmplt_tot":254,"inst_green_cmplt_tot":21,"inst_perc_green_tot":0.0826772},"geometry":{"type":"Point","coordinates":[-85.4969254,41.8925056]}},{"type":"Feature","properties":{"year":2014,"instnm":"Glendale Community College","CZ_label":"Phoenix","inst_cmplt_tot":3550,"inst_green_cmplt_tot":780,"inst_perc_green_tot":0.2197183},"geometry":{"type":"Point","coordinates":[-112.1883316,33.567482]}},{"type":"Feature","properties":{"year":2014,"instnm":"Glendale Community College","CZ_label":"Los Angeles","inst_cmplt_tot":459,"inst_green_cmplt_tot":33,"inst_perc_green_tot":0.0718954},"geometry":{"type":"Point","coordinates":[-118.2282486,34.1664238]}},{"type":"Feature","properties":{"year":2014,"instnm":"Gogebic Community College","CZ_label":"Ironwood","inst_cmplt_tot":285,"inst_green_cmplt_tot":76,"inst_perc_green_tot":0.2666667},"geometry":{"type":"Point","coordinates":[-90.1655884,46.4718933]}},{"type":"Feature","properties":{"year":2014,"instnm":"Golden West College","CZ_label":"Los Angeles","inst_cmplt_tot":1506,"inst_green_cmplt_tot":123,"inst_perc_green_tot":0.0816733},"geometry":{"type":"Point","coordinates":[-118.0030365,33.7337761]}},{"type":"Feature","properties":{"year":2014,"instnm":"Grand Rapids Community College","CZ_label":"Grand Rapids","inst_cmplt_tot":1910,"inst_green_cmplt_tot":190,"inst_perc_green_tot":0.0994764},"geometry":{"type":"Point","coordinates":[-85.6665726,42.9664078]}},{"type":"Feature","properties":{"year":2014,"instnm":"Grays Harbor College","CZ_label":"Aberdeen","inst_cmplt_tot":881,"inst_green_cmplt_tot":546,"inst_perc_green_tot":0.6197503},"geometry":{"type":"Point","coordinates":[-123.8029327,46.9534111]}},{"type":"Feature","properties":{"year":2014,"instnm":"Grayson College","CZ_label":"Dallas","inst_cmplt_tot":754,"inst_green_cmplt_tot":79,"inst_perc_green_tot":0.1047745},"geometry":{"type":"Point","coordinates":[-96.6335602,33.7064819]}},{"type":"Feature","properties":{"year":2014,"instnm":"Great Basin College","CZ_label":"Elko","inst_cmplt_tot":700,"inst_green_cmplt_tot":360,"inst_perc_green_tot":0.5142857},"geometry":{"type":"Point","coordinates":[-115.7673264,40.8424187]}},{"type":"Feature","properties":{"year":2014,"instnm":"Great Bay Community College","CZ_label":"Nashua","inst_cmplt_tot":251,"inst_green_cmplt_tot":23,"inst_perc_green_tot":0.0916335},"geometry":{"type":"Point","coordinates":[-70.8902512,43.0447273]}},{"type":"Feature","properties":{"year":2014,"instnm":"Great Falls College Montana State University","CZ_label":"Great Falls","inst_cmplt_tot":468,"inst_green_cmplt_tot":78,"inst_perc_green_tot":0.1666667},"geometry":{"type":"Point","coordinates":[-111.2695618,47.4855804]}},{"type":"Feature","properties":{"year":2014,"instnm":"Green River Community College","CZ_label":"Seattle","inst_cmplt_tot":2383,"inst_green_cmplt_tot":998,"inst_perc_green_tot":0.4187998},"geometry":{"type":"Point","coordinates":[-122.1781769,47.3122787]}},{"type":"Feature","properties":{"year":2014,"instnm":"Greenfield Community College","CZ_label":"Springfield","inst_cmplt_tot":415,"inst_green_cmplt_tot":21,"inst_perc_green_tot":0.0506024},"geometry":{"type":"Point","coordinates":[-72.6309814,42.5995216]}},{"type":"Feature","properties":{"year":2014,"instnm":"Greenville Technical College","CZ_label":"Greenville","inst_cmplt_tot":1728,"inst_green_cmplt_tot":734,"inst_perc_green_tot":0.4247685},"geometry":{"type":"Point","coordinates":[-82.371048,34.8215599]}},{"type":"Feature","properties":{"year":2014,"instnm":"Grossmont College","CZ_label":"San Diego","inst_cmplt_tot":1503,"inst_green_cmplt_tot":28,"inst_perc_green_tot":0.0186294},"geometry":{"type":"Point","coordinates":[-117.0072937,32.8160782]}},{"type":"Feature","properties":{"year":2014,"instnm":"Guam Community College","CZ_label":null,"inst_cmplt_tot":136,"inst_green_cmplt_tot":8,"inst_perc_green_tot":0.0588235},"geometry":{"type":"Point","coordinates":[144.8089447,13.440649]}},{"type":"Feature","properties":{"year":2014,"instnm":"Guilford Technical Community College","CZ_label":"Winston-Salem","inst_cmplt_tot":2344,"inst_green_cmplt_tot":794,"inst_perc_green_tot":0.3387372},"geometry":{"type":"Point","coordinates":[-79.921814,35.9972]}},{"type":"Feature","properties":{"year":2014,"instnm":"Gulf Coast State College","CZ_label":"Panama City","inst_cmplt_tot":1224,"inst_green_cmplt_tot":33,"inst_perc_green_tot":0.0269608},"geometry":{"type":"Point","coordinates":[-85.7272491,30.1861038]}},{"type":"Feature","properties":{"year":2014,"instnm":"Gwinnett Technical College","CZ_label":"Gainesville","inst_cmplt_tot":1948,"inst_green_cmplt_tot":316,"inst_perc_green_tot":0.1622177},"geometry":{"type":"Point","coordinates":[-84.0662231,33.9627647]}},{"type":"Feature","properties":{"year":2014,"instnm":"H Councill Trenholm State Technical College","CZ_label":"Montgomery","inst_cmplt_tot":397,"inst_green_cmplt_tot":212,"inst_perc_green_tot":0.534005},"geometry":{"type":"Point","coordinates":[-86.3430557,32.3501091]}},{"type":"Feature","properties":{"year":2014,"instnm":"Hagerstown Community College","CZ_label":"Hagerstown & Frederick","inst_cmplt_tot":946,"inst_green_cmplt_tot":251,"inst_perc_green_tot":0.2653277},"geometry":{"type":"Point","coordinates":[-77.6673813,39.6310081]}},{"type":"Feature","properties":{"year":2014,"instnm":"Halifax Community College","CZ_label":"Roanoke Rapids","inst_cmplt_tot":427,"inst_green_cmplt_tot":246,"inst_perc_green_tot":0.5761124},"geometry":{"type":"Point","coordinates":[-77.6176834,36.4277115]}},{"type":"Feature","properties":{"year":2014,"instnm":"Harford Community College","CZ_label":"Baltimore","inst_cmplt_tot":956,"inst_green_cmplt_tot":72,"inst_perc_green_tot":0.0753138},"geometry":{"type":"Point","coordinates":[-76.2817993,39.561348]}},{"type":"Feature","properties":{"year":2014,"instnm":"Harrisburg Area Community College-Harrisburg","CZ_label":"Harrisburg & Lancaster","inst_cmplt_tot":1940,"inst_green_cmplt_tot":281,"inst_perc_green_tot":0.1448454},"geometry":{"type":"Point","coordinates":[-76.8863373,40.2982559]}},{"type":"Feature","properties":{"year":2014,"instnm":"Hartnell College","CZ_label":"San Jose","inst_cmplt_tot":866,"inst_green_cmplt_tot":171,"inst_perc_green_tot":0.1974596},"geometry":{"type":"Point","coordinates":[-121.6687622,36.6730537]}},{"type":"Feature","properties":{"year":2014,"instnm":"Hawaii Community College","CZ_label":"Hilo","inst_cmplt_tot":570,"inst_green_cmplt_tot":118,"inst_perc_green_tot":0.2070175},"geometry":{"type":"Point","coordinates":[-155.0818329,19.6997204]}},{"type":"Feature","properties":{"year":2014,"instnm":"Hawkeye Community College","CZ_label":"Waterloo","inst_cmplt_tot":1288,"inst_green_cmplt_tot":424,"inst_perc_green_tot":0.3291925},"geometry":{"type":"Point","coordinates":[-92.3306351,42.4300041]}},{"type":"Feature","properties":{"year":2014,"instnm":"Haywood Community College","CZ_label":"Waynesville","inst_cmplt_tot":296,"inst_green_cmplt_tot":42,"inst_perc_green_tot":0.1418919},"geometry":{"type":"Point","coordinates":[-82.9279175,35.5259056]}},{"type":"Feature","properties":{"year":2014,"instnm":"Hazard Community and Technical College","CZ_label":"Hazard","inst_cmplt_tot":1160,"inst_green_cmplt_tot":496,"inst_perc_green_tot":0.4275862},"geometry":{"type":"Point","coordinates":[-83.1745377,37.2338104]}},{"type":"Feature","properties":{"year":2014,"instnm":"Heartland Community College","CZ_label":"Champaign & Bloomington","inst_cmplt_tot":738,"inst_green_cmplt_tot":34,"inst_perc_green_tot":0.0460705},"geometry":{"type":"Point","coordinates":[-89.0144577,40.5334015]}},{"type":"Feature","properties":{"year":2014,"instnm":"Helena College University of Montana","CZ_label":"Bozeman","inst_cmplt_tot":229,"inst_green_cmplt_tot":70,"inst_perc_green_tot":0.3056769},"geometry":{"type":"Point","coordinates":[-112.016037,46.5953827]}},{"type":"Feature","properties":{"year":2014,"instnm":"Henderson Community College","CZ_label":"Henderson","inst_cmplt_tot":349,"inst_green_cmplt_tot":104,"inst_perc_green_tot":0.2979943},"geometry":{"type":"Point","coordinates":[-87.6500931,37.7976875]}},{"type":"Feature","properties":{"year":2014,"instnm":"Hennepin Technical College","CZ_label":"Minneapolis","inst_cmplt_tot":1320,"inst_green_cmplt_tot":456,"inst_perc_green_tot":0.3454545},"geometry":{"type":"Point","coordinates":[-93.3977585,45.0965347]}},{"type":"Feature","properties":{"year":2014,"instnm":"Henry Ford Community College","CZ_label":"Detroit","inst_cmplt_tot":1491,"inst_green_cmplt_tot":109,"inst_perc_green_tot":0.0731053},"geometry":{"type":"Point","coordinates":[-83.2384109,42.3245773]}},{"type":"Feature","properties":{"year":2014,"instnm":"Herkimer County Community College","CZ_label":"Syracuse","inst_cmplt_tot":595,"inst_green_cmplt_tot":0,"inst_perc_green_tot":0},"geometry":{"type":"Point","coordinates":[-75.00737,43.0325851]}},{"type":"Feature","properties":{"year":2014,"instnm":"Hibbing Community College","CZ_label":"Duluth","inst_cmplt_tot":373,"inst_green_cmplt_tot":155,"inst_perc_green_tot":0.4155496},"geometry":{"type":"Point","coordinates":[-92.921051,47.4222755]}},{"type":"Feature","properties":{"year":2014,"instnm":"Highland Community College","CZ_label":"Rockford","inst_cmplt_tot":388,"inst_green_cmplt_tot":82,"inst_perc_green_tot":0.2113402},"geometry":{"type":"Point","coordinates":[-89.6735992,42.2833138]}},{"type":"Feature","properties":{"year":2014,"instnm":"Highland Community College","CZ_label":"St. Joseph","inst_cmplt_tot":561,"inst_green_cmplt_tot":52,"inst_perc_green_tot":0.0926916},"geometry":{"type":"Point","coordinates":[-95.2725525,39.8602867]}},{"type":"Feature","properties":{"year":2014,"instnm":"Highlands College of Montana Tech","CZ_label":"Missoula","inst_cmplt_tot":158,"inst_green_cmplt_tot":106,"inst_perc_green_tot":0.6708861},"geometry":{"type":"Point","coordinates":[-112.5092316,45.9377022]}},{"type":"Feature","properties":{"year":2014,"instnm":"Highline College","CZ_label":"Seattle","inst_cmplt_tot":1249,"inst_green_cmplt_tot":220,"inst_perc_green_tot":0.1761409},"geometry":{"type":"Point","coordinates":[-122.3025894,47.3883324]}},{"type":"Feature","properties":{"year":2014,"instnm":"Hill College","CZ_label":"Killeen","inst_cmplt_tot":517,"inst_green_cmplt_tot":23,"inst_perc_green_tot":0.0444874},"geometry":{"type":"Point","coordinates":[-97.0862579,32.0128937]}},{"type":"Feature","properties":{"year":2014,"instnm":"Hillsborough Community College","CZ_label":"Tampa","inst_cmplt_tot":4648,"inst_green_cmplt_tot":342,"inst_perc_green_tot":0.07358},"geometry":{"type":"Point","coordinates":[-82.4569168,27.9345131]}},{"type":"Feature","properties":{"year":2014,"instnm":"Hinds Community College","CZ_label":"Jackson","inst_cmplt_tot":2451,"inst_green_cmplt_tot":774,"inst_perc_green_tot":0.3157895},"geometry":{"type":"Point","coordinates":[-90.4160614,32.2581291]}},{"type":"Feature","properties":{"year":2014,"instnm":"Hocking College","CZ_label":"Athens","inst_cmplt_tot":691,"inst_green_cmplt_tot":150,"inst_perc_green_tot":0.2170767},"geometry":{"type":"Point","coordinates":[-82.2217484,39.4432983]}},{"type":"Feature","properties":{"year":2014,"instnm":"Holmes Community College","CZ_label":"Jackson","inst_cmplt_tot":1172,"inst_green_cmplt_tot":212,"inst_perc_green_tot":0.1808874},"geometry":{"type":"Point","coordinates":[-89.915802,32.969986]}},{"type":"Feature","properties":{"year":2014,"instnm":"Holyoke Community College","CZ_label":"Springfield","inst_cmplt_tot":1047,"inst_green_cmplt_tot":94,"inst_perc_green_tot":0.0897803},"geometry":{"type":"Point","coordinates":[-72.6506805,42.1955032]}},{"type":"Feature","properties":{"year":2014,"instnm":"Honolulu Community College","CZ_label":"Honolulu","inst_cmplt_tot":779,"inst_green_cmplt_tot":490,"inst_perc_green_tot":0.6290116},"geometry":{"type":"Point","coordinates":[-157.8748779,21.3199463]}},{"type":"Feature","properties":{"year":2014,"instnm":"Hopkinsville Community College","CZ_label":"Clarksville","inst_cmplt_tot":1065,"inst_green_cmplt_tot":264,"inst_perc_green_tot":0.2478873},"geometry":{"type":"Point","coordinates":[-87.4916229,36.8860703]}},{"type":"Feature","properties":{"year":2014,"instnm":"Horry-Georgetown Technical College","CZ_label":"Myrtle Beach","inst_cmplt_tot":958,"inst_green_cmplt_tot":177,"inst_perc_green_tot":0.1847599},"geometry":{"type":"Point","coordinates":[-79.0036087,33.7961388]}},{"type":"Feature","properties":{"year":2014,"instnm":"Housatonic Community College","CZ_label":null,"inst_cmplt_tot":491,"inst_green_cmplt_tot":74,"inst_perc_green_tot":0.1507128},"geometry":{"type":"Point","coordinates":[-73.1910019,41.1752281]}},{"type":"Feature","properties":{"year":2014,"instnm":"Houston Community College","CZ_label":"Houston","inst_cmplt_tot":5064,"inst_green_cmplt_tot":416,"inst_perc_green_tot":0.0821485},"geometry":{"type":"Point","coordinates":[-95.3765259,29.7373028]}},{"type":"Feature","properties":{"year":2014,"instnm":"Howard College","CZ_label":"Odessa & Midland","inst_cmplt_tot":430,"inst_green_cmplt_tot":18,"inst_perc_green_tot":0.0418605},"geometry":{"type":"Point","coordinates":[-101.4501114,32.2522964]}},{"type":"Feature","properties":{"year":2014,"instnm":"Howard Community College","CZ_label":"Baltimore","inst_cmplt_tot":726,"inst_green_cmplt_tot":63,"inst_perc_green_tot":0.0867769},"geometry":{"type":"Point","coordinates":[-76.8784332,39.2115707]}},{"type":"Feature","properties":{"year":2014,"instnm":"Hudson County Community College","CZ_label":"Newark & Jersey City","inst_cmplt_tot":905,"inst_green_cmplt_tot":60,"inst_perc_green_tot":0.0662983},"geometry":{"type":"Point","coordinates":[-74.0628586,40.7305603]}},{"type":"Feature","properties":{"year":2014,"instnm":"Hudson Valley Community College","CZ_label":"Albany","inst_cmplt_tot":2188,"inst_green_cmplt_tot":653,"inst_perc_green_tot":0.2984461},"geometry":{"type":"Point","coordinates":[-73.6825256,42.6964607]}},{"type":"Feature","properties":{"year":2014,"instnm":"Hutchinson Community College","CZ_label":"Hutchinson","inst_cmplt_tot":851,"inst_green_cmplt_tot":100,"inst_perc_green_tot":0.1175088},"geometry":{"type":"Point","coordinates":[-97.9196472,38.0668411]}},{"type":"Feature","properties":{"year":2014,"instnm":"Illinois Central College","CZ_label":"Peoria","inst_cmplt_tot":1836,"inst_green_cmplt_tot":338,"inst_perc_green_tot":0.1840959},"geometry":{"type":"Point","coordinates":[-89.5254135,40.7062454]}},{"type":"Feature","properties":{"year":2014,"instnm":"Illinois Valley Community College","CZ_label":"Peoria","inst_cmplt_tot":1231,"inst_green_cmplt_tot":381,"inst_perc_green_tot":0.3095045},"geometry":{"type":"Point","coordinates":[-89.1020355,41.3065186]}},{"type":"Feature","properties":{"year":2014,"instnm":"Imperial Valley College","CZ_label":"Yuma","inst_cmplt_tot":864,"inst_green_cmplt_tot":42,"inst_perc_green_tot":0.0486111},"geometry":{"type":"Point","coordinates":[-115.5039062,32.8275642]}},{"type":"Feature","properties":{"year":2014,"instnm":"Independence Community College","CZ_label":"Bartlesville","inst_cmplt_tot":256,"inst_green_cmplt_tot":9,"inst_perc_green_tot":0.0351562},"geometry":{"type":"Point","coordinates":[-95.72052,37.1956139]}},{"type":"Feature","properties":{"year":2014,"instnm":"Indian Hills Community College","CZ_label":"Ottumwa","inst_cmplt_tot":1358,"inst_green_cmplt_tot":293,"inst_perc_green_tot":0.2157585},"geometry":{"type":"Point","coordinates":[-92.3947372,41.045105]}},{"type":"Feature","properties":{"year":2014,"instnm":"Indian River State College","CZ_label":"Palm Bay & Port St. Lucie","inst_cmplt_tot":3730,"inst_green_cmplt_tot":404,"inst_perc_green_tot":0.108311},"geometry":{"type":"Point","coordinates":[-80.3578491,27.4231205]}},{"type":"Feature","properties":{"year":2014,"instnm":"Inver Hills Community College","CZ_label":"Minneapolis","inst_cmplt_tot":815,"inst_green_cmplt_tot":10,"inst_perc_green_tot":0.0122699},"geometry":{"type":"Point","coordinates":[-93.0545883,44.8283844]}},{"type":"Feature","properties":{"year":2014,"instnm":"Iowa Central Community College","CZ_label":"Fort Dodge","inst_cmplt_tot":1143,"inst_green_cmplt_tot":197,"inst_perc_green_tot":0.1723535},"geometry":{"type":"Point","coordinates":[-94.2014084,42.4898224]}},{"type":"Feature","properties":{"year":2014,"instnm":"Iowa Lakes Community College","CZ_label":"Spencer","inst_cmplt_tot":595,"inst_green_cmplt_tot":164,"inst_perc_green_tot":0.2756303},"geometry":{"type":"Point","coordinates":[-94.8357697,43.4017296]}},{"type":"Feature","properties":{"year":2014,"instnm":"Iowa Western Community College","CZ_label":"Omaha","inst_cmplt_tot":1132,"inst_green_cmplt_tot":156,"inst_perc_green_tot":0.1378092},"geometry":{"type":"Point","coordinates":[-95.8010559,41.2741356]}},{"type":"Feature","properties":{"year":2014,"instnm":"Irvine Valley College","CZ_label":"Los Angeles","inst_cmplt_tot":1323,"inst_green_cmplt_tot":113,"inst_perc_green_tot":0.0854119},"geometry":{"type":"Point","coordinates":[-117.7785721,33.6750793]}},{"type":"Feature","properties":{"year":2014,"instnm":"Isothermal Community College","CZ_label":"Spartanburg","inst_cmplt_tot":254,"inst_green_cmplt_tot":87,"inst_perc_green_tot":0.3425197},"geometry":{"type":"Point","coordinates":[-81.9118576,35.3367271]}},{"type":"Feature","properties":{"year":2014,"instnm":"Itasca Community College","CZ_label":"Duluth","inst_cmplt_tot":450,"inst_green_cmplt_tot":193,"inst_perc_green_tot":0.4288889},"geometry":{"type":"Point","coordinates":[-93.4944839,47.2424698]}},{"type":"Feature","properties":{"year":2014,"instnm":"Itawamba Community College","CZ_label":"Tupelo","inst_cmplt_tot":1270,"inst_green_cmplt_tot":195,"inst_perc_green_tot":0.1535433},"geometry":{"type":"Point","coordinates":[-88.4129257,34.2762756]}},{"type":"Feature","properties":{"year":2014,"instnm":"Ivy Tech Community College","CZ_label":"Indianapolis","inst_cmplt_tot":12729,"inst_green_cmplt_tot":2284,"inst_perc_green_tot":0.1794328},"geometry":{"type":"Point","coordinates":[-86.1582108,39.8037529]}},{"type":"Feature","properties":{"year":2014,"instnm":"J F Drake State Community and Technical College","CZ_label":"Huntsville","inst_cmplt_tot":150,"inst_green_cmplt_tot":56,"inst_perc_green_tot":0.3733333},"geometry":{"type":"Point","coordinates":[-86.5738144,34.7721176]}},{"type":"Feature","properties":{"year":2014,"instnm":"J F Ingram State Technical College","CZ_label":"Montgomery","inst_cmplt_tot":465,"inst_green_cmplt_tot":365,"inst_perc_green_tot":0.7849462},"geometry":{"type":"Point","coordinates":[-86.3923721,32.5823135]}},{"type":"Feature","properties":{"year":2014,"instnm":"J Sargeant Reynolds Community College","CZ_label":"Richmond","inst_cmplt_tot":1284,"inst_green_cmplt_tot":180,"inst_perc_green_tot":0.1401869},"geometry":{"type":"Point","coordinates":[-77.4729614,37.6374168]}},{"type":"Feature","properties":{"year":2014,"instnm":"Jackson College","CZ_label":"Jackson","inst_cmplt_tot":629,"inst_green_cmplt_tot":108,"inst_perc_green_tot":0.1717011},"geometry":{"type":"Point","coordinates":[-84.4039383,42.1648293]}},{"type":"Feature","properties":{"year":2014,"instnm":"Jackson State Community College","CZ_label":"Jackson","inst_cmplt_tot":508,"inst_green_cmplt_tot":8,"inst_perc_green_tot":0.015748},"geometry":{"type":"Point","coordinates":[-88.7821045,35.6456299]}},{"type":"Feature","properties":{"year":2014,"instnm":"James A Rhodes State College","CZ_label":"Lima","inst_cmplt_tot":513,"inst_green_cmplt_tot":61,"inst_perc_green_tot":0.1189084},"geometry":{"type":"Point","coordinates":[-84.0263214,40.7383461]}},