{"type":"FeatureCollection","features":[{"type":"Feature","properties":{"year":2020,"instnm":"Aiken Technical College","CZ_label":"Hilton Head Island & Aiken","inst_cmplt_tot":281,"inst_green_cmplt_tot":13,"inst_perc_green_tot":0.0462633},"geometry":{"type":"Point","coordinates":[-81.8416672,33.5338326]}},{"type":"Feature","properties":{"year":2020,"instnm":"Aims Community College","CZ_label":"Fort Collins","inst_cmplt_tot":566,"inst_green_cmplt_tot":13,"inst_perc_green_tot":0.0229682},"geometry":{"type":"Point","coordinates":[-104.7634125,40.4095573]}},{"type":"Feature","properties":{"year":2020,"instnm":"Alamance Community College","CZ_label":"Burlington","inst_cmplt_tot":265,"inst_green_cmplt_tot":53,"inst_perc_green_tot":0.2},"geometry":{"type":"Point","coordinates":[-79.3576584,36.0666847]}},{"type":"Feature","properties":{"year":2020,"instnm":"Albany Technical College","CZ_label":"Albany","inst_cmplt_tot":512,"inst_green_cmplt_tot":102,"inst_perc_green_tot":0.1992188},"geometry":{"type":"Point","coordinates":[-84.1742859,31.5543404]}},{"type":"Feature","properties":{"year":2020,"instnm":"Alexandria Technical & Community College","CZ_label":"Alexandria & Fergus Falls","inst_cmplt_tot":422,"inst_green_cmplt_tot":125,"inst_perc_green_tot":0.2962085},"geometry":{"type":"Point","coordinates":[-95.3723679,45.8731079]}},{"type":"Feature","properties":{"year":2020,"instnm":"Allan Hancock College","CZ_label":"Santa Barbara","inst_cmplt_tot":1460,"inst_green_cmplt_tot":162,"inst_perc_green_tot":0.1109589},"geometry":{"type":"Point","coordinates":[-120.4211426,34.9437141]}},{"type":"Feature","properties":{"year":2020,"instnm":"Allegany College of Maryland","CZ_label":"Cumberland","inst_cmplt_tot":440,"inst_green_cmplt_tot":4,"inst_perc_green_tot":0.0090909},"geometry":{"type":"Point","coordinates":[-78.7304001,39.652153]}},{"type":"Feature","properties":{"year":2020,"instnm":"Allen County Community College","CZ_label":"Parsons & Chanute","inst_cmplt_tot":323,"inst_green_cmplt_tot":2,"inst_perc_green_tot":0.006192},"geometry":{"type":"Point","coordinates":[-95.3963776,37.9380379]}},{"type":"Feature","properties":{"year":2020,"instnm":"Alpena Community College","CZ_label":"Alpena","inst_cmplt_tot":441,"inst_green_cmplt_tot":232,"inst_perc_green_tot":0.5260771},"geometry":{"type":"Point","coordinates":[-83.4450684,45.081646]}},{"type":"Feature","properties":{"year":2020,"instnm":"Alvin Community College","CZ_label":"Houston","inst_cmplt_tot":1037,"inst_green_cmplt_tot":107,"inst_perc_green_tot":0.1031823},"geometry":{"type":"Point","coordinates":[-95.2406693,29.396244]}},{"type":"Feature","properties":{"year":2020,"instnm":"Amarillo College","CZ_label":"Amarillo","inst_cmplt_tot":1368,"inst_green_cmplt_tot":319,"inst_perc_green_tot":0.2331871},"geometry":{"type":"Point","coordinates":[-101.8469849,35.1878395]}},{"type":"Feature","properties":{"year":2020,"instnm":"American River College","CZ_label":"Sacramento","inst_cmplt_tot":2790,"inst_green_cmplt_tot":686,"inst_perc_green_tot":0.2458781},"geometry":{"type":"Point","coordinates":[-121.3496704,38.6508484]}},{"type":"Feature","properties":{"year":2020,"instnm":"Angelina College","CZ_label":"Lufkin","inst_cmplt_tot":703,"inst_green_cmplt_tot":37,"inst_perc_green_tot":0.0526316},"geometry":{"type":"Point","coordinates":[-94.7316284,31.2874432]}},{"type":"Feature","properties":{"year":2020,"instnm":"Anne Arundel Community College","CZ_label":"Baltimore","inst_cmplt_tot":888,"inst_green_cmplt_tot":186,"inst_perc_green_tot":0.2094595},"geometry":{"type":"Point","coordinates":[-76.5122223,39.0498123]}},{"type":"Feature","properties":{"year":2020,"instnm":"Anoka Technical College","CZ_label":"Minneapolis","inst_cmplt_tot":468,"inst_green_cmplt_tot":214,"inst_perc_green_tot":0.457265},"geometry":{"type":"Point","coordinates":[-93.4160843,45.2167091]}},{"type":"Feature","properties":{"year":2020,"instnm":"Anoka-Ramsey Community College","CZ_label":"Minneapolis","inst_cmplt_tot":1059,"inst_green_cmplt_tot":34,"inst_perc_green_tot":0.0321058},"geometry":{"type":"Point","coordinates":[-93.3516998,45.1729774]}},{"type":"Feature","properties":{"year":2020,"instnm":"Antelope Valley College","CZ_label":"Los Angeles","inst_cmplt_tot":2182,"inst_green_cmplt_tot":526,"inst_perc_green_tot":0.2410632},"geometry":{"type":"Point","coordinates":[-118.1861649,34.6762085]}},{"type":"Feature","properties":{"year":2020,"instnm":"Arapahoe Community College","CZ_label":"Denver","inst_cmplt_tot":605,"inst_green_cmplt_tot":42,"inst_perc_green_tot":0.0694215},"geometry":{"type":"Point","coordinates":[-105.018631,39.6075058]}},{"type":"Feature","properties":{"year":2020,"instnm":"Arizona Western College","CZ_label":"Yuma","inst_cmplt_tot":1270,"inst_green_cmplt_tot":227,"inst_perc_green_tot":0.1787402},"geometry":{"type":"Point","coordinates":[-114.4959717,32.6893044]}},{"type":"Feature","properties":{"year":2020,"instnm":"Arkansas Northeastern College","CZ_label":"Blytheville","inst_cmplt_tot":236,"inst_green_cmplt_tot":33,"inst_perc_green_tot":0.1398305},"geometry":{"type":"Point","coordinates":[-89.9210052,35.8985977]}},{"type":"Feature","properties":{"year":2020,"instnm":"Arkansas State University Mid-South","CZ_label":"Memphis","inst_cmplt_tot":105,"inst_green_cmplt_tot":16,"inst_perc_green_tot":0.152381},"geometry":{"type":"Point","coordinates":[-90.222847,35.1457367]}},{"type":"Feature","properties":{"year":2020,"instnm":"Arkansas State University Three Rivers","CZ_label":"Hot Springs","inst_cmplt_tot":250,"inst_green_cmplt_tot":9,"inst_perc_green_tot":0.036},"geometry":{"type":"Point","coordinates":[-92.8214188,34.378746]}},{"type":"Feature","properties":{"year":2020,"instnm":"Arkansas State University-Beebe","CZ_label":"Searcy","inst_cmplt_tot":1072,"inst_green_cmplt_tot":78,"inst_perc_green_tot":0.0727612},"geometry":{"type":"Point","coordinates":[-91.8953476,35.0741768]}},{"type":"Feature","properties":{"year":2020,"instnm":"Arkansas State University-Mountain Home","CZ_label":"Mountain Home","inst_cmplt_tot":287,"inst_green_cmplt_tot":31,"inst_perc_green_tot":0.1080139},"geometry":{"type":"Point","coordinates":[-92.3885803,36.3204651]}},{"type":"Feature","properties":{"year":2020,"instnm":"Arkansas State University-Newport","CZ_label":"Searcy","inst_cmplt_tot":375,"inst_green_cmplt_tot":14,"inst_perc_green_tot":0.0373333},"geometry":{"type":"Point","coordinates":[-91.1888428,35.6387215]}},{"type":"Feature","properties":{"year":2020,"instnm":"Asheville-Buncombe Technical Community College","CZ_label":"Asheville","inst_cmplt_tot":758,"inst_green_cmplt_tot":89,"inst_perc_green_tot":0.1174142},"geometry":{"type":"Point","coordinates":[-82.5548248,35.5704384]}},{"type":"Feature","properties":{"year":2020,"instnm":"Ashland Community and Technical College","CZ_label":"Huntington","inst_cmplt_tot":384,"inst_green_cmplt_tot":64,"inst_perc_green_tot":0.1666667},"geometry":{"type":"Point","coordinates":[-82.6506653,38.4692001]}},{"type":"Feature","properties":{"year":2020,"instnm":"Asnuntuck Community College","CZ_label":null,"inst_cmplt_tot":166,"inst_green_cmplt_tot":47,"inst_perc_green_tot":0.2831325},"geometry":{"type":"Point","coordinates":[-72.5701752,41.9984093]}},{"type":"Feature","properties":{"year":2020,"instnm":"Athens Technical College","CZ_label":"Athens","inst_cmplt_tot":653,"inst_green_cmplt_tot":307,"inst_perc_green_tot":0.4701378},"geometry":{"type":"Point","coordinates":[-83.3395996,33.9901848]}},{"type":"Feature","properties":{"year":2020,"instnm":"Atlanta Technical College","CZ_label":"Atlanta","inst_cmplt_tot":377,"inst_green_cmplt_tot":75,"inst_perc_green_tot":0.198939},"geometry":{"type":"Point","coordinates":[-84.4049988,33.7120094]}},{"type":"Feature","properties":{"year":2020,"instnm":"Atlantic Cape Community College","CZ_label":"Trenton","inst_cmplt_tot":570,"inst_green_cmplt_tot":41,"inst_perc_green_tot":0.0719298},"geometry":{"type":"Point","coordinates":[-74.6800156,39.4620819]}},{"type":"Feature","properties":{"year":2020,"instnm":"Augusta Technical College","CZ_label":"Augusta","inst_cmplt_tot":547,"inst_green_cmplt_tot":142,"inst_perc_green_tot":0.2595978},"geometry":{"type":"Point","coordinates":[-82.048439,33.4189911]}},{"type":"Feature","properties":{"year":2020,"instnm":"Austin Community College District","CZ_label":"Austin","inst_cmplt_tot":4217,"inst_green_cmplt_tot":842,"inst_perc_green_tot":0.199668},"geometry":{"type":"Point","coordinates":[-97.7125015,30.3227444]}},{"type":"Feature","properties":{"year":2020,"instnm":"Bakersfield College","CZ_label":"Bakersfield","inst_cmplt_tot":4085,"inst_green_cmplt_tot":990,"inst_perc_green_tot":0.2423501},"geometry":{"type":"Point","coordinates":[-118.9737549,35.409111]}},{"type":"Feature","properties":{"year":2020,"instnm":"Baltimore City Community College","CZ_label":"Baltimore","inst_cmplt_tot":342,"inst_green_cmplt_tot":14,"inst_perc_green_tot":0.0409357},"geometry":{"type":"Point","coordinates":[-76.6628799,39.3199768]}},{"type":"Feature","properties":{"year":2020,"instnm":"Barstow Community College","CZ_label":"Los Angeles","inst_cmplt_tot":460,"inst_green_cmplt_tot":49,"inst_perc_green_tot":0.1065217},"geometry":{"type":"Point","coordinates":[-117.0234146,34.870285]}},{"type":"Feature","properties":{"year":2020,"instnm":"Barton County Community College","CZ_label":"Great Bend","inst_cmplt_tot":546,"inst_green_cmplt_tot":34,"inst_perc_green_tot":0.0622711},"geometry":{"type":"Point","coordinates":[-98.7316513,38.4035301]}},{"type":"Feature","properties":{"year":2020,"instnm":"Bates Technical College","CZ_label":"Seattle","inst_cmplt_tot":220,"inst_green_cmplt_tot":76,"inst_perc_green_tot":0.3454545},"geometry":{"type":"Point","coordinates":[-122.4468307,47.2517433]}},{"type":"Feature","properties":{"year":2020,"instnm":"Baton Rouge Community College","CZ_label":"Baton Rouge","inst_cmplt_tot":2877,"inst_green_cmplt_tot":1066,"inst_perc_green_tot":0.3705249},"geometry":{"type":"Point","coordinates":[-91.1379318,30.4482765]}},{"type":"Feature","properties":{"year":2020,"instnm":"Bay de Noc Community College","CZ_label":"Marquette","inst_cmplt_tot":336,"inst_green_cmplt_tot":45,"inst_perc_green_tot":0.1339286},"geometry":{"type":"Point","coordinates":[-87.085228,45.7725868]}},{"type":"Feature","properties":{"year":2020,"instnm":"Beaufort County Community College","CZ_label":"Washington","inst_cmplt_tot":435,"inst_green_cmplt_tot":44,"inst_perc_green_tot":0.1011494},"geometry":{"type":"Point","coordinates":[-76.9653473,35.5335884]}},{"type":"Feature","properties":{"year":2020,"instnm":"Bellevue College","CZ_label":"Seattle","inst_cmplt_tot":2165,"inst_green_cmplt_tot":235,"inst_perc_green_tot":0.108545},"geometry":{"type":"Point","coordinates":[-122.150116,47.5840149]}},{"type":"Feature","properties":{"year":2020,"instnm":"Bellingham Technical College","CZ_label":"Seattle","inst_cmplt_tot":304,"inst_green_cmplt_tot":139,"inst_perc_green_tot":0.4572368},"geometry":{"type":"Point","coordinates":[-122.5121613,48.7661896]}},{"type":"Feature","properties":{"year":2020,"instnm":"Belmont College","CZ_label":"Wheeling","inst_cmplt_tot":173,"inst_green_cmplt_tot":27,"inst_perc_green_tot":0.1560694},"geometry":{"type":"Point","coordinates":[-80.9649048,40.0769501]}},{"type":"Feature","properties":{"year":2020,"instnm":"Bergen Community College","CZ_label":"Newark & Jersey City","inst_cmplt_tot":424,"inst_green_cmplt_tot":26,"inst_perc_green_tot":0.0613208},"geometry":{"type":"Point","coordinates":[-74.0888062,40.9517822]}},{"type":"Feature","properties":{"year":2020,"instnm":"Berkeley City College","CZ_label":"San Francisco","inst_cmplt_tot":466,"inst_green_cmplt_tot":47,"inst_perc_green_tot":0.1008584},"geometry":{"type":"Point","coordinates":[-122.2698746,37.8697701]}},{"type":"Feature","properties":{"year":2020,"instnm":"Berkshire Community College","CZ_label":"Pittsfield","inst_cmplt_tot":250,"inst_green_cmplt_tot":26,"inst_perc_green_tot":0.104},"geometry":{"type":"Point","coordinates":[-73.3147049,42.4597511]}},{"type":"Feature","properties":{"year":2020,"instnm":"Bevill State Community College","CZ_label":"Birmingham","inst_cmplt_tot":780,"inst_green_cmplt_tot":149,"inst_perc_green_tot":0.1910256},"geometry":{"type":"Point","coordinates":[-87.2664032,33.8369293]}},{"type":"Feature","properties":{"year":2020,"instnm":"Big Bend Community College","CZ_label":"Moses Lake","inst_cmplt_tot":470,"inst_green_cmplt_tot":34,"inst_perc_green_tot":0.0723404},"geometry":{"type":"Point","coordinates":[-119.325676,47.183651]}},{"type":"Feature","properties":{"year":2020,"instnm":"Big Sandy Community and Technical College","CZ_label":"Pikeville","inst_cmplt_tot":397,"inst_green_cmplt_tot":33,"inst_perc_green_tot":0.0831234},"geometry":{"type":"Point","coordinates":[-82.7788467,37.6882477]}},{"type":"Feature","properties":{"year":2020,"instnm":"Bishop State Community College","CZ_label":"Mobile","inst_cmplt_tot":497,"inst_green_cmplt_tot":106,"inst_perc_green_tot":0.2132797},"geometry":{"type":"Point","coordinates":[-88.0569839,30.6939716]}},{"type":"Feature","properties":{"year":2020,"instnm":"Bismarck State College","CZ_label":"Bismarck","inst_cmplt_tot":801,"inst_green_cmplt_tot":194,"inst_perc_green_tot":0.2421973},"geometry":{"type":"Point","coordinates":[-100.8165359,46.8214607]}},{"type":"Feature","properties":{"year":2020,"instnm":"Black Hawk College","CZ_label":"Davenport","inst_cmplt_tot":480,"inst_green_cmplt_tot":62,"inst_perc_green_tot":0.1291667},"geometry":{"type":"Point","coordinates":[-90.4477997,41.4772835]}},{"type":"Feature","properties":{"year":2020,"instnm":"Black River Technical College","CZ_label":"Jonesboro","inst_cmplt_tot":355,"inst_green_cmplt_tot":58,"inst_perc_green_tot":0.1633803},"geometry":{"type":"Point","coordinates":[-90.9510345,36.2397919]}},{"type":"Feature","properties":{"year":2020,"instnm":"Blackhawk Technical College","CZ_label":"Milwaukee","inst_cmplt_tot":340,"inst_green_cmplt_tot":108,"inst_perc_green_tot":0.3176471},"geometry":{"type":"Point","coordinates":[-89.0162506,42.5931587]}},{"type":"Feature","properties":{"year":2020,"instnm":"Bladen Community College","CZ_label":"Fayetteville","inst_cmplt_tot":294,"inst_green_cmplt_tot":24,"inst_perc_green_tot":0.0816327},"geometry":{"type":"Point","coordinates":[-78.7311172,34.6446915]}},{"type":"Feature","properties":{"year":2020,"instnm":"Blinn College","CZ_label":"College Station","inst_cmplt_tot":2415,"inst_green_cmplt_tot":355,"inst_perc_green_tot":0.1469979},"geometry":{"type":"Point","coordinates":[-96.4085236,30.1604576]}},{"type":"Feature","properties":{"year":2020,"instnm":"Blue Mountain Community College","CZ_label":"Kennewick","inst_cmplt_tot":338,"inst_green_cmplt_tot":36,"inst_perc_green_tot":0.1065089},"geometry":{"type":"Point","coordinates":[-118.8169403,45.6773148]}},{"type":"Feature","properties":{"year":2020,"instnm":"Blue Ridge Community College","CZ_label":"Asheville","inst_cmplt_tot":298,"inst_green_cmplt_tot":17,"inst_perc_green_tot":0.057047},"geometry":{"type":"Point","coordinates":[-82.4255447,35.3080406]}},{"type":"Feature","properties":{"year":2020,"instnm":"Blue Ridge Community College","CZ_label":"Harrisonburg","inst_cmplt_tot":617,"inst_green_cmplt_tot":42,"inst_perc_green_tot":0.0680713},"geometry":{"type":"Point","coordinates":[-78.9374695,38.2790756]}},{"type":"Feature","properties":{"year":2020,"instnm":"Blue Ridge Community and Technical College","CZ_label":"Winchester","inst_cmplt_tot":441,"inst_green_cmplt_tot":29,"inst_perc_green_tot":0.0657596},"geometry":{"type":"Point","coordinates":[-78.001915,39.4352913]}},{"type":"Feature","properties":{"year":2020,"instnm":"Bluegrass Community and Technical College","CZ_label":"Lexington","inst_cmplt_tot":1119,"inst_green_cmplt_tot":30,"inst_perc_green_tot":0.0268097},"geometry":{"type":"Point","coordinates":[-84.5036621,38.024807]}},{"type":"Feature","properties":{"year":2020,"instnm":"Bossier Parish Community College","CZ_label":"Shreveport","inst_cmplt_tot":784,"inst_green_cmplt_tot":62,"inst_perc_green_tot":0.0790816},"geometry":{"type":"Point","coordinates":[-93.6468811,32.5395508]}},{"type":"Feature","properties":{"year":2020,"instnm":"Brazosport College","CZ_label":"Houston","inst_cmplt_tot":505,"inst_green_cmplt_tot":86,"inst_perc_green_tot":0.170297},"geometry":{"type":"Point","coordinates":[-95.4093399,29.0486031]}},{"type":"Feature","properties":{"year":2020,"instnm":"BridgeValley Community & Technical College","CZ_label":"Charleston","inst_cmplt_tot":359,"inst_green_cmplt_tot":89,"inst_perc_green_tot":0.2479109},"geometry":{"type":"Point","coordinates":[-81.6983032,38.3538475]}},{"type":"Feature","properties":{"year":2020,"instnm":"Bristol Community College","CZ_label":"Providence","inst_cmplt_tot":1132,"inst_green_cmplt_tot":159,"inst_perc_green_tot":0.1404594},"geometry":{"type":"Point","coordinates":[-71.119133,41.7219925]}},{"type":"Feature","properties":{"year":2020,"instnm":"Brookdale Community College","CZ_label":"Long Branch","inst_cmplt_tot":1697,"inst_green_cmplt_tot":158,"inst_perc_green_tot":0.0931055},"geometry":{"type":"Point","coordinates":[-74.1327438,40.3249054]}},{"type":"Feature","properties":{"year":2020,"instnm":"Broward College","CZ_label":"Miami","inst_cmplt_tot":6468,"inst_green_cmplt_tot":126,"inst_perc_green_tot":0.0194805},"geometry":{"type":"Point","coordinates":[-80.1418304,26.1194229]}},{"type":"Feature","properties":{"year":2020,"instnm":"Brunswick Community College","CZ_label":"Wilmington","inst_cmplt_tot":240,"inst_green_cmplt_tot":11,"inst_perc_green_tot":0.0458333},"geometry":{"type":"Point","coordinates":[-78.2297897,34.0389748]}},{"type":"Feature","properties":{"year":2020,"instnm":"Bucks County Community College","CZ_label":"Philadelphia","inst_cmplt_tot":1012,"inst_green_cmplt_tot":117,"inst_perc_green_tot":0.1156126},"geometry":{"type":"Point","coordinates":[-74.9658432,40.2391014]}},{"type":"Feature","properties":{"year":2020,"instnm":"Bunker Hill Community College","CZ_label":"Boston","inst_cmplt_tot":1148,"inst_green_cmplt_tot":278,"inst_perc_green_tot":0.2421603},"geometry":{"type":"Point","coordinates":[-71.0692596,42.3748055]}},{"type":"Feature","properties":{"year":2020,"instnm":"Butler Community College","CZ_label":"Wichita","inst_cmplt_tot":1115,"inst_green_cmplt_tot":64,"inst_perc_green_tot":0.0573991},"geometry":{"type":"Point","coordinates":[-96.882988,37.8066978]}},{"type":"Feature","properties":{"year":2020,"instnm":"Butler County Community College","CZ_label":"Pittsburgh","inst_cmplt_tot":512,"inst_green_cmplt_tot":42,"inst_perc_green_tot":0.0820312},"geometry":{"type":"Point","coordinates":[-79.9114304,40.8293648]}},{"type":"Feature","properties":{"year":2020,"instnm":"Butte College","CZ_label":"Redding & Chico","inst_cmplt_tot":1401,"inst_green_cmplt_tot":94,"inst_perc_green_tot":0.0670949},"geometry":{"type":"Point","coordinates":[-121.6448288,39.6497803]}},{"type":"Feature","properties":{"year":2020,"instnm":"CUNY Borough of Manhattan Community College","CZ_label":"New York","inst_cmplt_tot":5092,"inst_green_cmplt_tot":526,"inst_perc_green_tot":0.1032993},"geometry":{"type":"Point","coordinates":[-74.0118256,40.7187881]}},{"type":"Feature","properties":{"year":2020,"instnm":"CUNY Bronx Community College","CZ_label":"New York","inst_cmplt_tot":1768,"inst_green_cmplt_tot":273,"inst_perc_green_tot":0.1544118},"geometry":{"type":"Point","coordinates":[-73.9120407,40.8581123]}},{"type":"Feature","properties":{"year":2020,"instnm":"CUNY Hostos Community College","CZ_label":"New York","inst_cmplt_tot":1229,"inst_green_cmplt_tot":90,"inst_perc_green_tot":0.0732303},"geometry":{"type":"Point","coordinates":[-73.9267578,40.818119]}},{"type":"Feature","properties":{"year":2020,"instnm":"CUNY Kingsborough Community College","CZ_label":"New York","inst_cmplt_tot":2642,"inst_green_cmplt_tot":415,"inst_perc_green_tot":0.157078},"geometry":{"type":"Point","coordinates":[-73.9358139,40.5772209]}},{"type":"Feature","properties":{"year":2020,"instnm":"CUNY LaGuardia Community College","CZ_label":"New York","inst_cmplt_tot":3849,"inst_green_cmplt_tot":1086,"inst_perc_green_tot":0.2821512},"geometry":{"type":"Point","coordinates":[-73.9350586,40.7444992]}},{"type":"Feature","properties":{"year":2020,"instnm":"CUNY Queensborough Community College","CZ_label":"New York","inst_cmplt_tot":2578,"inst_green_cmplt_tot":379,"inst_perc_green_tot":0.1470132},"geometry":{"type":"Point","coordinates":[-73.7566528,40.7554817]}},{"type":"Feature","properties":{"year":2020,"instnm":"CUNY Stella and Charles Guttman Community College","CZ_label":"New York","inst_cmplt_tot":238,"inst_green_cmplt_tot":0,"inst_perc_green_tot":0},"geometry":{"type":"Point","coordinates":[-73.9841309,40.7528114]}},{"type":"Feature","properties":{"year":2020,"instnm":"Cabrillo College","CZ_label":"San Jose","inst_cmplt_tot":1113,"inst_green_cmplt_tot":238,"inst_perc_green_tot":0.2138365},"geometry":{"type":"Point","coordinates":[-121.9247971,36.9894485]}},{"type":"Feature","properties":{"year":2020,"instnm":"Caldwell Community College and Technical Institute","CZ_label":"Hickory","inst_cmplt_tot":630,"inst_green_cmplt_tot":22,"inst_perc_green_tot":0.0349206},"geometry":{"type":"Point","coordinates":[-81.4841461,35.8546028]}},{"type":"Feature","properties":{"year":2020,"instnm":"Camden County College","CZ_label":"Trenton","inst_cmplt_tot":1057,"inst_green_cmplt_tot":34,"inst_perc_green_tot":0.0321665},"geometry":{"type":"Point","coordinates":[-75.0383835,39.784874]}},{"type":"Feature","properties":{"year":2020,"instnm":"Canada College","CZ_label":"San Francisco","inst_cmplt_tot":594,"inst_green_cmplt_tot":57,"inst_perc_green_tot":0.0959596},"geometry":{"type":"Point","coordinates":[-122.2653961,37.4487686]}},{"type":"Feature","properties":{"year":2020,"instnm":"Cape Cod Community College","CZ_label":"Boston","inst_cmplt_tot":354,"inst_green_cmplt_tot":28,"inst_perc_green_tot":0.079096},"geometry":{"type":"Point","coordinates":[-70.3373337,41.6919098]}},{"type":"Feature","properties":{"year":2020,"instnm":"Cape Fear Community College","CZ_label":"Wilmington","inst_cmplt_tot":1579,"inst_green_cmplt_tot":180,"inst_perc_green_tot":0.1139962},"geometry":{"type":"Point","coordinates":[-77.9483032,34.2406235]}},{"type":"Feature","properties":{"year":2020,"instnm":"Capital Community College","CZ_label":null,"inst_cmplt_tot":196,"inst_green_cmplt_tot":7,"inst_perc_green_tot":0.0357143},"geometry":{"type":"Point","coordinates":[-72.6727371,41.7683983]}},{"type":"Feature","properties":{"year":2020,"instnm":"Carl Albert State College","CZ_label":"McAlester","inst_cmplt_tot":369,"inst_green_cmplt_tot":16,"inst_perc_green_tot":0.0433604},"geometry":{"type":"Point","coordinates":[-94.6339874,35.0391731]}},{"type":"Feature","properties":{"year":2020,"instnm":"Carl Sandburg College","CZ_label":"Davenport","inst_cmplt_tot":477,"inst_green_cmplt_tot":6,"inst_perc_green_tot":0.0125786},"geometry":{"type":"Point","coordinates":[-90.4082031,40.9812813]}},{"type":"Feature","properties":{"year":2020,"instnm":"Carroll Community College","CZ_label":"Baltimore","inst_cmplt_tot":518,"inst_green_cmplt_tot":29,"inst_perc_green_tot":0.0559846},"geometry":{"type":"Point","coordinates":[-76.9911118,39.5318031]}},{"type":"Feature","properties":{"year":2020,"instnm":"Carteret Community College","CZ_label":"Jacksonville","inst_cmplt_tot":188,"inst_green_cmplt_tot":9,"inst_perc_green_tot":0.0478723},"geometry":{"type":"Point","coordinates":[-76.7555389,34.7236824]}},{"type":"Feature","properties":{"year":2020,"instnm":"Cascadia College","CZ_label":"Seattle","inst_cmplt_tot":616,"inst_green_cmplt_tot":163,"inst_perc_green_tot":0.2646104},"geometry":{"type":"Point","coordinates":[-122.1915741,47.7609138]}},{"type":"Feature","properties":{"year":2020,"instnm":"Casper College","CZ_label":"Casper","inst_cmplt_tot":717,"inst_green_cmplt_tot":201,"inst_perc_green_tot":0.2803347},"geometry":{"type":"Point","coordinates":[-106.3267136,42.8327866]}},{"type":"Feature","properties":{"year":2020,"instnm":"Catawba Valley Community College","CZ_label":"Hickory","inst_cmplt_tot":638,"inst_green_cmplt_tot":47,"inst_perc_green_tot":0.0736677},"geometry":{"type":"Point","coordinates":[-81.2879181,35.6997337]}},{"type":"Feature","properties":{"year":2020,"instnm":"Cayuga County Community College","CZ_label":"Syracuse","inst_cmplt_tot":378,"inst_green_cmplt_tot":10,"inst_perc_green_tot":0.026455},"geometry":{"type":"Point","coordinates":[-76.5428696,42.9437256]}},{"type":"Feature","properties":{"year":2020,"instnm":"Cecil College","CZ_label":"Philadelphia","inst_cmplt_tot":404,"inst_green_cmplt_tot":53,"inst_perc_green_tot":0.1311881},"geometry":{"type":"Point","coordinates":[-75.9559479,39.6422234]}},{"type":"Feature","properties":{"year":2020,"instnm":"Central Alabama Community College","CZ_label":"Anniston","inst_cmplt_tot":207,"inst_green_cmplt_tot":12,"inst_perc_green_tot":0.057971},"geometry":{"type":"Point","coordinates":[-85.9452667,32.9247818]}},{"type":"Feature","properties":{"year":2020,"instnm":"Central Arizona College","CZ_label":"Phoenix","inst_cmplt_tot":528,"inst_green_cmplt_tot":46,"inst_perc_green_tot":0.0871212},"geometry":{"type":"Point","coordinates":[-111.652504,32.9570923]}},{"type":"Feature","properties":{"year":2020,"instnm":"Central Carolina Community College","CZ_label":"Fayetteville","inst_cmplt_tot":529,"inst_green_cmplt_tot":38,"inst_perc_green_tot":0.0718336},"geometry":{"type":"Point","coordinates":[-79.1435547,35.4718628]}},{"type":"Feature","properties":{"year":2020,"instnm":"Central Carolina Technical College","CZ_label":"Columbia","inst_cmplt_tot":342,"inst_green_cmplt_tot":35,"inst_perc_green_tot":0.1023392},"geometry":{"type":"Point","coordinates":[-80.3710098,33.933342]}},{"type":"Feature","properties":{"year":2020,"instnm":"Central Community College","CZ_label":"Grand Island","inst_cmplt_tot":746,"inst_green_cmplt_tot":124,"inst_perc_green_tot":0.1662198},"geometry":{"type":"Point","coordinates":[-98.372551,40.8895836]}},{"type":"Feature","properties":{"year":2020,"instnm":"Central Georgia Technical College","CZ_label":"Macon & Warner Robins","inst_cmplt_tot":991,"inst_green_cmplt_tot":198,"inst_perc_green_tot":0.1997982},"geometry":{"type":"Point","coordinates":[-83.6676483,32.5453415]}},{"type":"Feature","properties":{"year":2020,"instnm":"Central Lakes College-Brainerd","CZ_label":"Bemidji & Brainerd","inst_cmplt_tot":653,"inst_green_cmplt_tot":180,"inst_perc_green_tot":0.2756508},"geometry":{"type":"Point","coordinates":[-94.2142639,46.3458633]}},{"type":"Feature","properties":{"year":2020,"instnm":"Central Louisiana Technical Community College","CZ_label":"Alexandria","inst_cmplt_tot":198,"inst_green_cmplt_tot":34,"inst_perc_green_tot":0.1717172},"geometry":{"type":"Point","coordinates":[-92.4466934,31.310461]}},{"type":"Feature","properties":{"year":2020,"instnm":"Central Maine Community College","CZ_label":"Portland","inst_cmplt_tot":369,"inst_green_cmplt_tot":71,"inst_perc_green_tot":0.1924119},"geometry":{"type":"Point","coordinates":[-70.2354965,44.134346]}},{"type":"Feature","properties":{"year":2020,"instnm":"Central New Mexico Community College","CZ_label":"Albuquerque","inst_cmplt_tot":2173,"inst_green_cmplt_tot":453,"inst_perc_green_tot":0.2084676},"geometry":{"type":"Point","coordinates":[-106.6288605,35.0718765]}},{"type":"Feature","properties":{"year":2020,"instnm":"Central Ohio Technical College","CZ_label":"Columbus","inst_cmplt_tot":563,"inst_green_cmplt_tot":19,"inst_perc_green_tot":0.0337478},"geometry":{"type":"Point","coordinates":[-82.4474411,40.069313]}},{"type":"Feature","properties":{"year":2020,"instnm":"Central Oregon Community College","CZ_label":"Bend","inst_cmplt_tot":608,"inst_green_cmplt_tot":16,"inst_perc_green_tot":0.0263158},"geometry":{"type":"Point","coordinates":[-121.348587,44.0713997]}},{"type":"Feature","properties":{"year":2020,"instnm":"Central Piedmont Community College","CZ_label":"Charlotte","inst_cmplt_tot":2133,"inst_green_cmplt_tot":109,"inst_perc_green_tot":0.0511017},"geometry":{"type":"Point","coordinates":[-80.8297958,35.2177734]}},{"type":"Feature","properties":{"year":2020,"instnm":"Central Texas College","CZ_label":"Killeen","inst_cmplt_tot":1602,"inst_green_cmplt_tot":126,"inst_perc_green_tot":0.0786517},"geometry":{"type":"Point","coordinates":[-97.8108292,31.1205158]}},{"type":"Feature","properties":{"year":2020,"instnm":"Central Virginia Community College","CZ_label":"Lynchburg","inst_cmplt_tot":708,"inst_green_cmplt_tot":71,"inst_perc_green_tot":0.1002825},"geometry":{"type":"Point","coordinates":[-79.1842346,37.3588104]}},{"type":"Feature","properties":{"year":2020,"instnm":"Central Wyoming College","CZ_label":"Riverton","inst_cmplt_tot":199,"inst_green_cmplt_tot":24,"inst_perc_green_tot":0.120603},"geometry":{"type":"Point","coordinates":[-108.4267349,43.0305557]}},{"type":"Feature","properties":{"year":2020,"instnm":"Centralia College","CZ_label":"Seattle","inst_cmplt_tot":525,"inst_green_cmplt_tot":103,"inst_perc_green_tot":0.1961905},"geometry":{"type":"Point","coordinates":[-122.9605942,46.7150154]}},{"type":"Feature","properties":{"year":2020,"instnm":"Century College","CZ_label":"Minneapolis","inst_cmplt_tot":1312,"inst_green_cmplt_tot":177,"inst_perc_green_tot":0.1349085},"geometry":{"type":"Point","coordinates":[-92.9821014,45.0418243]}},{"type":"Feature","properties":{"year":2020,"instnm":"Cerritos College","CZ_label":"Los Angeles","inst_cmplt_tot":1585,"inst_green_cmplt_tot":179,"inst_perc_green_tot":0.1129338},"geometry":{"type":"Point","coordinates":[-118.0973358,33.8868752]}},{"type":"Feature","properties":{"year":2020,"instnm":"Cerro Coso Community College","CZ_label":"Bakersfield","inst_cmplt_tot":619,"inst_green_cmplt_tot":18,"inst_perc_green_tot":0.0290792},"geometry":{"type":"Point","coordinates":[-117.6676712,35.567524]}},{"type":"Feature","properties":{"year":2020,"instnm":"Chabot College","CZ_label":"San Francisco","inst_cmplt_tot":1390,"inst_green_cmplt_tot":282,"inst_perc_green_tot":0.2028777},"geometry":{"type":"Point","coordinates":[-122.1056366,37.6424599]}},{"type":"Feature","properties":{"year":2020,"instnm":"Chaffey College","CZ_label":"Los Angeles","inst_cmplt_tot":3957,"inst_green_cmplt_tot":276,"inst_perc_green_tot":0.0697498},"geometry":{"type":"Point","coordinates":[-117.5739288,34.1476631]}},{"type":"Feature","properties":{"year":2020,"instnm":"Chandler-Gilbert Community College","CZ_label":"Phoenix","inst_cmplt_tot":2841,"inst_green_cmplt_tot":849,"inst_perc_green_tot":0.2988384},"geometry":{"type":"Point","coordinates":[-111.7959213,33.2938957]}},{"type":"Feature","properties":{"year":2020,"instnm":"Chattahoochee Technical College","CZ_label":"Atlanta","inst_cmplt_tot":645,"inst_green_cmplt_tot":154,"inst_perc_green_tot":0.2387597},"geometry":{"type":"Point","coordinates":[-84.5537186,33.9290924]}},{"type":"Feature","properties":{"year":2020,"instnm":"Chattahoochee Valley Community College","CZ_label":"Columbus","inst_cmplt_tot":277,"inst_green_cmplt_tot":12,"inst_perc_green_tot":0.0433213},"geometry":{"type":"Point","coordinates":[-85.0314865,32.4239082]}},{"type":"Feature","properties":{"year":2020,"instnm":"Chattanooga State Community College","CZ_label":"Chattanooga","inst_cmplt_tot":1148,"inst_green_cmplt_tot":122,"inst_perc_green_tot":0.1062718},"geometry":{"type":"Point","coordinates":[-85.2373886,35.1002007]}},{"type":"Feature","properties":{"year":2020,"instnm":"Chemeketa Community College","CZ_label":"Portland","inst_cmplt_tot":1616,"inst_green_cmplt_tot":102,"inst_perc_green_tot":0.0631188},"geometry":{"type":"Point","coordinates":[-122.9780731,44.9786568]}},{"type":"Feature","properties":{"year":2020,"instnm":"Chesapeake College","CZ_label":"Dover","inst_cmplt_tot":229,"inst_green_cmplt_tot":37,"inst_perc_green_tot":0.1615721},"geometry":{"type":"Point","coordinates":[-76.0836716,38.9521942]}},{"type":"Feature","properties":{"year":2020,"instnm":"Chipola College","CZ_label":"Panama City","inst_cmplt_tot":421,"inst_green_cmplt_tot":33,"inst_perc_green_tot":0.0783848},"geometry":{"type":"Point","coordinates":[-85.2313919,30.7892284]}},{"type":"Feature","properties":{"year":2020,"instnm":"Chippewa Valley Technical College","CZ_label":"Eau Claire","inst_cmplt_tot":966,"inst_green_cmplt_tot":154,"inst_perc_green_tot":0.1594203},"geometry":{"type":"Point","coordinates":[-91.5056763,44.7948685]}},{"type":"Feature","properties":{"year":2020,"instnm":"Cincinnati State Technical and Community College","CZ_label":"Cincinnati","inst_cmplt_tot":1106,"inst_green_cmplt_tot":147,"inst_perc_green_tot":0.1329114},"geometry":{"type":"Point","coordinates":[-84.5369339,39.1499138]}},{"type":"Feature","properties":{"year":2020,"instnm":"Cisco College","CZ_label":"Graham","inst_cmplt_tot":772,"inst_green_cmplt_tot":116,"inst_perc_green_tot":0.1502591},"geometry":{"type":"Point","coordinates":[-98.9852066,32.4011307]}},{"type":"Feature","properties":{"year":2020,"instnm":"Citrus College","CZ_label":"Los Angeles","inst_cmplt_tot":4005,"inst_green_cmplt_tot":286,"inst_perc_green_tot":0.0714107},"geometry":{"type":"Point","coordinates":[-117.886467,34.1353683]}},{"type":"Feature","properties":{"year":2020,"instnm":"City College of San Francisco","CZ_label":"San Francisco","inst_cmplt_tot":1543,"inst_green_cmplt_tot":168,"inst_perc_green_tot":0.1088788},"geometry":{"type":"Point","coordinates":[-122.4511566,37.7259521]}},{"type":"Feature","properties":{"year":2020,"instnm":"City Colleges of Chicago-Harold Washington College","CZ_label":"Chicago","inst_cmplt_tot":1132,"inst_green_cmplt_tot":31,"inst_perc_green_tot":0.0273852},"geometry":{"type":"Point","coordinates":[-87.6265945,41.8860664]}},{"type":"Feature","properties":{"year":2020,"instnm":"City Colleges of Chicago-Harry S Truman College","CZ_label":"Chicago","inst_cmplt_tot":601,"inst_green_cmplt_tot":24,"inst_perc_green_tot":0.0399334},"geometry":{"type":"Point","coordinates":[-87.6591034,41.9645004]}},{"type":"Feature","properties":{"year":2020,"instnm":"City Colleges of Chicago-Kennedy-King College","CZ_label":"Chicago","inst_cmplt_tot":370,"inst_green_cmplt_tot":132,"inst_perc_green_tot":0.3567568},"geometry":{"type":"Point","coordinates":[-87.643425,41.7802544]}},{"type":"Feature","properties":{"year":2020,"instnm":"City Colleges of Chicago-Malcolm X College","CZ_label":"Chicago","inst_cmplt_tot":818,"inst_green_cmplt_tot":0,"inst_perc_green_tot":0},"geometry":{"type":"Point","coordinates":[-87.6753235,41.8780937]}},{"type":"Feature","properties":{"year":2020,"instnm":"City Colleges of Chicago-Olive-Harvey College","CZ_label":"Chicago","inst_cmplt_tot":244,"inst_green_cmplt_tot":0,"inst_perc_green_tot":0},"geometry":{"type":"Point","coordinates":[-87.5892487,41.7099953]}},{"type":"Feature","properties":{"year":2020,"instnm":"City Colleges of Chicago-Richard J Daley College","CZ_label":"Chicago","inst_cmplt_tot":367,"inst_green_cmplt_tot":41,"inst_perc_green_tot":0.1117166},"geometry":{"type":"Point","coordinates":[-87.7239838,41.7559547]}},{"type":"Feature","properties":{"year":2020,"instnm":"City Colleges of Chicago-Wilbur Wright College","CZ_label":"Chicago","inst_cmplt_tot":1264,"inst_green_cmplt_tot":36,"inst_perc_green_tot":0.028481},"geometry":{"type":"Point","coordinates":[-87.7878647,41.9587746]}},{"type":"Feature","properties":{"year":2020,"instnm":"Clackamas Community College","CZ_label":"Portland","inst_cmplt_tot":746,"inst_green_cmplt_tot":121,"inst_perc_green_tot":0.1621984},"geometry":{"type":"Point","coordinates":[-122.5742722,45.323185]}},{"type":"Feature","properties":{"year":2020,"instnm":"Clarendon College","CZ_label":"Amarillo","inst_cmplt_tot":389,"inst_green_cmplt_tot":137,"inst_perc_green_tot":0.3521851},"geometry":{"type":"Point","coordinates":[-100.90242,34.9445572]}},{"type":"Feature","properties":{"year":2020,"instnm":"Clark College","CZ_label":"Portland","inst_cmplt_tot":1682,"inst_green_cmplt_tot":322,"inst_perc_green_tot":0.1914388},"geometry":{"type":"Point","coordinates":[-122.6512604,45.6361313]}},{"type":"Feature","properties":{"year":2020,"instnm":"Clark State Community College","CZ_label":"Dayton","inst_cmplt_tot":412,"inst_green_cmplt_tot":16,"inst_perc_green_tot":0.038835},"geometry":{"type":"Point","coordinates":[-83.7997894,39.8964119]}},{"type":"Feature","properties":{"year":2020,"instnm":"Clatsop Community College","CZ_label":"Aberdeen","inst_cmplt_tot":93,"inst_green_cmplt_tot":5,"inst_perc_green_tot":0.0537634},"geometry":{"type":"Point","coordinates":[-123.8233414,46.1831055]}},{"type":"Feature","properties":{"year":2020,"instnm":"Cleveland Community College","CZ_label":"Charlotte","inst_cmplt_tot":406,"inst_green_cmplt_tot":42,"inst_perc_green_tot":0.1034483},"geometry":{"type":"Point","coordinates":[-81.4928589,35.2798347]}},{"type":"Feature","properties":{"year":2020,"instnm":"Cleveland State Community College","CZ_label":"Chattanooga","inst_cmplt_tot":456,"inst_green_cmplt_tot":56,"inst_perc_green_tot":0.122807},"geometry":{"type":"Point","coordinates":[-84.8792877,35.2001038]}},{"type":"Feature","properties":{"year":2020,"instnm":"Clinton Community College","CZ_label":"Plattsburgh","inst_cmplt_tot":198,"inst_green_cmplt_tot":19,"inst_perc_green_tot":0.0959596},"geometry":{"type":"Point","coordinates":[-73.4397354,44.6484108]}},{"type":"Feature","properties":{"year":2020,"instnm":"Cloud County Community College","CZ_label":"Concordia","inst_cmplt_tot":375,"inst_green_cmplt_tot":44,"inst_perc_green_tot":0.1173333},"geometry":{"type":"Point","coordinates":[-97.6641464,39.5541992]}},{"type":"Feature","properties":{"year":2020,"instnm":"Clover Park Technical College","CZ_label":"Seattle","inst_cmplt_tot":602,"inst_green_cmplt_tot":192,"inst_perc_green_tot":0.3189369},"geometry":{"type":"Point","coordinates":[-122.4978714,47.1760826]}},{"type":"Feature","properties":{"year":2020,"instnm":"Clovis Community College","CZ_label":"Clovis","inst_cmplt_tot":441,"inst_green_cmplt_tot":42,"inst_perc_green_tot":0.0952381},"geometry":{"type":"Point","coordinates":[-103.1658859,34.4024849]}},{"type":"Feature","properties":{"year":2020,"instnm":"Clovis Community College","CZ_label":"Fresno","inst_cmplt_tot":1018,"inst_green_cmplt_tot":529,"inst_perc_green_tot":0.5196464},"geometry":{"type":"Point","coordinates":[-119.7312622,36.8868599]}},{"type":"Feature","properties":{"year":2020,"instnm":"Coahoma Community College","CZ_label":"Oxford","inst_cmplt_tot":280,"inst_green_cmplt_tot":26,"inst_perc_green_tot":0.0928571},"geometry":{"type":"Point","coordinates":[-90.5684662,34.2544174]}},{"type":"Feature","properties":{"year":2020,"instnm":"Coastal Alabama Community College","CZ_label":"Mobile","inst_cmplt_tot":897,"inst_green_cmplt_tot":76,"inst_perc_green_tot":0.0847269},"geometry":{"type":"Point","coordinates":[-87.7781906,30.8513432]}},{"type":"Feature","properties":{"year":2020,"instnm":"Coastal Bend College","CZ_label":"McAllen","inst_cmplt_tot":400,"inst_green_cmplt_tot":74,"inst_perc_green_tot":0.185},"geometry":{"type":"Point","coordinates":[-97.7558975,28.435194]}},{"type":"Feature","properties":{"year":2020,"instnm":"Coastal Carolina Community College","CZ_label":"Jacksonville","inst_cmplt_tot":688,"inst_green_cmplt_tot":40,"inst_perc_green_tot":0.0581395},"geometry":{"type":"Point","coordinates":[-77.3847885,34.7716866]}},{"type":"Feature","properties":{"year":2020,"instnm":"Coastal Pines Technical College","CZ_label":"Brunswick","inst_cmplt_tot":223,"inst_green_cmplt_tot":56,"inst_perc_green_tot":0.2511211},"geometry":{"type":"Point","coordinates":[-82.382103,31.2127819]}},{"type":"Feature","properties":{"year":2020,"instnm":"Coastline Community College","CZ_label":"Los Angeles","inst_cmplt_tot":920,"inst_green_cmplt_tot":6,"inst_perc_green_tot":0.0065217},"geometry":{"type":"Point","coordinates":[-117.9291458,33.7156334]}},{"type":"Feature","properties":{"year":2020,"instnm":"Cochise County Community College District","CZ_label":"Tucson","inst_cmplt_tot":1418,"inst_green_cmplt_tot":157,"inst_perc_green_tot":0.1107193},"geometry":{"type":"Point","coordinates":[-110.2469482,31.5645962]}},{"type":"Feature","properties":{"year":2020,"instnm":"Coconino Community College","CZ_label":"Prescott Valley & Flagstaff","inst_cmplt_tot":345,"inst_green_cmplt_tot":0,"inst_perc_green_tot":0},"geometry":{"type":"Point","coordinates":[-111.6456299,35.1713295]}},{"type":"Feature","properties":{"year":2020,"instnm":"Coffeyville Community College","CZ_label":"Bartlesville","inst_cmplt_tot":313,"inst_green_cmplt_tot":37,"inst_perc_green_tot":0.1182109},"geometry":{"type":"Point","coordinates":[-95.621376,37.0338135]}},{"type":"Feature","properties":{"year":2020,"instnm":"Colby Community College","CZ_label":"Colby","inst_cmplt_tot":268,"inst_green_cmplt_tot":7,"inst_perc_green_tot":0.0261194},"geometry":{"type":"Point","coordinates":[-101.052742,39.3776016]}},{"type":"Feature","properties":{"year":2020,"instnm":"College of Alameda","CZ_label":"San Francisco","inst_cmplt_tot":511,"inst_green_cmplt_tot":126,"inst_perc_green_tot":0.2465753},"geometry":{"type":"Point","coordinates":[-122.2793045,37.7810173]}},{"type":"Feature","properties":{"year":2020,"instnm":"College of Central Florida","CZ_label":"Orlando","inst_cmplt_tot":1339,"inst_green_cmplt_tot":40,"inst_perc_green_tot":0.029873},"geometry":{"type":"Point","coordinates":[-82.1756897,29.1660786]}},{"type":"Feature","properties":{"year":2020,"instnm":"College of DuPage","CZ_label":"Chicago","inst_cmplt_tot":1768,"inst_green_cmplt_tot":213,"inst_perc_green_tot":0.1204751},"geometry":{"type":"Point","coordinates":[-88.0716324,41.8415756]}},{"type":"Feature","properties":{"year":2020,"instnm":"College of Eastern Idaho","CZ_label":"Idaho Falls","inst_cmplt_tot":250,"inst_green_cmplt_tot":54,"inst_perc_green_tot":0.216},"geometry":{"type":"Point","coordinates":[-111.9855194,43.486042]}},{"type":"Feature","properties":{"year":2020,"instnm":"College of Lake County","CZ_label":"Chicago","inst_cmplt_tot":1510,"inst_green_cmplt_tot":155,"inst_perc_green_tot":0.102649},"geometry":{"type":"Point","coordinates":[-88.012291,42.3541641]}},{"type":"Feature","properties":{"year":2020,"instnm":"College of Marin","CZ_label":"San Francisco","inst_cmplt_tot":425,"inst_green_cmplt_tot":28,"inst_perc_green_tot":0.0658824},"geometry":{"type":"Point","coordinates":[-122.5491486,37.9548988]}},{"type":"Feature","properties":{"year":2020,"instnm":"College of Micronesia-FSM","CZ_label":null,"inst_cmplt_tot":365,"inst_green_cmplt_tot":45,"inst_perc_green_tot":0.1232877},"geometry":{"type":"Point","coordinates":[158.1581879,6.909759]}},{"type":"Feature","properties":{"year":2020,"instnm":"College of San Mateo","CZ_label":"San Francisco","inst_cmplt_tot":970,"inst_green_cmplt_tot":172,"inst_perc_green_tot":0.1773196},"geometry":{"type":"Point","coordinates":[-122.3348007,37.5356979]}},{"type":"Feature","properties":{"year":2020,"instnm":"College of Southern Idaho","CZ_label":"Twin Falls","inst_cmplt_tot":1019,"inst_green_cmplt_tot":187,"inst_perc_green_tot":0.1835132},"geometry":{"type":"Point","coordinates":[-114.4738998,42.5798378]}},{"type":"Feature","properties":{"year":2020,"instnm":"College of Southern Maryland","CZ_label":"Washington","inst_cmplt_tot":1318,"inst_green_cmplt_tot":132,"inst_perc_green_tot":0.1001517},"geometry":{"type":"Point","coordinates":[-77.0092468,38.5589485]}},{"type":"Feature","properties":{"year":2020,"instnm":"College of Southern Nevada","CZ_label":"Las Vegas","inst_cmplt_tot":3371,"inst_green_cmplt_tot":837,"inst_perc_green_tot":0.2482943},"geometry":{"type":"Point","coordinates":[-115.2331009,36.1581154]}},{"type":"Feature","properties":{"year":2020,"instnm":"College of Western Idaho","CZ_label":"Boise","inst_cmplt_tot":1996,"inst_green_cmplt_tot":335,"inst_perc_green_tot":0.1678357},"geometry":{"type":"Point","coordinates":[-116.5073166,43.6141052]}},{"type":"Feature","properties":{"year":2020,"instnm":"College of the Albemarle","CZ_label":"Virginia Beach","inst_cmplt_tot":395,"inst_green_cmplt_tot":26,"inst_perc_green_tot":0.0658228},"geometry":{"type":"Point","coordinates":[-76.2197647,36.3248863]}},{"type":"Feature","properties":{"year":2020,"instnm":"College of the Canyons","CZ_label":"Los Angeles","inst_cmplt_tot":2980,"inst_green_cmplt_tot":344,"inst_perc_green_tot":0.1154362},"geometry":{"type":"Point","coordinates":[-118.5686951,34.4039917]}},{"type":"Feature","properties":{"year":2020,"instnm":"College of the Desert","CZ_label":"Los Angeles","inst_cmplt_tot":1339,"inst_green_cmplt_tot":152,"inst_perc_green_tot":0.1135176},"geometry":{"type":"Point","coordinates":[-116.3882675,33.7321091]}},{"type":"Feature","properties":{"year":2020,"instnm":"College of the Mainland","CZ_label":"Houston","inst_cmplt_tot":652,"inst_green_cmplt_tot":136,"inst_perc_green_tot":0.208589},"geometry":{"type":"Point","coordinates":[-94.9996033,29.3958092]}},{"type":"Feature","properties":{"year":2020,"instnm":"College of the Marshall Islands","CZ_label":null,"inst_cmplt_tot":194,"inst_green_cmplt_tot":34,"inst_perc_green_tot":0.1752577},"geometry":{"type":"Point","coordinates":[171.3781281,7.1026878]}},{"type":"Feature","properties":{"year":2020,"instnm":"College of the Redwoods","CZ_label":"Eureka","inst_cmplt_tot":664,"inst_green_cmplt_tot":24,"inst_perc_green_tot":0.0361446},"geometry":{"type":"Point","coordinates":[-124.1952896,40.6984253]}},{"type":"Feature","properties":{"year":2020,"instnm":"College of the Sequoias","CZ_label":"Fresno","inst_cmplt_tot":1897,"inst_green_cmplt_tot":136,"inst_perc_green_tot":0.0716921},"geometry":{"type":"Point","coordinates":[-119.3151855,36.3238754]}},{"type":"Feature","properties":{"year":2020,"instnm":"College of the Siskiyous","CZ_label":"Klamath Falls","inst_cmplt_tot":368,"inst_green_cmplt_tot":12,"inst_perc_green_tot":0.0326087},"geometry":{"type":"Point","coordinates":[-122.3890915,41.4130058]}},{"type":"Feature","properties":{"year":2020,"instnm":"Collin County Community College District","CZ_label":"Dallas","inst_cmplt_tot":3576,"inst_green_cmplt_tot":65,"inst_perc_green_tot":0.0181767},"geometry":{"type":"Point","coordinates":[-96.6389389,33.1624107]}},{"type":"Feature","properties":{"year":2020,"instnm":"Colorado Mountain College","CZ_label":"Rifle & Edwards","inst_cmplt_tot":645,"inst_green_cmplt_tot":0,"inst_perc_green_tot":0},"geometry":{"type":"Point","coordinates":[-107.32444,39.54636]}},{"type":"Feature","properties":{"year":2020,"instnm":"Colorado Northwestern Community College","CZ_label":"Steamboat Springs","inst_cmplt_tot":178,"inst_green_cmplt_tot":48,"inst_perc_green_tot":0.2696629},"geometry":{"type":"Point","coordinates":[-108.7900467,40.0811119]}},{"type":"Feature","properties":{"year":2020,"instnm":"Columbia Basin College","CZ_label":"Kennewick","inst_cmplt_tot":1170,"inst_green_cmplt_tot":36,"inst_perc_green_tot":0.0307692},"geometry":{"type":"Point","coordinates":[-119.1210327,46.2521591]}},{"type":"Feature","properties":{"year":2020,"instnm":"Columbia College","CZ_label":"Stockton & Modesto","inst_cmplt_tot":310,"inst_green_cmplt_tot":59,"inst_perc_green_tot":0.1903226},"geometry":{"type":"Point","coordinates":[-120.388382,38.0303688]}},{"type":"Feature","properties":{"year":2020,"instnm":"Columbia Gorge Community College","CZ_label":"The Dalles","inst_cmplt_tot":167,"inst_green_cmplt_tot":20,"inst_perc_green_tot":0.1197605},"geometry":{"type":"Point","coordinates":[-121.1902008,45.5907249]}},{"type":"Feature","properties":{"year":2020,"instnm":"Columbia State Community College","CZ_label":"Spring Hill","inst_cmplt_tot":871,"inst_green_cmplt_tot":0,"inst_perc_green_tot":0},"geometry":{"type":"Point","coordinates":[-87.1019135,35.6167564]}},{"type":"Feature","properties":{"year":2020,"instnm":"Columbia-Greene Community College","CZ_label":"Albany","inst_cmplt_tot":256,"inst_green_cmplt_tot":6,"inst_perc_green_tot":0.0234375},"geometry":{"type":"Point","coordinates":[-73.8181152,42.2176132]}},{"type":"Feature","properties":{"year":2020,"instnm":"Columbus State Community College","CZ_label":"Columbus","inst_cmplt_tot":2266,"inst_green_cmplt_tot":315,"inst_perc_green_tot":0.1390115},"geometry":{"type":"Point","coordinates":[-82.9876633,39.9688683]}},{"type":"Feature","properties":{"year":2020,"instnm":"Columbus Technical College","CZ_label":"Columbus","inst_cmplt_tot":531,"inst_green_cmplt_tot":32,"inst_perc_green_tot":0.0602637},"geometry":{"type":"Point","coordinates":[-84.9785538,32.5080757]}},{"type":"Feature","properties":{"year":2020,"instnm":"Community College of Allegheny County","CZ_label":"Pittsburgh","inst_cmplt_tot":1775,"inst_green_cmplt_tot":760,"inst_perc_green_tot":0.428169},"geometry":{"type":"Point","coordinates":[-80.0184555,40.4509087]}},{"type":"Feature","properties":{"year":2020,"instnm":"Community College of Aurora","CZ_label":"Denver","inst_cmplt_tot":569,"inst_green_cmplt_tot":47,"inst_perc_green_tot":0.0826011},"geometry":{"type":"Point","coordinates":[-104.8026733,39.7178802]}},{"type":"Feature","properties":{"year":2020,"instnm":"Community College of Baltimore County","CZ_label":"Baltimore","inst_cmplt_tot":1253,"inst_green_cmplt_tot":124,"inst_perc_green_tot":0.0989625},"geometry":{"type":"Point","coordinates":[-76.4821091,39.3526459]}},{"type":"Feature","properties":{"year":2020,"instnm":"Community College of Beaver County","CZ_label":"Pittsburgh","inst_cmplt_tot":318,"inst_green_cmplt_tot":81,"inst_perc_green_tot":0.254717},"geometry":{"type":"Point","coordinates":[-80.3058777,40.6556015]}},{"type":"Feature","properties":{"year":2020,"instnm":"Community College of Denver","CZ_label":"Denver","inst_cmplt_tot":635,"inst_green_cmplt_tot":32,"inst_perc_green_tot":0.0503937},"geometry":{"type":"Point","coordinates":[-105.0010452,39.7414131]}},{"type":"Feature","properties":{"year":2020,"instnm":"Community College of Philadelphia","CZ_label":"Philadelphia","inst_cmplt_tot":1509,"inst_green_cmplt_tot":161,"inst_perc_green_tot":0.1066932},"geometry":{"type":"Point","coordinates":[-75.1656036,39.9624596]}},{"type":"Feature","properties":{"year":2020,"instnm":"Community College of Rhode Island","CZ_label":"Providence","inst_cmplt_tot":2130,"inst_green_cmplt_tot":19,"inst_perc_green_tot":0.0089202},"geometry":{"type":"Point","coordinates":[-71.4815063,41.7128181]}},{"type":"Feature","properties":{"year":2020,"instnm":"Community College of Vermont","CZ_label":"Lebanon & Claremont","inst_cmplt_tot":489,"inst_green_cmplt_tot":71,"inst_perc_green_tot":0.1451943},"geometry":{"type":"Point","coordinates":[-72.5737762,44.2808113]}},{"type":"Feature","properties":{"year":2020,"instnm":"Compton College","CZ_label":"Los Angeles","inst_cmplt_tot":352,"inst_green_cmplt_tot":56,"inst_perc_green_tot":0.1590909},"geometry":{"type":"Point","coordinates":[-118.209465,33.8782272]}},{"type":"Feature","properties":{"year":2020,"instnm":"Connors State College","CZ_label":"Muskogee","inst_cmplt_tot":526,"inst_green_cmplt_tot":93,"inst_perc_green_tot":0.1768061},"geometry":{"type":"Point","coordinates":[-95.3195419,35.4928741]}},{"type":"Feature","properties":{"year":2020,"instnm":"Contra Costa College","CZ_label":"San Francisco","inst_cmplt_tot":876,"inst_green_cmplt_tot":102,"inst_perc_green_tot":0.1164384},"geometry":{"type":"Point","coordinates":[-122.3373795,37.9693794]}},{"type":"Feature","properties":{"year":2020,"instnm":"Copiah-Lincoln Community College","CZ_label":"Jackson","inst_cmplt_tot":978,"inst_green_cmplt_tot":469,"inst_perc_green_tot":0.4795501},"geometry":{"type":"Point","coordinates":[-90.4002304,31.6927204]}},{"type":"Feature","properties":{"year":2020,"instnm":"Copper Mountain Community College","CZ_label":"Los Angeles","inst_cmplt_tot":323,"inst_green_cmplt_tot":0,"inst_perc_green_tot":0},"geometry":{"type":"Point","coordinates":[-116.2139359,34.1404648]}},{"type":"Feature","properties":{"year":2020,"instnm":"Cossatot Community College of the University of Arkansas","CZ_label":"Idabel & De Queen & Mena","inst_cmplt_tot":418,"inst_green_cmplt_tot":84,"inst_perc_green_tot":0.2009569},"geometry":{"type":"Point","coordinates":[-94.3673019,34.0433884]}},{"type":"Feature","properties":{"year":2020,"instnm":"Cosumnes River College","CZ_label":"Sacramento","inst_cmplt_tot":1145,"inst_green_cmplt_tot":210,"inst_perc_green_tot":0.1834061},"geometry":{"type":"Point","coordinates":[-121.423111,38.4529495]}},{"type":"Feature","properties":{"year":2020,"instnm":"County College of Morris","CZ_label":"Newark & Jersey City","inst_cmplt_tot":1257,"inst_green_cmplt_tot":85,"inst_perc_green_tot":0.0676213},"geometry":{"type":"Point","coordinates":[-74.5798721,40.8591423]}},{"type":"Feature","properties":{"year":2020,"instnm":"Cowley County Community College","CZ_label":"Wichita","inst_cmplt_tot":451,"inst_green_cmplt_tot":89,"inst_perc_green_tot":0.1973392},"geometry":{"type":"Point","coordinates":[-97.0430756,37.0616684]}},{"type":"Feature","properties":{"year":2020,"instnm":"Crafton Hills College","CZ_label":"Los Angeles","inst_cmplt_tot":1216,"inst_green_cmplt_tot":95,"inst_perc_green_tot":0.078125},"geometry":{"type":"Point","coordinates":[-117.1011734,34.0391769]}},{"type":"Feature","properties":{"year":2020,"instnm":"Craven Community College","CZ_label":"Jacksonville","inst_cmplt_tot":631,"inst_green_cmplt_tot":19,"inst_perc_green_tot":0.0301109},"geometry":{"type":"Point","coordinates":[-77.1022339,35.111515]}},{"type":"Feature","properties":{"year":2020,"instnm":"Crowder College","CZ_label":"Joplin","inst_cmplt_tot":617,"inst_green_cmplt_tot":49,"inst_perc_green_tot":0.0794165},"geometry":{"type":"Point","coordinates":[-94.3683167,36.8149071]}},{"type":"Feature","properties":{"year":2020,"instnm":"Cuesta College","CZ_label":"Santa Barbara","inst_cmplt_tot":1195,"inst_green_cmplt_tot":129,"inst_perc_green_tot":0.1079498},"geometry":{"type":"Point","coordinates":[-120.7422333,35.3312759]}},{"type":"Feature","properties":{"year":2020,"instnm":"Cumberland County College","CZ_label":"Trenton","inst_cmplt_tot":519,"inst_green_cmplt_tot":13,"inst_perc_green_tot":0.0250482},"geometry":{"type":"Point","coordinates":[-75.0578308,39.4405365]}},{"type":"Feature","properties":{"year":2020,"instnm":"Cuyahoga Community College District","CZ_label":"Cleveland","inst_cmplt_tot":3354,"inst_green_cmplt_tot":205,"inst_perc_green_tot":0.061121},"geometry":{"type":"Point","coordinates":[-81.6835327,41.4949074]}},{"type":"Feature","properties":{"year":2020,"instnm":"Cuyamaca College","CZ_label":"San Diego","inst_cmplt_tot":964,"inst_green_cmplt_tot":310,"inst_perc_green_tot":0.3215768},"geometry":{"type":"Point","coordinates":[-116.9435043,32.7449532]}},{"type":"Feature","properties":{"year":2020,"instnm":"Cypress College","CZ_label":"Los Angeles","inst_cmplt_tot":1639,"inst_green_cmplt_tot":167,"inst_perc_green_tot":0.1018914},"geometry":{"type":"Point","coordinates":[-118.0251465,33.828331]}},{"type":"Feature","properties":{"year":2020,"instnm":"Dabney S Lancaster Community College","CZ_label":"Covington","inst_cmplt_tot":126,"inst_green_cmplt_tot":15,"inst_perc_green_tot":0.1190476},"geometry":{"type":"Point","coordinates":[-79.8525391,37.8122749]}},{"type":"Feature","properties":{"year":2020,"instnm":"Dakota College at Bottineau","CZ_label":"Minot","inst_cmplt_tot":92,"inst_green_cmplt_tot":2,"inst_perc_green_tot":0.0217391},"geometry":{"type":"Point","coordinates":[-100.4411011,48.8325043]}},{"type":"Feature","properties":{"year":2020,"instnm":"Dakota County Technical College","CZ_label":"Minneapolis","inst_cmplt_tot":678,"inst_green_cmplt_tot":388,"inst_perc_green_tot":0.5722714},"geometry":{"type":"Point","coordinates":[-93.0780487,44.7372551]}},{"type":"Feature","properties":{"year":2020,"instnm":"Dallas College","CZ_label":"Dallas","inst_cmplt_tot":10875,"inst_green_cmplt_tot":1440,"inst_perc_green_tot":0.1324138},"geometry":{"type":"Point","coordinates":[-96.7940369,32.7663193]}},{"type":"Feature","properties":{"year":2020,"instnm":"Danville Area Community College","CZ_label":"Lafayette","inst_cmplt_tot":392,"inst_green_cmplt_tot":39,"inst_perc_green_tot":0.0994898},"geometry":{"type":"Point","coordinates":[-87.587883,40.1275406]}},{"type":"Feature","properties":{"year":2020,"instnm":"Danville Community College","CZ_label":"Burlington","inst_cmplt_tot":485,"inst_green_cmplt_tot":190,"inst_perc_green_tot":0.3917526},"geometry":{"type":"Point","coordinates":[-79.4088058,36.5652847]}},{"type":"Feature","properties":{"year":2020,"instnm":"Davidson County Community College","CZ_label":"Winston-Salem","inst_cmplt_tot":311,"inst_green_cmplt_tot":69,"inst_perc_green_tot":0.221865},"geometry":{"type":"Point","coordinates":[-80.1818695,35.8654709]}},{"type":"Feature","properties":{"year":2020,"instnm":"Dawson Community College","CZ_label":"Miles City","inst_cmplt_tot":96,"inst_green_cmplt_tot":29,"inst_perc_green_tot":0.3020833},"geometry":{"type":"Point","coordinates":[-104.7254868,47.0853958]}},{"type":"Feature","properties":{"year":2020,"instnm":"Daytona State College","CZ_label":"Deltona","inst_cmplt_tot":2938,"inst_green_cmplt_tot":164,"inst_perc_green_tot":0.0558203},"geometry":{"type":"Point","coordinates":[-81.0496826,29.2032757]}},{"type":"Feature","properties":{"year":2020,"instnm":"De Anza College","CZ_label":"San Jose","inst_cmplt_tot":1511,"inst_green_cmplt_tot":108,"inst_perc_green_tot":0.0714758},"geometry":{"type":"Point","coordinates":[-122.045784,37.3199158]}},{"type":"Feature","properties":{"year":2020,"instnm":"Del Mar College","CZ_label":"McAllen","inst_cmplt_tot":1187,"inst_green_cmplt_tot":393,"inst_perc_green_tot":0.3310868},"geometry":{"type":"Point","coordinates":[-97.4076233,27.7636185]}},{"type":"Feature","properties":{"year":2020,"instnm":"Delaware County Community College","CZ_label":"Philadelphia","inst_cmplt_tot":1151,"inst_green_cmplt_tot":120,"inst_perc_green_tot":0.1042572},"geometry":{"type":"Point","coordinates":[-75.3930817,39.9667244]}},{"type":"Feature","properties":{"year":2020,"instnm":"Delaware Technical Community College-Terry","CZ_label":"Dover","inst_cmplt_tot":1489,"inst_green_cmplt_tot":289,"inst_perc_green_tot":0.19409},"geometry":{"type":"Point","coordinates":[-75.5601196,39.1983719]}},{"type":"Feature","properties":{"year":2020,"instnm":"Delgado Community College","CZ_label":"New Orleans","inst_cmplt_tot":1781,"inst_green_cmplt_tot":408,"inst_perc_green_tot":0.2290848},"geometry":{"type":"Point","coordinates":[-90.1039658,29.9851494]}},{"type":"Feature","properties":{"year":2020,"instnm":"Delta College","CZ_label":"Saginaw","inst_cmplt_tot":1445,"inst_green_cmplt_tot":98,"inst_perc_green_tot":0.0678201},"geometry":{"type":"Point","coordinates":[-83.9859467,43.5594902]}},{"type":"Feature","properties":{"year":2020,"instnm":"Denmark Technical College","CZ_label":"Columbia","inst_cmplt_tot":19,"inst_green_cmplt_tot":2,"inst_perc_green_tot":0.1052632},"geometry":{"type":"Point","coordinates":[-81.1236267,33.3133545]}},{"type":"Feature","properties":{"year":2020,"instnm":"Des Moines Area Community College","CZ_label":"Des Moines","inst_cmplt_tot":2459,"inst_green_cmplt_tot":395,"inst_perc_green_tot":0.1606344},"geometry":{"type":"Point","coordinates":[-93.6115952,41.7073479]}},{"type":"Feature","properties":{"year":2020,"instnm":"Diablo Valley College","CZ_label":"San Francisco","inst_cmplt_tot":2140,"inst_green_cmplt_tot":381,"inst_perc_green_tot":0.1780374},"geometry":{"type":"Point","coordinates":[-122.073143,37.9685173]}},{"type":"Feature","properties":{"year":2020,"instnm":"Dine College","CZ_label":"Gallup","inst_cmplt_tot":98,"inst_green_cmplt_tot":18,"inst_perc_green_tot":0.1836735},"geometry":{"type":"Point","coordinates":[-109.2168427,36.2933273]}},{"type":"Feature","properties":{"year":2020,"instnm":"Dodge City Community College","CZ_label":"Dodge City","inst_cmplt_tot":183,"inst_green_cmplt_tot":29,"inst_perc_green_tot":0.1584699},"geometry":{"type":"Point","coordinates":[-100.0374832,37.7768898]}},{"type":"Feature","properties":{"year":2020,"instnm":"Durham Technical Community College","CZ_label":"Raleigh","inst_cmplt_tot":604,"inst_green_cmplt_tot":9,"inst_perc_green_tot":0.0149007},"geometry":{"type":"Point","coordinates":[-78.8816986,35.9747696]}},{"type":"Feature","properties":{"year":2020,"instnm":"Dutchess Community College","CZ_label":"Poughkeepsie","inst_cmplt_tot":1026,"inst_green_cmplt_tot":122,"inst_perc_green_tot":0.1189084},"geometry":{"type":"Point","coordinates":[-73.9046555,41.7242432]}},{"type":"Feature","properties":{"year":2020,"instnm":"Dyersburg State Community College","CZ_label":"Dyersburg","inst_cmplt_tot":313,"inst_green_cmplt_tot":3,"inst_perc_green_tot":0.0095847},"geometry":{"type":"Point","coordinates":[-89.3907928,36.0475655]}},{"type":"Feature","properties":{"year":2020,"instnm":"East Arkansas Community College","CZ_label":"Forrest City","inst_cmplt_tot":219,"inst_green_cmplt_tot":51,"inst_perc_green_tot":0.2328767},"geometry":{"type":"Point","coordinates":[-90.7677231,35.0416565]}},{"type":"Feature","properties":{"year":2020,"instnm":"East Central College","CZ_label":"St. Louis","inst_cmplt_tot":550,"inst_green_cmplt_tot":117,"inst_perc_green_tot":0.2127273},"geometry":{"type":"Point","coordinates":[-90.9780884,38.4318466]}},{"type":"Feature","properties":{"year":2020,"instnm":"East Central Community College","CZ_label":"Meridian","inst_cmplt_tot":510,"inst_green_cmplt_tot":68,"inst_perc_green_tot":0.1333333},"geometry":{"type":"Point","coordinates":[-89.1137085,32.4411621]}},{"type":"Feature","properties":{"year":2020,"instnm":"East Los Angeles College","CZ_label":"Los Angeles","inst_cmplt_tot":2360,"inst_green_cmplt_tot":54,"inst_perc_green_tot":0.0228814},"geometry":{"type":"Point","coordinates":[-118.1487885,34.0405312]}},{"type":"Feature","properties":{"year":2020,"instnm":"East Mississippi Community College","CZ_label":"Meridian","inst_cmplt_tot":1063,"inst_green_cmplt_tot":400,"inst_perc_green_tot":0.3762935},"geometry":{"type":"Point","coordinates":[-88.4835129,32.830246]}},{"type":"Feature","properties":{"year":2020,"instnm":"Eastern Arizona College","CZ_label":"Deming","inst_cmplt_tot":689,"inst_green_cmplt_tot":68,"inst_perc_green_tot":0.0986938},"geometry":{"type":"Point","coordinates":[-109.7623367,32.8436623]}},{"type":"Feature","properties":{"year":2020,"instnm":"Eastern Florida State College","CZ_label":"Palm Bay & Port St. Lucie","inst_cmplt_tot":3321,"inst_green_cmplt_tot":174,"inst_perc_green_tot":0.0523939},"geometry":{"type":"Point","coordinates":[-80.7564774,28.3836098]}},{"type":"Feature","properties":{"year":2020,"instnm":"Eastern Gateway Community College","CZ_label":"Wheeling","inst_cmplt_tot":1236,"inst_green_cmplt_tot":4,"inst_perc_green_tot":0.0032362},"geometry":{"type":"Point","coordinates":[-80.6723404,40.3760567]}},{"type":"Feature","properties":{"year":2020,"instnm":"Eastern Iowa Community College District","CZ_label":"Davenport","inst_cmplt_tot":897,"inst_green_cmplt_tot":84,"inst_perc_green_tot":0.0936455},"geometry":{"type":"Point","coordinates":[-90.5744553,41.5221786]}},{"type":"Feature","properties":{"year":2020,"instnm":"Eastern Maine Community College","CZ_label":"Bangor","inst_cmplt_tot":357,"inst_green_cmplt_tot":141,"inst_perc_green_tot":0.394958},"geometry":{"type":"Point","coordinates":[-68.7444534,44.8260498]}},{"type":"Feature","properties":{"year":2020,"instnm":"Eastern New Mexico University Ruidoso Branch Community College","CZ_label":"Alamogordo","inst_cmplt_tot":18,"inst_green_cmplt_tot":0,"inst_perc_green_tot":0},"geometry":{"type":"Point","coordinates":[-105.6772766,33.3463745]}},{"type":"Feature","properties":{"year":2020,"instnm":"Eastern New Mexico University-Roswell Campus","CZ_label":"Roswell","inst_cmplt_tot":264,"inst_green_cmplt_tot":64,"inst_perc_green_tot":0.2424242},"geometry":{"type":"Point","coordinates":[-104.5257187,33.3131676]}},{"type":"Feature","properties":{"year":2020,"instnm":"Eastern Oklahoma State College","CZ_label":"McAlester","inst_cmplt_tot":249,"inst_green_cmplt_tot":74,"inst_perc_green_tot":0.2971888},"geometry":{"type":"Point","coordinates":[-95.3289948,34.9140778]}},{"type":"Feature","properties":{"year":2020,"instnm":"Eastern Shore Community College","CZ_label":"Chincoteague","inst_cmplt_tot":65,"inst_green_cmplt_tot":8,"inst_perc_green_tot":0.1230769},"geometry":{"type":"Point","coordinates":[-75.7507935,37.6404533]}},{"type":"Feature","properties":{"year":2020,"instnm":"Eastern West Virginia Community and Technical College","CZ_label":"Cumberland","inst_cmplt_tot":103,"inst_green_cmplt_tot":16,"inst_perc_green_tot":0.1553398},"geometry":{"type":"Point","coordinates":[-78.9325485,39.0755615]}},{"type":"Feature","properties":{"year":2020,"instnm":"Eastern Wyoming College","CZ_label":"Torrington","inst_cmplt_tot":183,"inst_green_cmplt_tot":34,"inst_perc_green_tot":0.1857923},"geometry":{"type":"Point","coordinates":[-104.1908264,42.0793533]}},{"type":"Feature","properties":{"year":2020,"instnm":"Edgecombe Community College","CZ_label":"Rocky Mount & Wilson","inst_cmplt_tot":250,"inst_green_cmplt_tot":4,"inst_perc_green_tot":0.016},"geometry":{"type":"Point","coordinates":[-77.571785,35.8798676]}},{"type":"Feature","properties":{"year":2020,"instnm":"Edison State Community College","CZ_label":"Dayton","inst_cmplt_tot":334,"inst_green_cmplt_tot":48,"inst_perc_green_tot":0.1437126},"geometry":{"type":"Point","coordinates":[-84.2123871,40.1576996]}},{"type":"Feature","properties":{"year":2020,"instnm":"Edmonds College","CZ_label":"Seattle","inst_cmplt_tot":1052,"inst_green_cmplt_tot":288,"inst_perc_green_tot":0.2737643},"geometry":{"type":"Point","coordinates":[-122.3275986,47.8163757]}},{"type":"Feature","properties":{"year":2020,"instnm":"El Camino Community College District","CZ_label":"Los Angeles","inst_cmplt_tot":3626,"inst_green_cmplt_tot":586,"inst_perc_green_tot":0.1616106},"geometry":{"type":"Point","coordinates":[-118.3299103,33.8852272]}},{"type":"Feature","properties":{"year":2020,"instnm":"El Paso Community College","CZ_label":"El Paso","inst_cmplt_tot":3783,"inst_green_cmplt_tot":885,"inst_perc_green_tot":0.2339413},"geometry":{"type":"Point","coordinates":[-106.3736191,31.7733593]}},{"type":"Feature","properties":{"year":2020,"instnm":"Elgin Community College","CZ_label":"Chicago","inst_cmplt_tot":1356,"inst_green_cmplt_tot":137,"inst_perc_green_tot":0.1010324},"geometry":{"type":"Point","coordinates":[-88.3219376,42.0180664]}},{"type":"Feature","properties":{"year":2020,"instnm":"Elizabethtown Community and Technical College","CZ_label":"Elizabethtown","inst_cmplt_tot":721,"inst_green_cmplt_tot":145,"inst_perc_green_tot":0.2011096},"geometry":{"type":"Point","coordinates":[-85.8799286,37.6928596]}},{"type":"Feature","properties":{"year":2020,"instnm":"Ellsworth Community College","CZ_label":"Iowa Falls & Hampton","inst_cmplt_tot":169,"inst_green_cmplt_tot":34,"inst_perc_green_tot":0.2011834},"geometry":{"type":"Point","coordinates":[-93.2658539,42.527523]}},{"type":"Feature","properties":{"year":2020,"instnm":"Enterprise State Community College","CZ_label":"Dothan","inst_cmplt_tot":159,"inst_green_cmplt_tot":26,"inst_perc_green_tot":0.163522},"geometry":{"type":"Point","coordinates":[-85.8369522,31.2974968]}},{"type":"Feature","properties":{"year":2020,"instnm":"Erie Community College","CZ_label":"Buffalo","inst_cmplt_tot":1863,"inst_green_cmplt_tot":324,"inst_perc_green_tot":0.173913},"geometry":{"type":"Point","coordinates":[-78.8726807,42.8817711]}},{"type":"Feature","properties":{"year":2020,"instnm":"Essex County College","CZ_label":"Newark & Jersey City","inst_cmplt_tot":890,"inst_green_cmplt_tot":185,"inst_perc_green_tot":0.2078652},"geometry":{"type":"Point","coordinates":[-74.1782303,40.7384453]}},{"type":"Feature","properties":{"year":2020,"instnm":"Estrella Mountain Community College","CZ_label":"Phoenix","inst_cmplt_tot":2072,"inst_green_cmplt_tot":414,"inst_perc_green_tot":0.1998069},"geometry":{"type":"Point","coordinates":[-112.3431549,33.4807205]}},{"type":"Feature","properties":{"year":2020,"instnm":"Everett Community College","CZ_label":"Seattle","inst_cmplt_tot":1373,"inst_green_cmplt_tot":128,"inst_perc_green_tot":0.0932265},"geometry":{"type":"Point","coordinates":[-122.2047348,48.0066261]}},{"type":"Feature","properties":{"year":2020,"instnm":"Evergreen Valley College","CZ_label":"San Jose","inst_cmplt_tot":911,"inst_green_cmplt_tot":114,"inst_perc_green_tot":0.1251372},"geometry":{"type":"Point","coordinates":[-121.7656097,37.3016701]}},{"type":"Feature","properties":{"year":2020,"instnm":"Fashion Institute of Technology","CZ_label":"New York","inst_cmplt_tot":1491,"inst_green_cmplt_tot":0,"inst_perc_green_tot":0},"geometry":{"type":"Point","coordinates":[-73.9947815,40.7473106]}},{"type":"Feature","properties":{"year":2020,"instnm":"Fayetteville Technical Community College","CZ_label":"Fayetteville","inst_cmplt_tot":1474,"inst_green_cmplt_tot":78,"inst_perc_green_tot":0.0529172},"geometry":{"type":"Point","coordinates":[-78.9265823,35.0688515]}},{"type":"Feature","properties":{"year":2020,"instnm":"Feather River Community College District","CZ_label":"Susanville","inst_cmplt_tot":248,"inst_green_cmplt_tot":47,"inst_perc_green_tot":0.1895161},"geometry":{"type":"Point","coordinates":[-120.9730682,39.9531021]}},{"type":"Feature","properties":{"year":2020,"instnm":"Finger Lakes Community College","CZ_label":"Rochester","inst_cmplt_tot":636,"inst_green_cmplt_tot":147,"inst_perc_green_tot":0.2311321},"geometry":{"type":"Point","coordinates":[-77.2417984,42.8675575]}},{"type":"Feature","properties":{"year":2020,"instnm":"Flathead Valley Community College","CZ_label":"Kalispell","inst_cmplt_tot":294,"inst_green_cmplt_tot":32,"inst_perc_green_tot":0.1088435},"geometry":{"type":"Point","coordinates":[-114.3272552,48.2273903]}},{"type":"Feature","properties":{"year":2020,"instnm":"Fletcher Technical Community College","CZ_label":"Houma","inst_cmplt_tot":368,"inst_green_cmplt_tot":219,"inst_perc_green_tot":0.5951087},"geometry":{"type":"Point","coordinates":[-90.8117065,29.6908836]}},{"type":"Feature","properties":{"year":2020,"instnm":"Flint Hills Technical College","CZ_label":"Emporia","inst_cmplt_tot":268,"inst_green_cmplt_tot":137,"inst_perc_green_tot":0.511194},"geometry":{"type":"Point","coordinates":[-96.224144,38.4188805]}},{"type":"Feature","properties":{"year":2020,"instnm":"Florence-Darlington Technical College","CZ_label":"Myrtle Beach","inst_cmplt_tot":462,"inst_green_cmplt_tot":90,"inst_perc_green_tot":0.1948052},"geometry":{"type":"Point","coordinates":[-79.8146896,34.2438812]}},{"type":"Feature","properties":{"year":2020,"instnm":"Florida Gateway College","CZ_label":"Gainesville","inst_cmplt_tot":661,"inst_green_cmplt_tot":66,"inst_perc_green_tot":0.0998487},"geometry":{"type":"Point","coordinates":[-82.5679016,30.1752987]}},{"type":"Feature","properties":{"year":2020,"instnm":"Florida SouthWestern State College","CZ_label":"Cape Coral","inst_cmplt_tot":2794,"inst_green_cmplt_tot":24,"inst_perc_green_tot":0.0085898},"geometry":{"type":"Point","coordinates":[-81.8871002,26.5524025]}},{"type":"Feature","properties":{"year":2020,"instnm":"Florida State College at Jacksonville","CZ_label":"Jacksonville","inst_cmplt_tot":2725,"inst_green_cmplt_tot":92,"inst_perc_green_tot":0.0337615},"geometry":{"type":"Point","coordinates":[-81.6599045,30.3349171]}},{"type":"Feature","properties":{"year":2020,"instnm":"Folsom Lake College","CZ_label":"Sacramento","inst_cmplt_tot":1775,"inst_green_cmplt_tot":93,"inst_perc_green_tot":0.0523944},"geometry":{"type":"Point","coordinates":[-121.1274872,38.6613731]}},{"type":"Feature","properties":{"year":2020,"instnm":"Fond du Lac Tribal and Community College","CZ_label":"Duluth","inst_cmplt_tot":139,"inst_green_cmplt_tot":6,"inst_perc_green_tot":0.0431655},"geometry":{"type":"Point","coordinates":[-92.4513245,46.6900673]}},{"type":"Feature","properties":{"year":2020,"instnm":"Foothill College","CZ_label":"San Jose","inst_cmplt_tot":1808,"inst_green_cmplt_tot":241,"inst_perc_green_tot":0.1332965},"geometry":{"type":"Point","coordinates":[-122.1279602,37.3616562]}},{"type":"Feature","properties":{"year":2020,"instnm":"Forsyth Technical Community College","CZ_label":"Winston-Salem","inst_cmplt_tot":1131,"inst_green_cmplt_tot":120,"inst_perc_green_tot":0.1061008},"geometry":{"type":"Point","coordinates":[-80.2722168,36.0685387]}},{"type":"Feature","properties":{"year":2020,"instnm":"Fort Scott Community College","CZ_label":"Joplin","inst_cmplt_tot":257,"inst_green_cmplt_tot":72,"inst_perc_green_tot":0.2801556},"geometry":{"type":"Point","coordinates":[-94.715332,37.8162079]}},{"type":"Feature","properties":{"year":2020,"instnm":"Fox Valley Technical College","CZ_label":"Appleton","inst_cmplt_tot":1655,"inst_green_cmplt_tot":710,"inst_perc_green_tot":0.429003},"geometry":{"type":"Point","coordinates":[-88.458931,44.2831726]}},{"type":"Feature","properties":{"year":2020,"instnm":"Frank Phillips College","CZ_label":"Amarillo","inst_cmplt_tot":146,"inst_green_cmplt_tot":14,"inst_perc_green_tot":0.0958904},"geometry":{"type":"Point","coordinates":[-101.4060059,35.6577797]}},{"type":"Feature","properties":{"year":2020,"instnm":"Frederick Community College","CZ_label":"Hagerstown & Frederick","inst_cmplt_tot":685,"inst_green_cmplt_tot":96,"inst_perc_green_tot":0.140146},"geometry":{"type":"Point","coordinates":[-77.4178467,39.45224]}},{"type":"Feature","properties":{"year":2020,"instnm":"Fresno City College","CZ_label":"Fresno","inst_cmplt_tot":2156,"inst_green_cmplt_tot":555,"inst_perc_green_tot":0.2574212},"geometry":{"type":"Point","coordinates":[-119.7960968,36.7681656]}},{"type":"Feature","properties":{"year":2020,"instnm":"Front Range Community College","CZ_label":"Denver","inst_cmplt_tot":1635,"inst_green_cmplt_tot":44,"inst_perc_green_tot":0.0269113},"geometry":{"type":"Point","coordinates":[-105.0380707,39.9014511]}},{"type":"Feature","properties":{"year":2020,"instnm":"Frontier Community College","CZ_label":"Olney","inst_cmplt_tot":97,"inst_green_cmplt_tot":4,"inst_perc_green_tot":0.0412371},"geometry":{"type":"Point","coordinates":[-88.3921967,38.3802719]}},{"type":"Feature","properties":{"year":2020,"instnm":"Fullerton College","CZ_label":"Los Angeles","inst_cmplt_tot":3427,"inst_green_cmplt_tot":397,"inst_perc_green_tot":0.1158448},"geometry":{"type":"Point","coordinates":[-117.9182587,33.875515]}},{"type":"Feature","properties":{"year":2020,"instnm":"Fulton-Montgomery Community College","CZ_label":"Albany","inst_cmplt_tot":388,"inst_green_cmplt_tot":39,"inst_perc_green_tot":0.1005155},"geometry":{"type":"Point","coordinates":[-74.297493,42.9838066]}},{"type":"Feature","properties":{"year":2020,"instnm":"Gadsden State Community College","CZ_label":"Gadsden","inst_cmplt_tot":809,"inst_green_cmplt_tot":176,"inst_perc_green_tot":0.2175525},"geometry":{"type":"Point","coordinates":[-85.9914398,33.9939995]}},{"type":"Feature","properties":{"year":2020,"instnm":"Galveston College","CZ_label":"Houston","inst_cmplt_tot":337,"inst_green_cmplt_tot":62,"inst_perc_green_tot":0.1839763},"geometry":{"type":"Point","coordinates":[-94.8076859,29.2847347]}},{"type":"Feature","properties":{"year":2020,"instnm":"Garden City Community College","CZ_label":"Garden City","inst_cmplt_tot":396,"inst_green_cmplt_tot":59,"inst_perc_green_tot":0.1489899},"geometry":{"type":"Point","coordinates":[-100.8480835,37.97015]}},{"type":"Feature","properties":{"year":2020,"instnm":"Garrett College","CZ_label":"Cumberland","inst_cmplt_tot":96,"inst_green_cmplt_tot":6,"inst_perc_green_tot":0.0625},"geometry":{"type":"Point","coordinates":[-79.342926,39.5604935]}},{"type":"Feature","properties":{"year":2020,"instnm":"Gaston College","CZ_label":"Charlotte","inst_cmplt_tot":716,"inst_green_cmplt_tot":26,"inst_perc_green_tot":0.0363128},"geometry":{"type":"Point","coordinates":[-81.1885223,35.3120499]}},{"type":"Feature","properties":{"year":2020,"instnm":"GateWay Community College","CZ_label":"Phoenix","inst_cmplt_tot":602,"inst_green_cmplt_tot":76,"inst_perc_green_tot":0.1262458},"geometry":{"type":"Point","coordinates":[-111.9970779,33.4496841]}},{"type":"Feature","properties":{"year":2020,"instnm":"GateWay Community College-Central City","CZ_label":"Phoenix","inst_cmplt_tot":71,"inst_green_cmplt_tot":13,"inst_perc_green_tot":0.1830986},"geometry":{"type":"Point","coordinates":[-112.0549088,33.4356842]}},{"type":"Feature","properties":{"year":2020,"instnm":"Gateway Community College","CZ_label":null,"inst_cmplt_tot":539,"inst_green_cmplt_tot":65,"inst_perc_green_tot":0.1205937},"geometry":{"type":"Point","coordinates":[-72.927681,41.3037834]}},{"type":"Feature","properties":{"year":2020,"instnm":"Gateway Community and Technical College","CZ_label":"Cincinnati","inst_cmplt_tot":445,"inst_green_cmplt_tot":41,"inst_perc_green_tot":0.0921348},"geometry":{"type":"Point","coordinates":[-84.6334763,38.9606361]}},{"type":"Feature","properties":{"year":2020,"instnm":"Gateway Technical College","CZ_label":"Chicago","inst_cmplt_tot":920,"inst_green_cmplt_tot":167,"inst_perc_green_tot":0.1815217},"geometry":{"type":"Point","coordinates":[-87.8466949,42.6056786]}},{"type":"Feature","properties":{"year":2020,"instnm":"Gavilan College","CZ_label":"San Jose","inst_cmplt_tot":422,"inst_green_cmplt_tot":60,"inst_perc_green_tot":0.1421801},"geometry":{"type":"Point","coordinates":[-121.5698395,36.9726257]}},{"type":"Feature","properties":{"year":2020,"instnm":"Genesee Community College","CZ_label":"Buffalo","inst_cmplt_tot":552,"inst_green_cmplt_tot":12,"inst_perc_green_tot":0.0217391},"geometry":{"type":"Point","coordinates":[-78.1375885,43.0165825]}},{"type":"Feature","properties":{"year":2020,"instnm":"George C Wallace Community College-Dothan","CZ_label":"Dothan","inst_cmplt_tot":471,"inst_green_cmplt_tot":66,"inst_perc_green_tot":0.1401274},"geometry":{"type":"Point","coordinates":[-85.4658356,31.3152733]}},{"type":"Feature","properties":{"year":2020,"instnm":"George C Wallace State Community College-Hanceville","CZ_label":"Birmingham","inst_cmplt_tot":1248,"inst_green_cmplt_tot":235,"inst_perc_green_tot":0.1883013},"geometry":{"type":"Point","coordinates":[-86.7819366,34.0724373]}},{"type":"Feature","properties":{"year":2020,"instnm":"George C Wallace State Community College-Selma","CZ_label":"Tuscaloosa","inst_cmplt_tot":428,"inst_green_cmplt_tot":135,"inst_perc_green_tot":0.3154206},"geometry":{"type":"Point","coordinates":[-87.0132904,32.4459152]}},{"type":"Feature","properties":{"year":2020,"instnm":"Georgia Northwestern Technical College","CZ_label":"Dalton","inst_cmplt_tot":507,"inst_green_cmplt_tot":163,"inst_perc_green_tot":0.321499},"geometry":{"type":"Point","coordinates":[-85.1713638,34.2246742]}},{"type":"Feature","properties":{"year":2020,"instnm":"Georgia Piedmont Technical College","CZ_label":"Atlanta","inst_cmplt_tot":320,"inst_green_cmplt_tot":108,"inst_perc_green_tot":0.3375},"geometry":{"type":"Point","coordinates":[-84.2345047,33.7898979]}},{"type":"Feature","properties":{"year":2020,"instnm":"Germanna Community College","CZ_label":"Culpeper","inst_cmplt_tot":1590,"inst_green_cmplt_tot":96,"inst_perc_green_tot":0.0603774},"geometry":{"type":"Point","coordinates":[-77.7801208,38.3755302]}},{"type":"Feature","properties":{"year":2020,"instnm":"Glen Oaks Community College","CZ_label":"South Bend","inst_cmplt_tot":174,"inst_green_cmplt_tot":15,"inst_perc_green_tot":0.0862069},"geometry":{"type":"Point","coordinates":[-85.4969254,41.8925056]}},{"type":"Feature","properties":{"year":2020,"instnm":"Glendale Community College","CZ_label":"Phoenix","inst_cmplt_tot":3969,"inst_green_cmplt_tot":704,"inst_perc_green_tot":0.1773747},"geometry":{"type":"Point","coordinates":[-112.1907349,33.5702248]}},{"type":"Feature","properties":{"year":2020,"instnm":"Glendale Community College","CZ_label":"Los Angeles","inst_cmplt_tot":765,"inst_green_cmplt_tot":119,"inst_perc_green_tot":0.1555556},"geometry":{"type":"Point","coordinates":[-118.2276688,34.16745]}},{"type":"Feature","properties":{"year":2020,"instnm":"Gogebic Community College","CZ_label":"Ironwood","inst_cmplt_tot":210,"inst_green_cmplt_tot":58,"inst_perc_green_tot":0.2761905},"geometry":{"type":"Point","coordinates":[-90.1655884,46.4718933]}},{"type":"Feature","properties":{"year":2020,"instnm":"Golden West College","CZ_label":"Los Angeles","inst_cmplt_tot":3822,"inst_green_cmplt_tot":351,"inst_perc_green_tot":0.0918367},"geometry":{"type":"Point","coordinates":[-118.0025711,33.7325325]}},{"type":"Feature","properties":{"year":2020,"instnm":"Grand Rapids Community College","CZ_label":"Grand Rapids","inst_cmplt_tot":1664,"inst_green_cmplt_tot":191,"inst_perc_green_tot":0.1147837},"geometry":{"type":"Point","coordinates":[-85.6656265,42.9670753]}},{"type":"Feature","properties":{"year":2020,"instnm":"Grays Harbor College","CZ_label":"Aberdeen","inst_cmplt_tot":388,"inst_green_cmplt_tot":81,"inst_perc_green_tot":0.2087629},"geometry":{"type":"Point","coordinates":[-123.8030701,46.9538803]}},{"type":"Feature","properties":{"year":2020,"instnm":"Grayson College","CZ_label":"Dallas","inst_cmplt_tot":648,"inst_green_cmplt_tot":78,"inst_perc_green_tot":0.1203704},"geometry":{"type":"Point","coordinates":[-96.6338882,33.7057419]}},{"type":"Feature","properties":{"year":2020,"instnm":"Great Basin College","CZ_label":"Elko","inst_cmplt_tot":610,"inst_green_cmplt_tot":422,"inst_perc_green_tot":0.6918033},"geometry":{"type":"Point","coordinates":[-115.7672729,40.8434296]}},{"type":"Feature","properties":{"year":2020,"instnm":"Great Bay Community College","CZ_label":"Nashua","inst_cmplt_tot":232,"inst_green_cmplt_tot":39,"inst_perc_green_tot":0.1681034},"geometry":{"type":"Point","coordinates":[-70.7989655,43.072094]}},{"type":"Feature","properties":{"year":2020,"instnm":"Great Falls College Montana State University","CZ_label":"Great Falls","inst_cmplt_tot":148,"inst_green_cmplt_tot":9,"inst_perc_green_tot":0.0608108},"geometry":{"type":"Point","coordinates":[-111.2695618,47.4855804]}},{"type":"Feature","properties":{"year":2020,"instnm":"Green River College","CZ_label":"Seattle","inst_cmplt_tot":1930,"inst_green_cmplt_tot":550,"inst_perc_green_tot":0.2849741},"geometry":{"type":"Point","coordinates":[-122.1758194,47.3136482]}},{"type":"Feature","properties":{"year":2020,"instnm":"Greenfield Community College","CZ_label":"Springfield","inst_cmplt_tot":242,"inst_green_cmplt_tot":36,"inst_perc_green_tot":0.1487603},"geometry":{"type":"Point","coordinates":[-72.6309738,42.5995102]}},{"type":"Feature","properties":{"year":2020,"instnm":"Greenville Technical College","CZ_label":"Greenville","inst_cmplt_tot":992,"inst_green_cmplt_tot":274,"inst_perc_green_tot":0.2762097},"geometry":{"type":"Point","coordinates":[-82.3711777,34.8262138]}},{"type":"Feature","properties":{"year":2020,"instnm":"Grossmont College","CZ_label":"San Diego","inst_cmplt_tot":3021,"inst_green_cmplt_tot":272,"inst_perc_green_tot":0.0900364},"geometry":{"type":"Point","coordinates":[-117.006279,32.8152466]}},{"type":"Feature","properties":{"year":2020,"instnm":"Guam Community College","CZ_label":null,"inst_cmplt_tot":243,"inst_green_cmplt_tot":39,"inst_perc_green_tot":0.1604938},"geometry":{"type":"Point","coordinates":[144.8089447,13.440649]}},{"type":"Feature","properties":{"year":2020,"instnm":"Guilford Technical Community College","CZ_label":"Winston-Salem","inst_cmplt_tot":1055,"inst_green_cmplt_tot":86,"inst_perc_green_tot":0.0815166},"geometry":{"type":"Point","coordinates":[-79.9206238,35.9984589]}},{"type":"Feature","properties":{"year":2020,"instnm":"Gulf Coast State College","CZ_label":"Panama City","inst_cmplt_tot":742,"inst_green_cmplt_tot":0,"inst_perc_green_tot":0},"geometry":{"type":"Point","coordinates":[-85.7279205,30.1855412]}},{"type":"Feature","properties":{"year":2020,"instnm":"Gwinnett Technical College","CZ_label":"Gainesville","inst_cmplt_tot":719,"inst_green_cmplt_tot":188,"inst_perc_green_tot":0.2614743},"geometry":{"type":"Point","coordinates":[-84.0662231,33.9627647]}},{"type":"Feature","properties":{"year":2020,"instnm":"H Councill Trenholm State Community College","CZ_label":"Montgomery","inst_cmplt_tot":196,"inst_green_cmplt_tot":29,"inst_perc_green_tot":0.1479592},"geometry":{"type":"Point","coordinates":[-86.3430557,32.3501091]}},{"type":"Feature","properties":{"year":2020,"instnm":"Hagerstown Community College","CZ_label":"Hagerstown & Frederick","inst_cmplt_tot":610,"inst_green_cmplt_tot":71,"inst_perc_green_tot":0.1163934},"geometry":{"type":"Point","coordinates":[-77.6673813,39.6310081]}},{"type":"Feature","properties":{"year":2020,"instnm":"Halifax Community College","CZ_label":"Roanoke Rapids","inst_cmplt_tot":146,"inst_green_cmplt_tot":6,"inst_perc_green_tot":0.0410959},"geometry":{"type":"Point","coordinates":[-77.6176834,36.4277115]}},{"type":"Feature","properties":{"year":2020,"instnm":"Harford Community College","CZ_label":"Baltimore","inst_cmplt_tot":798,"inst_green_cmplt_tot":59,"inst_perc_green_tot":0.0739348},"geometry":{"type":"Point","coordinates":[-76.2828445,39.5613098]}},{"type":"Feature","properties":{"year":2020,"instnm":"Harrisburg Area Community College","CZ_label":"Harrisburg & Lancaster","inst_cmplt_tot":2157,"inst_green_cmplt_tot":296,"inst_perc_green_tot":0.1372276},"geometry":{"type":"Point","coordinates":[-76.8864059,40.2967758]}},{"type":"Feature","properties":{"year":2020,"instnm":"Hartnell College","CZ_label":"San Jose","inst_cmplt_tot":1646,"inst_green_cmplt_tot":364,"inst_perc_green_tot":0.2211422},"geometry":{"type":"Point","coordinates":[-121.6660538,36.6750908]}},{"type":"Feature","properties":{"year":2020,"instnm":"Hawaii Community College","CZ_label":"Hilo","inst_cmplt_tot":432,"inst_green_cmplt_tot":101,"inst_perc_green_tot":0.2337963},"geometry":{"type":"Point","coordinates":[-155.0696564,19.7047558]}},{"type":"Feature","properties":{"year":2020,"instnm":"Hawkeye Community College","CZ_label":"Waterloo","inst_cmplt_tot":728,"inst_green_cmplt_tot":171,"inst_perc_green_tot":0.2348901},"geometry":{"type":"Point","coordinates":[-92.3306351,42.4300041]}},{"type":"Feature","properties":{"year":2020,"instnm":"Haywood Community College","CZ_label":"Waynesville","inst_cmplt_tot":214,"inst_green_cmplt_tot":42,"inst_perc_green_tot":0.1962617},"geometry":{"type":"Point","coordinates":[-82.9279175,35.5259056]}},{"type":"Feature","properties":{"year":2020,"instnm":"Hazard Community and Technical College","CZ_label":"Hazard","inst_cmplt_tot":484,"inst_green_cmplt_tot":80,"inst_perc_green_tot":0.1652893},"geometry":{"type":"Point","coordinates":[-83.1756439,37.2348976]}},{"type":"Feature","properties":{"year":2020,"instnm":"Heartland Community College","CZ_label":"Champaign & Bloomington","inst_cmplt_tot":245,"inst_green_cmplt_tot":13,"inst_perc_green_tot":0.0530612},"geometry":{"type":"Point","coordinates":[-89.0147781,40.5330086]}},{"type":"Feature","properties":{"year":2020,"instnm":"Helena College University of Montana","CZ_label":"Bozeman","inst_cmplt_tot":203,"inst_green_cmplt_tot":45,"inst_perc_green_tot":0.2216749},"geometry":{"type":"Point","coordinates":[-112.016037,46.5953827]}},{"type":"Feature","properties":{"year":2020,"instnm":"Henderson Community College","CZ_label":"Henderson","inst_cmplt_tot":179,"inst_green_cmplt_tot":6,"inst_perc_green_tot":0.0335196},"geometry":{"type":"Point","coordinates":[-87.6500931,37.7976875]}},{"type":"Feature","properties":{"year":2020,"instnm":"Hennepin Technical College","CZ_label":"Minneapolis","inst_cmplt_tot":616,"inst_green_cmplt_tot":417,"inst_perc_green_tot":0.6769481},"geometry":{"type":"Point","coordinates":[-93.3977585,45.0965347]}},{"type":"Feature","properties":{"year":2020,"instnm":"Henry Ford College","CZ_label":"Detroit","inst_cmplt_tot":1412,"inst_green_cmplt_tot":192,"inst_perc_green_tot":0.1359773},"geometry":{"type":"Point","coordinates":[-83.2360535,42.3246384]}},{"type":"Feature","properties":{"year":2020,"instnm":"Herkimer County Community College","CZ_label":"Syracuse","inst_cmplt_tot":421,"inst_green_cmplt_tot":47,"inst_perc_green_tot":0.111639},"geometry":{"type":"Point","coordinates":[-75.0072098,43.0327377]}},{"type":"Feature","properties":{"year":2020,"instnm":"Hibbing Community College","CZ_label":"Duluth","inst_cmplt_tot":305,"inst_green_cmplt_tot":87,"inst_perc_green_tot":0.2852459},"geometry":{"type":"Point","coordinates":[-92.9216995,47.4223595]}},{"type":"Feature","properties":{"year":2020,"instnm":"Highland Community College","CZ_label":"Rockford","inst_cmplt_tot":373,"inst_green_cmplt_tot":109,"inst_perc_green_tot":0.2922252},"geometry":{"type":"Point","coordinates":[-89.6734238,42.2833443]}},{"type":"Feature","properties":{"year":2020,"instnm":"Highland Community College","CZ_label":"St. Joseph","inst_cmplt_tot":293,"inst_green_cmplt_tot":70,"inst_perc_green_tot":0.2389078},"geometry":{"type":"Point","coordinates":[-95.2715378,39.8599854]}},{"type":"Feature","properties":{"year":2020,"instnm":"Highlands College of Montana Tech","CZ_label":"Missoula","inst_cmplt_tot":134,"inst_green_cmplt_tot":105,"inst_perc_green_tot":0.7835821},"geometry":{"type":"Point","coordinates":[-112.5093613,45.9381447]}},{"type":"Feature","properties":{"year":2020,"instnm":"Highline College","CZ_label":"Seattle","inst_cmplt_tot":1161,"inst_green_cmplt_tot":185,"inst_perc_green_tot":0.1593454},"geometry":{"type":"Point","coordinates":[-122.3030624,47.3882294]}},{"type":"Feature","properties":{"year":2020,"instnm":"Hill College","CZ_label":"Killeen","inst_cmplt_tot":502,"inst_green_cmplt_tot":41,"inst_perc_green_tot":0.0816733},"geometry":{"type":"Point","coordinates":[-97.0883331,32.0109291]}},{"type":"Feature","properties":{"year":2020,"instnm":"Hillsborough Community College","CZ_label":"Tampa","inst_cmplt_tot":4303,"inst_green_cmplt_tot":252,"inst_perc_green_tot":0.0585638},"geometry":{"type":"Point","coordinates":[-82.4562531,27.9348888]}},{"type":"Feature","properties":{"year":2020,"instnm":"Hinds Community College","CZ_label":"Jackson","inst_cmplt_tot":2720,"inst_green_cmplt_tot":613,"inst_perc_green_tot":0.2253676},"geometry":{"type":"Point","coordinates":[-90.4161148,32.2561073]}},{"type":"Feature","properties":{"year":2020,"instnm":"Hocking College","CZ_label":"Athens","inst_cmplt_tot":517,"inst_green_cmplt_tot":234,"inst_perc_green_tot":0.4526112},"geometry":{"type":"Point","coordinates":[-82.2207947,39.4419556]}},{"type":"Feature","properties":{"year":2020,"instnm":"Holmes Community College","CZ_label":"Jackson","inst_cmplt_tot":1257,"inst_green_cmplt_tot":273,"inst_perc_green_tot":0.2171838},"geometry":{"type":"Point","coordinates":[-89.915802,32.969986]}},{"type":"Feature","properties":{"year":2020,"instnm":"Holyoke Community College","CZ_label":"Springfield","inst_cmplt_tot":776,"inst_green_cmplt_tot":181,"inst_perc_green_tot":0.2332474},"geometry":{"type":"Point","coordinates":[-72.6512527,42.1947823]}},{"type":"Feature","properties":{"year":2020,"instnm":"Honolulu Community College","CZ_label":"Honolulu","inst_cmplt_tot":311,"inst_green_cmplt_tot":89,"inst_perc_green_tot":0.2861736},"geometry":{"type":"Point","coordinates":[-157.8699951,21.321785]}},{"type":"Feature","properties":{"year":2020,"instnm":"Hopkinsville Community College","CZ_label":"Clarksville","inst_cmplt_tot":368,"inst_green_cmplt_tot":18,"inst_perc_green_tot":0.048913},"geometry":{"type":"Point","coordinates":[-87.4882965,36.8826523]}},{"type":"Feature","properties":{"year":2020,"instnm":"Horry-Georgetown Technical College","CZ_label":"Myrtle Beach","inst_cmplt_tot":1081,"inst_green_cmplt_tot":91,"inst_perc_green_tot":0.0841813},"geometry":{"type":"Point","coordinates":[-79.0036087,33.7961388]}},{"type":"Feature","properties":{"year":2020,"instnm":"Housatonic Community College","CZ_label":null,"inst_cmplt_tot":291,"inst_green_cmplt_tot":33,"inst_perc_green_tot":0.1134021},"geometry":{"type":"Point","coordinates":[-73.1910019,41.1752281]}},{"type":"Feature","properties":{"year":2020,"instnm":"Houston Community College","CZ_label":"Houston","inst_cmplt_tot":5600,"inst_green_cmplt_tot":1664,"inst_perc_green_tot":0.2971429},"geometry":{"type":"Point","coordinates":[-95.3773193,29.7421131]}},{"type":"Feature","properties":{"year":2020,"instnm":"Howard College","CZ_label":"Odessa & Midland","inst_cmplt_tot":511,"inst_green_cmplt_tot":39,"inst_perc_green_tot":0.0763209},"geometry":{"type":"Point","coordinates":[-101.4501038,32.2522926]}},{"type":"Feature","properties":{"year":2020,"instnm":"Howard Community College","CZ_label":"Baltimore","inst_cmplt_tot":795,"inst_green_cmplt_tot":82,"inst_perc_green_tot":0.1031447},"geometry":{"type":"Point","coordinates":[-76.8779602,39.2136345]}},{"type":"Feature","properties":{"year":2020,"instnm":"Hudson County Community College","CZ_label":"Newark & Jersey City","inst_cmplt_tot":1004,"inst_green_cmplt_tot":121,"inst_perc_green_tot":0.1205179},"geometry":{"type":"Point","coordinates":[-74.0629044,40.7303009]}},{"type":"Feature","properties":{"year":2020,"instnm":"Hudson Valley Community College","CZ_label":"Albany","inst_cmplt_tot":1557,"inst_green_cmplt_tot":406,"inst_perc_green_tot":0.2607579},"geometry":{"type":"Point","coordinates":[-73.6837311,42.6965103]}},{"type":"Feature","properties":{"year":2020,"instnm":"Hutchinson Community College","CZ_label":"Hutchinson","inst_cmplt_tot":1031,"inst_green_cmplt_tot":104,"inst_perc_green_tot":0.1008729},"geometry":{"type":"Point","coordinates":[-97.9213486,38.0680351]}},{"type":"Feature","properties":{"year":2020,"instnm":"Illinois Central College","CZ_label":"Peoria","inst_cmplt_tot":1329,"inst_green_cmplt_tot":205,"inst_perc_green_tot":0.1542513},"geometry":{"type":"Point","coordinates":[-89.5248489,40.7072334]}},{"type":"Feature","properties":{"year":2020,"instnm":"Illinois Valley Community College","CZ_label":"Peoria","inst_cmplt_tot":441,"inst_green_cmplt_tot":53,"inst_perc_green_tot":0.1201814},"geometry":{"type":"Point","coordinates":[-89.1008835,41.3074417]}},{"type":"Feature","properties":{"year":2020,"instnm":"Imperial Valley College","CZ_label":"Yuma","inst_cmplt_tot":1552,"inst_green_cmplt_tot":143,"inst_perc_green_tot":0.0921392},"geometry":{"type":"Point","coordinates":[-115.5035629,32.8272095]}},{"type":"Feature","properties":{"year":2020,"instnm":"Independence Community College","CZ_label":"Bartlesville","inst_cmplt_tot":112,"inst_green_cmplt_tot":0,"inst_perc_green_tot":0},"geometry":{"type":"Point","coordinates":[-95.72052,37.1956139]}},{"type":"Feature","properties":{"year":2020,"instnm":"Indian Hills Community College","CZ_label":"Ottumwa","inst_cmplt_tot":674,"inst_green_cmplt_tot":123,"inst_perc_green_tot":0.1824926},"geometry":{"type":"Point","coordinates":[-92.3947372,41.045105]}},{"type":"Feature","properties":{"year":2020,"instnm":"Indian River State College","CZ_label":"Palm Bay & Port St. Lucie","inst_cmplt_tot":3332,"inst_green_cmplt_tot":238,"inst_perc_green_tot":0.0714286},"geometry":{"type":"Point","coordinates":[-80.3586807,27.42416]}},{"type":"Feature","properties":{"year":2020,"instnm":"Inver Hills Community College","CZ_label":"Minneapolis","inst_cmplt_tot":590,"inst_green_cmplt_tot":18,"inst_perc_green_tot":0.0305085},"geometry":{"type":"Point","coordinates":[-93.0552521,44.828598]}},{"type":"Feature","properties":{"year":2020,"instnm":"Iowa Central Community College","CZ_label":"Fort Dodge","inst_cmplt_tot":916,"inst_green_cmplt_tot":188,"inst_perc_green_tot":0.2052402},"geometry":{"type":"Point","coordinates":[-94.2029877,42.4900665]}},{"type":"Feature","properties":{"year":2020,"instnm":"Iowa Lakes Community College","CZ_label":"Spencer","inst_cmplt_tot":408,"inst_green_cmplt_tot":166,"inst_perc_green_tot":0.4068627},"geometry":{"type":"Point","coordinates":[-94.8356628,43.4013748]}},{"type":"Feature","properties":{"year":2020,"instnm":"Iowa Western Community College","CZ_label":"Omaha","inst_cmplt_tot":1014,"inst_green_cmplt_tot":144,"inst_perc_green_tot":0.1420118},"geometry":{"type":"Point","coordinates":[-95.7979736,41.2721672]}},{"type":"Feature","properties":{"year":2020,"instnm":"Irvine Valley College","CZ_label":"Los Angeles","inst_cmplt_tot":3533,"inst_green_cmplt_tot":532,"inst_perc_green_tot":0.1505802},"geometry":{"type":"Point","coordinates":[-117.7775421,33.6753807]}},{"type":"Feature","properties":{"year":2020,"instnm":"Isothermal Community College","CZ_label":"Spartanburg","inst_cmplt_tot":356,"inst_green_cmplt_tot":34,"inst_perc_green_tot":0.0955056},"geometry":{"type":"Point","coordinates":[-81.9118576,35.3367271]}},{"type":"Feature","properties":{"year":2020,"instnm":"Itasca Community College","CZ_label":"Duluth","inst_cmplt_tot":219,"inst_green_cmplt_tot":14,"inst_perc_green_tot":0.0639269},"geometry":{"type":"Point","coordinates":[-93.4955521,47.2419205]}},{"type":"Feature","properties":{"year":2020,"instnm":"Itawamba Community College","CZ_label":"Tupelo","inst_cmplt_tot":1366,"inst_green_cmplt_tot":347,"inst_perc_green_tot":0.2540264},"geometry":{"type":"Point","coordinates":[-88.4120712,34.2765198]}},{"type":"Feature","properties":{"year":2020,"instnm":"Ivy Tech Community College","CZ_label":"Indianapolis","inst_cmplt_tot":9914,"inst_green_cmplt_tot":2956,"inst_perc_green_tot":0.2981642},"geometry":{"type":"Point","coordinates":[-86.1582108,39.8037529]}},{"type":"Feature","properties":{"year":2020,"instnm":"J F Ingram State Technical College","CZ_label":"Montgomery","inst_cmplt_tot":103,"inst_green_cmplt_tot":72,"inst_perc_green_tot":0.6990291},"geometry":{"type":"Point","coordinates":[-86.3923721,32.5823135]}},{"type":"Feature","properties":{"year":2020,"instnm":"J Sargeant Reynolds Community College","CZ_label":"Richmond","inst_cmplt_tot":1027,"inst_green_cmplt_tot":170,"inst_perc_green_tot":0.1655307},"geometry":{"type":"Point","coordinates":[-77.4739151,37.636837]}},{"type":"Feature","properties":{"year":2020,"instnm":"J. F. Drake State Community and Technical College","CZ_label":"Huntsville","inst_cmplt_tot":37,"inst_green_cmplt_tot":5,"inst_perc_green_tot":0.1351351},"geometry":{"type":"Point","coordinates":[-86.5728836,34.7718582]}},{"type":"Feature","properties":{"year":2020,"instnm":"Jackson College","CZ_label":"Jackson","inst_cmplt_tot":295,"inst_green_cmplt_tot":53,"inst_perc_green_tot":0.179661},"geometry":{"type":"Point","coordinates":[-84.4039383,42.1648293]}},{"type":"Feature","properties":{"year":2020,"instnm":"Jackson State Community College","CZ_label":"Jackson","inst_cmplt_tot":282,"inst_green_cmplt_tot":22,"inst_perc_green_tot":0.0780142},"geometry":{"type":"Point","coordinates":[-88.7800064,35.6455727]}},{"type":"Feature","properties":{"year":2020,"instnm":"James A Rhodes State College","CZ_label":"Lima","inst_cmplt_tot":303,"inst_green_cmplt_tot":39,"inst_perc_green_tot":0.1287129},"geometry":{"type":"Point","coordinates":[-84.0263214,40.7383461]}},{"type":"Feature","properties":{"year":2020,"instnm":"James Sprunt Community College","CZ_label":"Greenville","inst_cmplt_tot":254,"inst_green_cmplt_tot":30,"inst_perc_green_tot":0.1181102},"geometry":{"type":"Point","coordinates":[-77.9776382,34.9468002]}},{"type":"Feature","properties":{"year":2020,"instnm":"Jamestown Community College","CZ_label":"Erie","inst_cmplt_tot":439,"inst_green_cmplt_tot":53,"inst_perc_green_tot":0.1207289},"geometry":{"type":"Point","coordinates":[-79.2189636,42.1146011]}},{"type":"Feature","properties":{"year":2020,"instnm":"Jefferson College","CZ_label":"St. Louis","inst_cmplt_tot":749,"inst_green_cmplt_tot":79,"inst_perc_green_tot":0.105474},"geometry":{"type":"Point","coordinates":[-90.5589523,38.2598877]}},{"type":"Feature","properties":{"year":2020,"instnm":"Jefferson Community College","CZ_label":"Watertown","inst_cmplt_tot":401,"inst_green_cmplt_tot":32,"inst_perc_green_tot":0.0798005},"geometry":{"type":"Point","coordinates":[-75.935051,43.9928284]}},