{"type":"FeatureCollection","features":[{"type":"Feature","properties":{"year":2022,"instnm":"Aiken Technical College","CZ_label":"Hilton Head Island & Aiken","inst_cmplt_tot":246,"inst_green_cmplt_tot":13,"inst_perc_green_tot":0.0528455},"geometry":{"type":"Point","coordinates":[-81.8416672,33.5338326]}},{"type":"Feature","properties":{"year":2022,"instnm":"Aims Community College","CZ_label":"Fort Collins","inst_cmplt_tot":687,"inst_green_cmplt_tot":104,"inst_perc_green_tot":0.1513828},"geometry":{"type":"Point","coordinates":[-104.7634125,40.4095573]}},{"type":"Feature","properties":{"year":2022,"instnm":"Alamance Community College","CZ_label":"Burlington","inst_cmplt_tot":470,"inst_green_cmplt_tot":19,"inst_perc_green_tot":0.0404255},"geometry":{"type":"Point","coordinates":[-79.3576584,36.0666847]}},{"type":"Feature","properties":{"year":2022,"instnm":"Albany Technical College","CZ_label":"Albany","inst_cmplt_tot":248,"inst_green_cmplt_tot":65,"inst_perc_green_tot":0.2620968},"geometry":{"type":"Point","coordinates":[-84.1742859,31.5543404]}},{"type":"Feature","properties":{"year":2022,"instnm":"Alexandria Technical & Community College","CZ_label":"Alexandria & Fergus Falls","inst_cmplt_tot":416,"inst_green_cmplt_tot":174,"inst_perc_green_tot":0.4182692},"geometry":{"type":"Point","coordinates":[-95.3723679,45.8731079]}},{"type":"Feature","properties":{"year":2022,"instnm":"Allan Hancock College","CZ_label":"Santa Barbara","inst_cmplt_tot":2199,"inst_green_cmplt_tot":196,"inst_perc_green_tot":0.0891314},"geometry":{"type":"Point","coordinates":[-120.4211426,34.9437141]}},{"type":"Feature","properties":{"year":2022,"instnm":"Allegany College of Maryland","CZ_label":"Cumberland","inst_cmplt_tot":475,"inst_green_cmplt_tot":25,"inst_perc_green_tot":0.0526316},"geometry":{"type":"Point","coordinates":[-78.7304001,39.652153]}},{"type":"Feature","properties":{"year":2022,"instnm":"Allen County Community College","CZ_label":"Parsons & Chanute","inst_cmplt_tot":264,"inst_green_cmplt_tot":2,"inst_perc_green_tot":0.0075758},"geometry":{"type":"Point","coordinates":[-95.3963776,37.9380379]}},{"type":"Feature","properties":{"year":2022,"instnm":"Alpena Community College","CZ_label":"Alpena","inst_cmplt_tot":265,"inst_green_cmplt_tot":117,"inst_perc_green_tot":0.4415094},"geometry":{"type":"Point","coordinates":[-83.4450684,45.081646]}},{"type":"Feature","properties":{"year":2022,"instnm":"Alvin Community College","CZ_label":"Houston","inst_cmplt_tot":855,"inst_green_cmplt_tot":106,"inst_perc_green_tot":0.1239766},"geometry":{"type":"Point","coordinates":[-95.2406693,29.396244]}},{"type":"Feature","properties":{"year":2022,"instnm":"Amarillo College","CZ_label":"Amarillo","inst_cmplt_tot":1594,"inst_green_cmplt_tot":412,"inst_perc_green_tot":0.2584693},"geometry":{"type":"Point","coordinates":[-101.8469849,35.1878395]}},{"type":"Feature","properties":{"year":2022,"instnm":"American River College","CZ_label":"Sacramento","inst_cmplt_tot":2636,"inst_green_cmplt_tot":568,"inst_perc_green_tot":0.215478},"geometry":{"type":"Point","coordinates":[-121.3496704,38.6508484]}},{"type":"Feature","properties":{"year":2022,"instnm":"Angelina College","CZ_label":"Lufkin","inst_cmplt_tot":699,"inst_green_cmplt_tot":75,"inst_perc_green_tot":0.1072961},"geometry":{"type":"Point","coordinates":[-94.7316284,31.2874432]}},{"type":"Feature","properties":{"year":2022,"instnm":"Anne Arundel Community College","CZ_label":"Baltimore","inst_cmplt_tot":1205,"inst_green_cmplt_tot":99,"inst_perc_green_tot":0.0821577},"geometry":{"type":"Point","coordinates":[-76.5122223,39.0498123]}},{"type":"Feature","properties":{"year":2022,"instnm":"Anoka Technical College","CZ_label":"Minneapolis","inst_cmplt_tot":361,"inst_green_cmplt_tot":138,"inst_perc_green_tot":0.3822715},"geometry":{"type":"Point","coordinates":[-93.4160843,45.2167091]}},{"type":"Feature","properties":{"year":2022,"instnm":"Anoka-Ramsey Community College","CZ_label":"Minneapolis","inst_cmplt_tot":1137,"inst_green_cmplt_tot":40,"inst_perc_green_tot":0.0351803},"geometry":{"type":"Point","coordinates":[-93.3516998,45.1729774]}},{"type":"Feature","properties":{"year":2022,"instnm":"Antelope Valley Community College District","CZ_label":"Los Angeles","inst_cmplt_tot":2910,"inst_green_cmplt_tot":585,"inst_perc_green_tot":0.2010309},"geometry":{"type":"Point","coordinates":[-118.1861649,34.6762085]}},{"type":"Feature","properties":{"year":2022,"instnm":"Arapahoe Community College","CZ_label":"Denver","inst_cmplt_tot":838,"inst_green_cmplt_tot":43,"inst_perc_green_tot":0.0513126},"geometry":{"type":"Point","coordinates":[-105.018631,39.6075058]}},{"type":"Feature","properties":{"year":2022,"instnm":"Arizona Western College","CZ_label":"Yuma","inst_cmplt_tot":940,"inst_green_cmplt_tot":195,"inst_perc_green_tot":0.2074468},"geometry":{"type":"Point","coordinates":[-114.4959717,32.6893044]}},{"type":"Feature","properties":{"year":2022,"instnm":"Arkansas Northeastern College","CZ_label":"Blytheville","inst_cmplt_tot":228,"inst_green_cmplt_tot":70,"inst_perc_green_tot":0.3070175},"geometry":{"type":"Point","coordinates":[-89.9210052,35.8985977]}},{"type":"Feature","properties":{"year":2022,"instnm":"Arkansas State University Mid-South","CZ_label":"Memphis","inst_cmplt_tot":194,"inst_green_cmplt_tot":52,"inst_perc_green_tot":0.2680412},"geometry":{"type":"Point","coordinates":[-90.222847,35.1457367]}},{"type":"Feature","properties":{"year":2022,"instnm":"Arkansas State University Three Rivers","CZ_label":"Hot Springs","inst_cmplt_tot":175,"inst_green_cmplt_tot":4,"inst_perc_green_tot":0.0228571},"geometry":{"type":"Point","coordinates":[-92.8214188,34.378746]}},{"type":"Feature","properties":{"year":2022,"instnm":"Arkansas State University-Beebe","CZ_label":"Searcy","inst_cmplt_tot":722,"inst_green_cmplt_tot":93,"inst_perc_green_tot":0.1288089},"geometry":{"type":"Point","coordinates":[-91.8953476,35.0741768]}},{"type":"Feature","properties":{"year":2022,"instnm":"Arkansas State University-Mountain Home","CZ_label":"Mountain Home","inst_cmplt_tot":436,"inst_green_cmplt_tot":26,"inst_perc_green_tot":0.059633},"geometry":{"type":"Point","coordinates":[-92.3885803,36.3204651]}},{"type":"Feature","properties":{"year":2022,"instnm":"Arkansas State University-Newport","CZ_label":"Searcy","inst_cmplt_tot":529,"inst_green_cmplt_tot":56,"inst_perc_green_tot":0.1058601},"geometry":{"type":"Point","coordinates":[-91.1905975,35.6404915]}},{"type":"Feature","properties":{"year":2022,"instnm":"Asheville-Buncombe Technical Community College","CZ_label":"Asheville","inst_cmplt_tot":549,"inst_green_cmplt_tot":41,"inst_perc_green_tot":0.0746812},"geometry":{"type":"Point","coordinates":[-82.5548248,35.5704384]}},{"type":"Feature","properties":{"year":2022,"instnm":"Ashland Community and Technical College","CZ_label":"Huntington","inst_cmplt_tot":469,"inst_green_cmplt_tot":159,"inst_perc_green_tot":0.3390192},"geometry":{"type":"Point","coordinates":[-82.6506653,38.4692001]}},{"type":"Feature","properties":{"year":2022,"instnm":"Asnuntuck Community College","CZ_label":"Hartford & Bridgeport","inst_cmplt_tot":195,"inst_green_cmplt_tot":98,"inst_perc_green_tot":0.5025641},"geometry":{"type":"Point","coordinates":[-72.5701752,41.9984093]}},{"type":"Feature","properties":{"year":2022,"instnm":"Athens Technical College","CZ_label":"Athens","inst_cmplt_tot":353,"inst_green_cmplt_tot":170,"inst_perc_green_tot":0.4815864},"geometry":{"type":"Point","coordinates":[-83.3395996,33.9901848]}},{"type":"Feature","properties":{"year":2022,"instnm":"Atlanta Technical College","CZ_label":"Atlanta","inst_cmplt_tot":320,"inst_green_cmplt_tot":82,"inst_perc_green_tot":0.25625},"geometry":{"type":"Point","coordinates":[-84.4049988,33.7120094]}},{"type":"Feature","properties":{"year":2022,"instnm":"Atlantic Cape Community College","CZ_label":"Trenton","inst_cmplt_tot":663,"inst_green_cmplt_tot":14,"inst_perc_green_tot":0.0211161},"geometry":{"type":"Point","coordinates":[-74.6800156,39.4620819]}},{"type":"Feature","properties":{"year":2022,"instnm":"Augusta Technical College","CZ_label":"Augusta","inst_cmplt_tot":464,"inst_green_cmplt_tot":167,"inst_perc_green_tot":0.3599138},"geometry":{"type":"Point","coordinates":[-82.048439,33.4189911]}},{"type":"Feature","properties":{"year":2022,"instnm":"Austin Community College District","CZ_label":"Austin","inst_cmplt_tot":4155,"inst_green_cmplt_tot":709,"inst_perc_green_tot":0.1706378},"geometry":{"type":"Point","coordinates":[-97.7125015,30.3227444]}},{"type":"Feature","properties":{"year":2022,"instnm":"Bakersfield College","CZ_label":"Bakersfield","inst_cmplt_tot":5982,"inst_green_cmplt_tot":1456,"inst_perc_green_tot":0.2433969},"geometry":{"type":"Point","coordinates":[-118.9737549,35.409111]}},{"type":"Feature","properties":{"year":2022,"instnm":"Baltimore City Community College","CZ_label":"Baltimore","inst_cmplt_tot":321,"inst_green_cmplt_tot":19,"inst_perc_green_tot":0.05919},"geometry":{"type":"Point","coordinates":[-76.6628799,39.3199768]}},{"type":"Feature","properties":{"year":2022,"instnm":"Barstow Community College","CZ_label":"Los Angeles","inst_cmplt_tot":346,"inst_green_cmplt_tot":20,"inst_perc_green_tot":0.0578035},"geometry":{"type":"Point","coordinates":[-117.0234146,34.870285]}},{"type":"Feature","properties":{"year":2022,"instnm":"Barton County Community College","CZ_label":"Great Bend","inst_cmplt_tot":628,"inst_green_cmplt_tot":59,"inst_perc_green_tot":0.093949},"geometry":{"type":"Point","coordinates":[-98.7316513,38.4035301]}},{"type":"Feature","properties":{"year":2022,"instnm":"Bates Technical College","CZ_label":"Seattle","inst_cmplt_tot":199,"inst_green_cmplt_tot":63,"inst_perc_green_tot":0.3165829},"geometry":{"type":"Point","coordinates":[-122.4468307,47.2517433]}},{"type":"Feature","properties":{"year":2022,"instnm":"Baton Rouge Community College","CZ_label":"Baton Rouge","inst_cmplt_tot":1337,"inst_green_cmplt_tot":86,"inst_perc_green_tot":0.0643231},"geometry":{"type":"Point","coordinates":[-91.1379318,30.4482765]}},{"type":"Feature","properties":{"year":2022,"instnm":"Bay de Noc Community College","CZ_label":"Marquette","inst_cmplt_tot":315,"inst_green_cmplt_tot":46,"inst_perc_green_tot":0.1460317},"geometry":{"type":"Point","coordinates":[-87.085228,45.7725868]}},{"type":"Feature","properties":{"year":2022,"instnm":"Beaufort County Community College","CZ_label":"Washington","inst_cmplt_tot":332,"inst_green_cmplt_tot":18,"inst_perc_green_tot":0.0542169},"geometry":{"type":"Point","coordinates":[-76.9653473,35.5335884]}},{"type":"Feature","properties":{"year":2022,"instnm":"Bellevue College","CZ_label":"Seattle","inst_cmplt_tot":2005,"inst_green_cmplt_tot":186,"inst_perc_green_tot":0.0927681},"geometry":{"type":"Point","coordinates":[-122.150116,47.5840149]}},{"type":"Feature","properties":{"year":2022,"instnm":"Bellingham Technical College","CZ_label":"Seattle","inst_cmplt_tot":369,"inst_green_cmplt_tot":173,"inst_perc_green_tot":0.4688347},"geometry":{"type":"Point","coordinates":[-122.5121613,48.7661896]}},{"type":"Feature","properties":{"year":2022,"instnm":"Belmont College","CZ_label":"Wheeling","inst_cmplt_tot":165,"inst_green_cmplt_tot":38,"inst_perc_green_tot":0.230303},"geometry":{"type":"Point","coordinates":[-80.9649048,40.0769501]}},{"type":"Feature","properties":{"year":2022,"instnm":"Bergen Community College","CZ_label":"Newark & Jersey City","inst_cmplt_tot":1994,"inst_green_cmplt_tot":17,"inst_perc_green_tot":0.0085256},"geometry":{"type":"Point","coordinates":[-74.0888062,40.9517822]}},{"type":"Feature","properties":{"year":2022,"instnm":"Berkeley City College","CZ_label":"San Francisco","inst_cmplt_tot":423,"inst_green_cmplt_tot":36,"inst_perc_green_tot":0.0851064},"geometry":{"type":"Point","coordinates":[-122.2698746,37.8697701]}},{"type":"Feature","properties":{"year":2022,"instnm":"Berkshire Community College","CZ_label":"Pittsfield","inst_cmplt_tot":209,"inst_green_cmplt_tot":35,"inst_perc_green_tot":0.1674641},"geometry":{"type":"Point","coordinates":[-73.3147049,42.4597511]}},{"type":"Feature","properties":{"year":2022,"instnm":"Bevill State Community College","CZ_label":"Birmingham","inst_cmplt_tot":513,"inst_green_cmplt_tot":43,"inst_perc_green_tot":0.0838207},"geometry":{"type":"Point","coordinates":[-87.2664032,33.8369293]}},{"type":"Feature","properties":{"year":2022,"instnm":"Big Bend Community College","CZ_label":"Moses Lake","inst_cmplt_tot":422,"inst_green_cmplt_tot":18,"inst_perc_green_tot":0.042654},"geometry":{"type":"Point","coordinates":[-119.325676,47.183651]}},{"type":"Feature","properties":{"year":2022,"instnm":"Big Sandy Community and Technical College","CZ_label":"Pikeville","inst_cmplt_tot":409,"inst_green_cmplt_tot":101,"inst_perc_green_tot":0.2469438},"geometry":{"type":"Point","coordinates":[-82.7788467,37.6882477]}},{"type":"Feature","properties":{"year":2022,"instnm":"Bishop State Community College","CZ_label":"Mobile","inst_cmplt_tot":396,"inst_green_cmplt_tot":72,"inst_perc_green_tot":0.1818182},"geometry":{"type":"Point","coordinates":[-88.0569839,30.6939716]}},{"type":"Feature","properties":{"year":2022,"instnm":"Bismarck State College","CZ_label":"Bismarck","inst_cmplt_tot":836,"inst_green_cmplt_tot":323,"inst_perc_green_tot":0.3863636},"geometry":{"type":"Point","coordinates":[-100.8165359,46.8214607]}},{"type":"Feature","properties":{"year":2022,"instnm":"Black Hawk College","CZ_label":"Davenport","inst_cmplt_tot":505,"inst_green_cmplt_tot":73,"inst_perc_green_tot":0.1445545},"geometry":{"type":"Point","coordinates":[-90.4477997,41.4772835]}},{"type":"Feature","properties":{"year":2022,"instnm":"Black River Technical College","CZ_label":"Jonesboro","inst_cmplt_tot":261,"inst_green_cmplt_tot":22,"inst_perc_green_tot":0.0842912},"geometry":{"type":"Point","coordinates":[-90.9510345,36.2397919]}},{"type":"Feature","properties":{"year":2022,"instnm":"Blackhawk Technical College","CZ_label":"Milwaukee","inst_cmplt_tot":303,"inst_green_cmplt_tot":54,"inst_perc_green_tot":0.1782178},"geometry":{"type":"Point","coordinates":[-89.0162506,42.5931587]}},{"type":"Feature","properties":{"year":2022,"instnm":"Bladen Community College","CZ_label":"Fayetteville","inst_cmplt_tot":292,"inst_green_cmplt_tot":26,"inst_perc_green_tot":0.0890411},"geometry":{"type":"Point","coordinates":[-78.7311172,34.6446915]}},{"type":"Feature","properties":{"year":2022,"instnm":"Blinn College District","CZ_label":"College Station","inst_cmplt_tot":2538,"inst_green_cmplt_tot":453,"inst_perc_green_tot":0.178487},"geometry":{"type":"Point","coordinates":[-96.4085236,30.1604576]}},{"type":"Feature","properties":{"year":2022,"instnm":"Blue Mountain Community College","CZ_label":"Kennewick","inst_cmplt_tot":234,"inst_green_cmplt_tot":20,"inst_perc_green_tot":0.0854701},"geometry":{"type":"Point","coordinates":[-118.8169403,45.6773148]}},{"type":"Feature","properties":{"year":2022,"instnm":"Blue Ridge Community College","CZ_label":"Asheville","inst_cmplt_tot":322,"inst_green_cmplt_tot":53,"inst_perc_green_tot":0.1645963},"geometry":{"type":"Point","coordinates":[-82.4255447,35.3080406]}},{"type":"Feature","properties":{"year":2022,"instnm":"Blue Ridge Community College","CZ_label":"Harrisonburg","inst_cmplt_tot":603,"inst_green_cmplt_tot":51,"inst_perc_green_tot":0.0845771},"geometry":{"type":"Point","coordinates":[-78.9374695,38.2790756]}},{"type":"Feature","properties":{"year":2022,"instnm":"Blue Ridge Community and Technical College","CZ_label":"Winchester","inst_cmplt_tot":465,"inst_green_cmplt_tot":28,"inst_perc_green_tot":0.0602151},"geometry":{"type":"Point","coordinates":[-78.001915,39.4352913]}},{"type":"Feature","properties":{"year":2022,"instnm":"Bluegrass Community and Technical College","CZ_label":"Lexington","inst_cmplt_tot":1368,"inst_green_cmplt_tot":95,"inst_perc_green_tot":0.0694444},"geometry":{"type":"Point","coordinates":[-84.5036621,38.024807]}},{"type":"Feature","properties":{"year":2022,"instnm":"Bossier Parish Community College","CZ_label":"Shreveport","inst_cmplt_tot":843,"inst_green_cmplt_tot":35,"inst_perc_green_tot":0.0415184},"geometry":{"type":"Point","coordinates":[-93.6468811,32.5395508]}},{"type":"Feature","properties":{"year":2022,"instnm":"Brazosport College","CZ_label":"Houston","inst_cmplt_tot":420,"inst_green_cmplt_tot":57,"inst_perc_green_tot":0.1357143},"geometry":{"type":"Point","coordinates":[-95.4093399,29.0486031]}},{"type":"Feature","properties":{"year":2022,"instnm":"BridgeValley Community & Technical College","CZ_label":"Charleston","inst_cmplt_tot":338,"inst_green_cmplt_tot":91,"inst_perc_green_tot":0.2692308},"geometry":{"type":"Point","coordinates":[-81.6983032,38.3538475]}},{"type":"Feature","properties":{"year":2022,"instnm":"Brightpoint Community College","CZ_label":"Richmond","inst_cmplt_tot":1112,"inst_green_cmplt_tot":178,"inst_perc_green_tot":0.1600719},"geometry":{"type":"Point","coordinates":[-77.4079208,37.3462524]}},{"type":"Feature","properties":{"year":2022,"instnm":"Bristol Community College","CZ_label":"Providence","inst_cmplt_tot":983,"inst_green_cmplt_tot":174,"inst_perc_green_tot":0.1770092},"geometry":{"type":"Point","coordinates":[-71.119133,41.7219925]}},{"type":"Feature","properties":{"year":2022,"instnm":"Brookdale Community College","CZ_label":"Long Branch","inst_cmplt_tot":1629,"inst_green_cmplt_tot":178,"inst_perc_green_tot":0.1092695},"geometry":{"type":"Point","coordinates":[-74.1327438,40.3249054]}},{"type":"Feature","properties":{"year":2022,"instnm":"Broward College","CZ_label":"Miami","inst_cmplt_tot":6213,"inst_green_cmplt_tot":128,"inst_perc_green_tot":0.020602},"geometry":{"type":"Point","coordinates":[-80.1418304,26.1194229]}},{"type":"Feature","properties":{"year":2022,"instnm":"Brunswick Community College","CZ_label":"Wilmington","inst_cmplt_tot":264,"inst_green_cmplt_tot":4,"inst_perc_green_tot":0.0151515},"geometry":{"type":"Point","coordinates":[-78.2297897,34.0389748]}},{"type":"Feature","properties":{"year":2022,"instnm":"Bucks County Community College","CZ_label":"Philadelphia","inst_cmplt_tot":873,"inst_green_cmplt_tot":92,"inst_perc_green_tot":0.1053837},"geometry":{"type":"Point","coordinates":[-74.9658432,40.2391014]}},{"type":"Feature","properties":{"year":2022,"instnm":"Bunker Hill Community College","CZ_label":"Boston","inst_cmplt_tot":1116,"inst_green_cmplt_tot":260,"inst_perc_green_tot":0.2329749},"geometry":{"type":"Point","coordinates":[-71.0692596,42.3748055]}},{"type":"Feature","properties":{"year":2022,"instnm":"Butler Community College","CZ_label":"Wichita","inst_cmplt_tot":898,"inst_green_cmplt_tot":57,"inst_perc_green_tot":0.0634744},"geometry":{"type":"Point","coordinates":[-96.882988,37.8066978]}},{"type":"Feature","properties":{"year":2022,"instnm":"Butler County Community College","CZ_label":"Pittsburgh","inst_cmplt_tot":454,"inst_green_cmplt_tot":42,"inst_perc_green_tot":0.092511},"geometry":{"type":"Point","coordinates":[-79.9114304,40.8293648]}},{"type":"Feature","properties":{"year":2022,"instnm":"Butte College","CZ_label":"Redding & Chico","inst_cmplt_tot":1269,"inst_green_cmplt_tot":267,"inst_perc_green_tot":0.2104019},"geometry":{"type":"Point","coordinates":[-121.6448288,39.6497803]}},{"type":"Feature","properties":{"year":2022,"instnm":"CUNY Borough of Manhattan Community College","CZ_label":"New York","inst_cmplt_tot":4170,"inst_green_cmplt_tot":446,"inst_perc_green_tot":0.1069544},"geometry":{"type":"Point","coordinates":[-74.0118256,40.7187881]}},{"type":"Feature","properties":{"year":2022,"instnm":"CUNY Bronx Community College","CZ_label":"New York","inst_cmplt_tot":1214,"inst_green_cmplt_tot":157,"inst_perc_green_tot":0.1293245},"geometry":{"type":"Point","coordinates":[-73.9120407,40.8581123]}},{"type":"Feature","properties":{"year":2022,"instnm":"CUNY Hostos Community College","CZ_label":"New York","inst_cmplt_tot":990,"inst_green_cmplt_tot":94,"inst_perc_green_tot":0.0949495},"geometry":{"type":"Point","coordinates":[-73.9267578,40.818119]}},{"type":"Feature","properties":{"year":2022,"instnm":"CUNY Kingsborough Community College","CZ_label":"New York","inst_cmplt_tot":1916,"inst_green_cmplt_tot":274,"inst_perc_green_tot":0.1430063},"geometry":{"type":"Point","coordinates":[-73.9358139,40.5772209]}},{"type":"Feature","properties":{"year":2022,"instnm":"CUNY LaGuardia Community College","CZ_label":"New York","inst_cmplt_tot":3039,"inst_green_cmplt_tot":802,"inst_perc_green_tot":0.2639026},"geometry":{"type":"Point","coordinates":[-73.9350586,40.7444992]}},{"type":"Feature","properties":{"year":2022,"instnm":"CUNY Queensborough Community College","CZ_label":"New York","inst_cmplt_tot":1941,"inst_green_cmplt_tot":276,"inst_perc_green_tot":0.1421947},"geometry":{"type":"Point","coordinates":[-73.7566528,40.7554817]}},{"type":"Feature","properties":{"year":2022,"instnm":"CUNY Stella and Charles Guttman Community College","CZ_label":"New York","inst_cmplt_tot":146,"inst_green_cmplt_tot":0,"inst_perc_green_tot":0},"geometry":{"type":"Point","coordinates":[-73.9841309,40.7528114]}},{"type":"Feature","properties":{"year":2022,"instnm":"Cabrillo College","CZ_label":"San Jose","inst_cmplt_tot":1487,"inst_green_cmplt_tot":410,"inst_perc_green_tot":0.2757229},"geometry":{"type":"Point","coordinates":[-121.9247971,36.9894485]}},{"type":"Feature","properties":{"year":2022,"instnm":"Caldwell Community College and Technical Institute","CZ_label":"Hickory","inst_cmplt_tot":774,"inst_green_cmplt_tot":46,"inst_perc_green_tot":0.0594315},"geometry":{"type":"Point","coordinates":[-81.4841461,35.8546028]}},{"type":"Feature","properties":{"year":2022,"instnm":"Camden County College","CZ_label":"Trenton","inst_cmplt_tot":1109,"inst_green_cmplt_tot":47,"inst_perc_green_tot":0.0423805},"geometry":{"type":"Point","coordinates":[-75.0383835,39.784874]}},{"type":"Feature","properties":{"year":2022,"instnm":"Canada College","CZ_label":"San Francisco","inst_cmplt_tot":391,"inst_green_cmplt_tot":48,"inst_perc_green_tot":0.1227621},"geometry":{"type":"Point","coordinates":[-122.2653961,37.4487686]}},{"type":"Feature","properties":{"year":2022,"instnm":"Cape Cod Community College","CZ_label":"Boston","inst_cmplt_tot":366,"inst_green_cmplt_tot":52,"inst_perc_green_tot":0.1420765},"geometry":{"type":"Point","coordinates":[-70.3373337,41.6919098]}},{"type":"Feature","properties":{"year":2022,"instnm":"Cape Fear Community College","CZ_label":"Wilmington","inst_cmplt_tot":1353,"inst_green_cmplt_tot":104,"inst_perc_green_tot":0.0768662},"geometry":{"type":"Point","coordinates":[-77.9483032,34.2406235]}},{"type":"Feature","properties":{"year":2022,"instnm":"Capital Community College","CZ_label":"Hartford & Bridgeport","inst_cmplt_tot":251,"inst_green_cmplt_tot":11,"inst_perc_green_tot":0.0438247},"geometry":{"type":"Point","coordinates":[-72.6727371,41.7683983]}},{"type":"Feature","properties":{"year":2022,"instnm":"Carl Albert State College","CZ_label":"McAlester","inst_cmplt_tot":340,"inst_green_cmplt_tot":12,"inst_perc_green_tot":0.0352941},"geometry":{"type":"Point","coordinates":[-94.6339874,35.0391731]}},{"type":"Feature","properties":{"year":2022,"instnm":"Carl Sandburg College","CZ_label":"Davenport","inst_cmplt_tot":448,"inst_green_cmplt_tot":1,"inst_perc_green_tot":0.0022321},"geometry":{"type":"Point","coordinates":[-90.4082031,40.9812813]}},{"type":"Feature","properties":{"year":2022,"instnm":"Carroll Community College","CZ_label":"Baltimore","inst_cmplt_tot":528,"inst_green_cmplt_tot":77,"inst_perc_green_tot":0.1458333},"geometry":{"type":"Point","coordinates":[-76.9911118,39.5318031]}},{"type":"Feature","properties":{"year":2022,"instnm":"Carteret Community College","CZ_label":"Jacksonville","inst_cmplt_tot":210,"inst_green_cmplt_tot":20,"inst_perc_green_tot":0.0952381},"geometry":{"type":"Point","coordinates":[-76.7555389,34.7236824]}},{"type":"Feature","properties":{"year":2022,"instnm":"Cascadia College","CZ_label":"Seattle","inst_cmplt_tot":576,"inst_green_cmplt_tot":186,"inst_perc_green_tot":0.3229167},"geometry":{"type":"Point","coordinates":[-122.1915741,47.7609138]}},{"type":"Feature","properties":{"year":2022,"instnm":"Casper College","CZ_label":"Casper","inst_cmplt_tot":733,"inst_green_cmplt_tot":195,"inst_perc_green_tot":0.26603},"geometry":{"type":"Point","coordinates":[-106.3267136,42.8327866]}},{"type":"Feature","properties":{"year":2022,"instnm":"Catawba Valley Community College","CZ_label":"Hickory","inst_cmplt_tot":903,"inst_green_cmplt_tot":80,"inst_perc_green_tot":0.0885936},"geometry":{"type":"Point","coordinates":[-81.2879181,35.6997337]}},{"type":"Feature","properties":{"year":2022,"instnm":"Cayuga County Community College","CZ_label":"Syracuse","inst_cmplt_tot":316,"inst_green_cmplt_tot":24,"inst_perc_green_tot":0.0759494},"geometry":{"type":"Point","coordinates":[-76.5428696,42.9437256]}},{"type":"Feature","properties":{"year":2022,"instnm":"Cecil College","CZ_label":"Philadelphia","inst_cmplt_tot":346,"inst_green_cmplt_tot":32,"inst_perc_green_tot":0.0924855},"geometry":{"type":"Point","coordinates":[-75.9559479,39.6422234]}},{"type":"Feature","properties":{"year":2022,"instnm":"Central Alabama Community College","CZ_label":"Anniston","inst_cmplt_tot":154,"inst_green_cmplt_tot":36,"inst_perc_green_tot":0.2337662},"geometry":{"type":"Point","coordinates":[-85.9452667,32.9247818]}},{"type":"Feature","properties":{"year":2022,"instnm":"Central Arizona College","CZ_label":"Phoenix","inst_cmplt_tot":459,"inst_green_cmplt_tot":13,"inst_perc_green_tot":0.0283224},"geometry":{"type":"Point","coordinates":[-111.652504,32.9570923]}},{"type":"Feature","properties":{"year":2022,"instnm":"Central Carolina Community College","CZ_label":"Fayetteville","inst_cmplt_tot":516,"inst_green_cmplt_tot":58,"inst_perc_green_tot":0.1124031},"geometry":{"type":"Point","coordinates":[-79.1435547,35.4718628]}},{"type":"Feature","properties":{"year":2022,"instnm":"Central Carolina Technical College","CZ_label":"Columbia","inst_cmplt_tot":264,"inst_green_cmplt_tot":33,"inst_perc_green_tot":0.125},"geometry":{"type":"Point","coordinates":[-80.3710098,33.933342]}},{"type":"Feature","properties":{"year":2022,"instnm":"Central Community College","CZ_label":"Grand Island","inst_cmplt_tot":856,"inst_green_cmplt_tot":224,"inst_perc_green_tot":0.2616822},"geometry":{"type":"Point","coordinates":[-98.372551,40.8895836]}},{"type":"Feature","properties":{"year":2022,"instnm":"Central Georgia Technical College","CZ_label":"Macon & Warner Robins","inst_cmplt_tot":956,"inst_green_cmplt_tot":346,"inst_perc_green_tot":0.3619247},"geometry":{"type":"Point","coordinates":[-83.6676483,32.5453415]}},{"type":"Feature","properties":{"year":2022,"instnm":"Central Lakes College-Brainerd","CZ_label":"Bemidji & Brainerd","inst_cmplt_tot":414,"inst_green_cmplt_tot":239,"inst_perc_green_tot":0.5772947},"geometry":{"type":"Point","coordinates":[-94.2164917,46.3459702]}},{"type":"Feature","properties":{"year":2022,"instnm":"Central Louisiana Technical Community College","CZ_label":"Alexandria","inst_cmplt_tot":196,"inst_green_cmplt_tot":156,"inst_perc_green_tot":0.7959184},"geometry":{"type":"Point","coordinates":[-92.4466934,31.310461]}},{"type":"Feature","properties":{"year":2022,"instnm":"Central Maine Community College","CZ_label":"Portland","inst_cmplt_tot":271,"inst_green_cmplt_tot":89,"inst_perc_green_tot":0.3284133},"geometry":{"type":"Point","coordinates":[-70.2354965,44.134346]}},{"type":"Feature","properties":{"year":2022,"instnm":"Central New Mexico Community College","CZ_label":"Albuquerque","inst_cmplt_tot":2391,"inst_green_cmplt_tot":427,"inst_perc_green_tot":0.1785864},"geometry":{"type":"Point","coordinates":[-106.6288605,35.0718765]}},{"type":"Feature","properties":{"year":2022,"instnm":"Central Ohio Technical College","CZ_label":"Columbus","inst_cmplt_tot":393,"inst_green_cmplt_tot":26,"inst_perc_green_tot":0.0661578},"geometry":{"type":"Point","coordinates":[-82.4474411,40.069313]}},{"type":"Feature","properties":{"year":2022,"instnm":"Central Oregon Community College","CZ_label":"Bend","inst_cmplt_tot":565,"inst_green_cmplt_tot":10,"inst_perc_green_tot":0.0176991},"geometry":{"type":"Point","coordinates":[-121.348587,44.0713997]}},{"type":"Feature","properties":{"year":2022,"instnm":"Central Piedmont Community College","CZ_label":"Charlotte","inst_cmplt_tot":2082,"inst_green_cmplt_tot":119,"inst_perc_green_tot":0.0571566},"geometry":{"type":"Point","coordinates":[-80.8297958,35.2177734]}},{"type":"Feature","properties":{"year":2022,"instnm":"Central Texas College","CZ_label":"Killeen","inst_cmplt_tot":1710,"inst_green_cmplt_tot":71,"inst_perc_green_tot":0.0415205},"geometry":{"type":"Point","coordinates":[-97.8108292,31.1205158]}},{"type":"Feature","properties":{"year":2022,"instnm":"Central Virginia Community College","CZ_label":"Lynchburg","inst_cmplt_tot":724,"inst_green_cmplt_tot":44,"inst_perc_green_tot":0.0607735},"geometry":{"type":"Point","coordinates":[-79.1842346,37.3588104]}},{"type":"Feature","properties":{"year":2022,"instnm":"Central Wyoming College","CZ_label":"Riverton","inst_cmplt_tot":201,"inst_green_cmplt_tot":26,"inst_perc_green_tot":0.1293532},"geometry":{"type":"Point","coordinates":[-108.4267349,43.0305557]}},{"type":"Feature","properties":{"year":2022,"instnm":"Centralia College","CZ_label":"Seattle","inst_cmplt_tot":434,"inst_green_cmplt_tot":53,"inst_perc_green_tot":0.1221198},"geometry":{"type":"Point","coordinates":[-122.9605942,46.7150154]}},{"type":"Feature","properties":{"year":2022,"instnm":"Century College","CZ_label":"Minneapolis","inst_cmplt_tot":1440,"inst_green_cmplt_tot":295,"inst_perc_green_tot":0.2048611},"geometry":{"type":"Point","coordinates":[-92.9821014,45.0418243]}},{"type":"Feature","properties":{"year":2022,"instnm":"Cerritos College","CZ_label":"Los Angeles","inst_cmplt_tot":1646,"inst_green_cmplt_tot":223,"inst_perc_green_tot":0.13548},"geometry":{"type":"Point","coordinates":[-118.0973358,33.8868752]}},{"type":"Feature","properties":{"year":2022,"instnm":"Cerro Coso Community College","CZ_label":"Bakersfield","inst_cmplt_tot":720,"inst_green_cmplt_tot":0,"inst_perc_green_tot":0},"geometry":{"type":"Point","coordinates":[-117.6676712,35.567524]}},{"type":"Feature","properties":{"year":2022,"instnm":"Chabot College","CZ_label":"San Francisco","inst_cmplt_tot":1468,"inst_green_cmplt_tot":98,"inst_perc_green_tot":0.0667575},"geometry":{"type":"Point","coordinates":[-122.1056366,37.6424599]}},{"type":"Feature","properties":{"year":2022,"instnm":"Chaffey College","CZ_label":"Los Angeles","inst_cmplt_tot":3427,"inst_green_cmplt_tot":245,"inst_perc_green_tot":0.0714911},"geometry":{"type":"Point","coordinates":[-117.5739288,34.1476631]}},{"type":"Feature","properties":{"year":2022,"instnm":"Chandler-Gilbert Community College","CZ_label":"Phoenix","inst_cmplt_tot":2797,"inst_green_cmplt_tot":643,"inst_perc_green_tot":0.2298892},"geometry":{"type":"Point","coordinates":[-111.7959213,33.2938957]}},{"type":"Feature","properties":{"year":2022,"instnm":"Chattahoochee Technical College","CZ_label":"Atlanta","inst_cmplt_tot":710,"inst_green_cmplt_tot":247,"inst_perc_green_tot":0.3478873},"geometry":{"type":"Point","coordinates":[-84.5537186,33.9290924]}},{"type":"Feature","properties":{"year":2022,"instnm":"Chattahoochee Valley Community College","CZ_label":"Columbus","inst_cmplt_tot":126,"inst_green_cmplt_tot":0,"inst_perc_green_tot":0},"geometry":{"type":"Point","coordinates":[-85.0314865,32.4239082]}},{"type":"Feature","properties":{"year":2022,"instnm":"Chattanooga State Community College","CZ_label":"Chattanooga","inst_cmplt_tot":505,"inst_green_cmplt_tot":45,"inst_perc_green_tot":0.0891089},"geometry":{"type":"Point","coordinates":[-85.2373886,35.1002007]}},{"type":"Feature","properties":{"year":2022,"instnm":"Chemeketa Community College","CZ_label":"Portland","inst_cmplt_tot":1336,"inst_green_cmplt_tot":113,"inst_perc_green_tot":0.0845808},"geometry":{"type":"Point","coordinates":[-122.9780731,44.9786568]}},{"type":"Feature","properties":{"year":2022,"instnm":"Chesapeake College","CZ_label":"Dover","inst_cmplt_tot":223,"inst_green_cmplt_tot":38,"inst_perc_green_tot":0.1704036},"geometry":{"type":"Point","coordinates":[-76.0836716,38.9521942]}},{"type":"Feature","properties":{"year":2022,"instnm":"Chipola College","CZ_label":"Panama City","inst_cmplt_tot":397,"inst_green_cmplt_tot":23,"inst_perc_green_tot":0.0579345},"geometry":{"type":"Point","coordinates":[-85.2313919,30.7892284]}},{"type":"Feature","properties":{"year":2022,"instnm":"Chippewa Valley Technical College","CZ_label":"Eau Claire","inst_cmplt_tot":1130,"inst_green_cmplt_tot":201,"inst_perc_green_tot":0.1778761},"geometry":{"type":"Point","coordinates":[-91.5056763,44.7948685]}},{"type":"Feature","properties":{"year":2022,"instnm":"Cincinnati State Technical and Community College","CZ_label":"Cincinnati","inst_cmplt_tot":1039,"inst_green_cmplt_tot":150,"inst_perc_green_tot":0.1443696},"geometry":{"type":"Point","coordinates":[-84.5369339,39.1499138]}},{"type":"Feature","properties":{"year":2022,"instnm":"Cisco College","CZ_label":"Graham","inst_cmplt_tot":609,"inst_green_cmplt_tot":56,"inst_perc_green_tot":0.091954},"geometry":{"type":"Point","coordinates":[-98.9852066,32.4011307]}},{"type":"Feature","properties":{"year":2022,"instnm":"Citrus College","CZ_label":"Los Angeles","inst_cmplt_tot":3745,"inst_green_cmplt_tot":279,"inst_perc_green_tot":0.0744993},"geometry":{"type":"Point","coordinates":[-117.886467,34.1353683]}},{"type":"Feature","properties":{"year":2022,"instnm":"City College of San Francisco","CZ_label":"San Francisco","inst_cmplt_tot":1698,"inst_green_cmplt_tot":82,"inst_perc_green_tot":0.0482921},"geometry":{"type":"Point","coordinates":[-122.4511566,37.7259521]}},{"type":"Feature","properties":{"year":2022,"instnm":"City Colleges of Chicago-Harold Washington College","CZ_label":"Chicago","inst_cmplt_tot":932,"inst_green_cmplt_tot":27,"inst_perc_green_tot":0.02897},"geometry":{"type":"Point","coordinates":[-87.6265945,41.8860664]}},{"type":"Feature","properties":{"year":2022,"instnm":"City Colleges of Chicago-Harry S Truman College","CZ_label":"Chicago","inst_cmplt_tot":383,"inst_green_cmplt_tot":51,"inst_perc_green_tot":0.1331593},"geometry":{"type":"Point","coordinates":[-87.6591034,41.9645004]}},{"type":"Feature","properties":{"year":2022,"instnm":"City Colleges of Chicago-Kennedy-King College","CZ_label":"Chicago","inst_cmplt_tot":260,"inst_green_cmplt_tot":112,"inst_perc_green_tot":0.4307692},"geometry":{"type":"Point","coordinates":[-87.643425,41.7802544]}},{"type":"Feature","properties":{"year":2022,"instnm":"City Colleges of Chicago-Malcolm X College","CZ_label":"Chicago","inst_cmplt_tot":815,"inst_green_cmplt_tot":0,"inst_perc_green_tot":0},"geometry":{"type":"Point","coordinates":[-87.6753235,41.8780937]}},{"type":"Feature","properties":{"year":2022,"instnm":"City Colleges of Chicago-Olive-Harvey College","CZ_label":"Chicago","inst_cmplt_tot":131,"inst_green_cmplt_tot":0,"inst_perc_green_tot":0},"geometry":{"type":"Point","coordinates":[-87.5892487,41.7099953]}},{"type":"Feature","properties":{"year":2022,"instnm":"City Colleges of Chicago-Richard J Daley College","CZ_label":"Chicago","inst_cmplt_tot":344,"inst_green_cmplt_tot":34,"inst_perc_green_tot":0.0988372},"geometry":{"type":"Point","coordinates":[-87.7239838,41.7559547]}},{"type":"Feature","properties":{"year":2022,"instnm":"City Colleges of Chicago-Wilbur Wright College","CZ_label":"Chicago","inst_cmplt_tot":882,"inst_green_cmplt_tot":138,"inst_perc_green_tot":0.1564626},"geometry":{"type":"Point","coordinates":[-87.7878647,41.9587746]}},{"type":"Feature","properties":{"year":2022,"instnm":"Clackamas Community College","CZ_label":"Portland","inst_cmplt_tot":599,"inst_green_cmplt_tot":85,"inst_perc_green_tot":0.1419032},"geometry":{"type":"Point","coordinates":[-122.5742722,45.323185]}},{"type":"Feature","properties":{"year":2022,"instnm":"Clarendon College","CZ_label":"Amarillo","inst_cmplt_tot":307,"inst_green_cmplt_tot":56,"inst_perc_green_tot":0.1824104},"geometry":{"type":"Point","coordinates":[-100.90242,34.9445572]}},{"type":"Feature","properties":{"year":2022,"instnm":"Clark College","CZ_label":"Portland","inst_cmplt_tot":1535,"inst_green_cmplt_tot":359,"inst_perc_green_tot":0.2338762},"geometry":{"type":"Point","coordinates":[-122.6512604,45.6361313]}},{"type":"Feature","properties":{"year":2022,"instnm":"Clark State College","CZ_label":"Dayton","inst_cmplt_tot":359,"inst_green_cmplt_tot":12,"inst_perc_green_tot":0.0334262},"geometry":{"type":"Point","coordinates":[-83.7997894,39.8964119]}},{"type":"Feature","properties":{"year":2022,"instnm":"Clatsop Community College","CZ_label":"Aberdeen","inst_cmplt_tot":77,"inst_green_cmplt_tot":1,"inst_perc_green_tot":0.012987},"geometry":{"type":"Point","coordinates":[-123.8233414,46.1831055]}},{"type":"Feature","properties":{"year":2022,"instnm":"Cleveland Community College","CZ_label":"Charlotte","inst_cmplt_tot":495,"inst_green_cmplt_tot":29,"inst_perc_green_tot":0.0585859},"geometry":{"type":"Point","coordinates":[-81.4928589,35.2798347]}},{"type":"Feature","properties":{"year":2022,"instnm":"Cleveland State Community College","CZ_label":"Chattanooga","inst_cmplt_tot":359,"inst_green_cmplt_tot":30,"inst_perc_green_tot":0.0835655},"geometry":{"type":"Point","coordinates":[-84.8792877,35.2001038]}},{"type":"Feature","properties":{"year":2022,"instnm":"Clinton Community College","CZ_label":"Plattsburgh","inst_cmplt_tot":144,"inst_green_cmplt_tot":16,"inst_perc_green_tot":0.1111111},"geometry":{"type":"Point","coordinates":[-73.4397354,44.6484108]}},{"type":"Feature","properties":{"year":2022,"instnm":"Cloud County Community College","CZ_label":"Concordia","inst_cmplt_tot":319,"inst_green_cmplt_tot":81,"inst_perc_green_tot":0.2539185},"geometry":{"type":"Point","coordinates":[-97.6641464,39.5541992]}},{"type":"Feature","properties":{"year":2022,"instnm":"Clover Park Technical College","CZ_label":"Seattle","inst_cmplt_tot":488,"inst_green_cmplt_tot":189,"inst_perc_green_tot":0.3872951},"geometry":{"type":"Point","coordinates":[-122.4978714,47.1760826]}},{"type":"Feature","properties":{"year":2022,"instnm":"Clovis Community College","CZ_label":"Clovis","inst_cmplt_tot":270,"inst_green_cmplt_tot":51,"inst_perc_green_tot":0.1888889},"geometry":{"type":"Point","coordinates":[-103.1658859,34.4024849]}},{"type":"Feature","properties":{"year":2022,"instnm":"Clovis Community College","CZ_label":"Fresno","inst_cmplt_tot":1064,"inst_green_cmplt_tot":663,"inst_perc_green_tot":0.6231203},"geometry":{"type":"Point","coordinates":[-119.7312622,36.8868599]}},{"type":"Feature","properties":{"year":2022,"instnm":"Coahoma Community College","CZ_label":"Oxford","inst_cmplt_tot":461,"inst_green_cmplt_tot":146,"inst_perc_green_tot":0.3167028},"geometry":{"type":"Point","coordinates":[-90.5684662,34.2544174]}},{"type":"Feature","properties":{"year":2022,"instnm":"Coastal Alabama Community College","CZ_label":"Mobile","inst_cmplt_tot":1055,"inst_green_cmplt_tot":184,"inst_perc_green_tot":0.1744076},"geometry":{"type":"Point","coordinates":[-87.7781906,30.8513432]}},{"type":"Feature","properties":{"year":2022,"instnm":"Coastal Bend College","CZ_label":"McAllen","inst_cmplt_tot":472,"inst_green_cmplt_tot":15,"inst_perc_green_tot":0.0317797},"geometry":{"type":"Point","coordinates":[-97.7558975,28.435194]}},{"type":"Feature","properties":{"year":2022,"instnm":"Coastal Carolina Community College","CZ_label":"Jacksonville","inst_cmplt_tot":788,"inst_green_cmplt_tot":112,"inst_perc_green_tot":0.142132},"geometry":{"type":"Point","coordinates":[-77.3847885,34.7716866]}},{"type":"Feature","properties":{"year":2022,"instnm":"Coastal Pines Technical College","CZ_label":"Brunswick","inst_cmplt_tot":248,"inst_green_cmplt_tot":69,"inst_perc_green_tot":0.2782258},"geometry":{"type":"Point","coordinates":[-82.382103,31.2127819]}},{"type":"Feature","properties":{"year":2022,"instnm":"Coastline Community College","CZ_label":"Los Angeles","inst_cmplt_tot":920,"inst_green_cmplt_tot":17,"inst_perc_green_tot":0.0184783},"geometry":{"type":"Point","coordinates":[-117.9291458,33.7156334]}},{"type":"Feature","properties":{"year":2022,"instnm":"Cochise County Community College District","CZ_label":"Tucson","inst_cmplt_tot":1581,"inst_green_cmplt_tot":79,"inst_perc_green_tot":0.0499684},"geometry":{"type":"Point","coordinates":[-110.2469482,31.5645962]}},{"type":"Feature","properties":{"year":2022,"instnm":"Coconino Community College","CZ_label":"Prescott Valley & Flagstaff","inst_cmplt_tot":289,"inst_green_cmplt_tot":6,"inst_perc_green_tot":0.0207612},"geometry":{"type":"Point","coordinates":[-111.6456299,35.1713295]}},{"type":"Feature","properties":{"year":2022,"instnm":"Coffeyville Community College","CZ_label":"Bartlesville","inst_cmplt_tot":243,"inst_green_cmplt_tot":15,"inst_perc_green_tot":0.0617284},"geometry":{"type":"Point","coordinates":[-95.621376,37.0338135]}},{"type":"Feature","properties":{"year":2022,"instnm":"Colby Community College","CZ_label":"Colby","inst_cmplt_tot":150,"inst_green_cmplt_tot":66,"inst_perc_green_tot":0.44},"geometry":{"type":"Point","coordinates":[-101.052742,39.3776016]}},{"type":"Feature","properties":{"year":2022,"instnm":"College of Alameda","CZ_label":"San Francisco","inst_cmplt_tot":449,"inst_green_cmplt_tot":108,"inst_perc_green_tot":0.2405345},"geometry":{"type":"Point","coordinates":[-122.2793045,37.7810173]}},{"type":"Feature","properties":{"year":2022,"instnm":"College of Central Florida","CZ_label":"Orlando","inst_cmplt_tot":1161,"inst_green_cmplt_tot":27,"inst_perc_green_tot":0.0232558},"geometry":{"type":"Point","coordinates":[-82.1756897,29.1660786]}},{"type":"Feature","properties":{"year":2022,"instnm":"College of DuPage","CZ_label":"Chicago","inst_cmplt_tot":1944,"inst_green_cmplt_tot":177,"inst_perc_green_tot":0.0910494},"geometry":{"type":"Point","coordinates":[-88.0716324,41.8415756]}},{"type":"Feature","properties":{"year":2022,"instnm":"College of Eastern Idaho","CZ_label":"Idaho Falls","inst_cmplt_tot":363,"inst_green_cmplt_tot":55,"inst_perc_green_tot":0.1515152},"geometry":{"type":"Point","coordinates":[-111.9855194,43.486042]}},{"type":"Feature","properties":{"year":2022,"instnm":"College of Lake County","CZ_label":"Chicago","inst_cmplt_tot":1682,"inst_green_cmplt_tot":162,"inst_perc_green_tot":0.0963139},"geometry":{"type":"Point","coordinates":[-88.012291,42.3541641]}},{"type":"Feature","properties":{"year":2022,"instnm":"College of Marin","CZ_label":"San Francisco","inst_cmplt_tot":393,"inst_green_cmplt_tot":25,"inst_perc_green_tot":0.0636132},"geometry":{"type":"Point","coordinates":[-122.5487595,37.9519196]}},{"type":"Feature","properties":{"year":2022,"instnm":"College of Micronesia-FSM","CZ_label":null,"inst_cmplt_tot":322,"inst_green_cmplt_tot":57,"inst_perc_green_tot":0.1770186},"geometry":{"type":"Point","coordinates":[158.1581879,6.909759]}},{"type":"Feature","properties":{"year":2022,"instnm":"College of San Mateo","CZ_label":"San Francisco","inst_cmplt_tot":741,"inst_green_cmplt_tot":137,"inst_perc_green_tot":0.1848853},"geometry":{"type":"Point","coordinates":[-122.3348007,37.5356979]}},{"type":"Feature","properties":{"year":2022,"instnm":"College of Southern Idaho","CZ_label":"Twin Falls","inst_cmplt_tot":785,"inst_green_cmplt_tot":193,"inst_perc_green_tot":0.2458599},"geometry":{"type":"Point","coordinates":[-114.4738998,42.5798378]}},{"type":"Feature","properties":{"year":2022,"instnm":"College of Southern Maryland","CZ_label":"Washington","inst_cmplt_tot":867,"inst_green_cmplt_tot":132,"inst_perc_green_tot":0.1522491},"geometry":{"type":"Point","coordinates":[-77.0092468,38.5589485]}},{"type":"Feature","properties":{"year":2022,"instnm":"College of Southern Nevada","CZ_label":"Las Vegas","inst_cmplt_tot":3477,"inst_green_cmplt_tot":805,"inst_perc_green_tot":0.2315214},"geometry":{"type":"Point","coordinates":[-115.2331009,36.1581154]}},{"type":"Feature","properties":{"year":2022,"instnm":"College of Western Idaho","CZ_label":"Boise","inst_cmplt_tot":2257,"inst_green_cmplt_tot":377,"inst_perc_green_tot":0.1670359},"geometry":{"type":"Point","coordinates":[-116.5073166,43.6141052]}},{"type":"Feature","properties":{"year":2022,"instnm":"College of the Albemarle","CZ_label":"Virginia Beach","inst_cmplt_tot":360,"inst_green_cmplt_tot":31,"inst_perc_green_tot":0.0861111},"geometry":{"type":"Point","coordinates":[-76.2197647,36.3248863]}},{"type":"Feature","properties":{"year":2022,"instnm":"College of the Canyons","CZ_label":"Los Angeles","inst_cmplt_tot":3230,"inst_green_cmplt_tot":332,"inst_perc_green_tot":0.1027864},"geometry":{"type":"Point","coordinates":[-118.5686951,34.4039917]}},{"type":"Feature","properties":{"year":2022,"instnm":"College of the Desert","CZ_label":"Los Angeles","inst_cmplt_tot":1938,"inst_green_cmplt_tot":117,"inst_perc_green_tot":0.0603715},"geometry":{"type":"Point","coordinates":[-116.3882675,33.7321091]}},{"type":"Feature","properties":{"year":2022,"instnm":"College of the Mainland","CZ_label":"Houston","inst_cmplt_tot":599,"inst_green_cmplt_tot":96,"inst_perc_green_tot":0.1602671},"geometry":{"type":"Point","coordinates":[-94.9996033,29.3958092]}},{"type":"Feature","properties":{"year":2022,"instnm":"College of the Marshall Islands","CZ_label":null,"inst_cmplt_tot":225,"inst_green_cmplt_tot":28,"inst_perc_green_tot":0.1244444},"geometry":{"type":"Point","coordinates":[171.3781281,7.1026878]}},{"type":"Feature","properties":{"year":2022,"instnm":"College of the Redwoods","CZ_label":"Eureka","inst_cmplt_tot":401,"inst_green_cmplt_tot":39,"inst_perc_green_tot":0.0972569},"geometry":{"type":"Point","coordinates":[-124.1952896,40.6984253]}},{"type":"Feature","properties":{"year":2022,"instnm":"College of the Sequoias","CZ_label":"Fresno","inst_cmplt_tot":1684,"inst_green_cmplt_tot":136,"inst_perc_green_tot":0.0807601},"geometry":{"type":"Point","coordinates":[-119.3151855,36.3238754]}},{"type":"Feature","properties":{"year":2022,"instnm":"College of the Siskiyous","CZ_label":"Klamath Falls","inst_cmplt_tot":219,"inst_green_cmplt_tot":3,"inst_perc_green_tot":0.0136986},"geometry":{"type":"Point","coordinates":[-122.3890915,41.4130058]}},{"type":"Feature","properties":{"year":2022,"instnm":"Collin County Community College District","CZ_label":"Dallas","inst_cmplt_tot":4366,"inst_green_cmplt_tot":343,"inst_perc_green_tot":0.0785616},"geometry":{"type":"Point","coordinates":[-96.6389389,33.1624107]}},{"type":"Feature","properties":{"year":2022,"instnm":"Colorado Mountain College","CZ_label":"Rifle & Edwards","inst_cmplt_tot":567,"inst_green_cmplt_tot":0,"inst_perc_green_tot":0},"geometry":{"type":"Point","coordinates":[-107.32444,39.54636]}},{"type":"Feature","properties":{"year":2022,"instnm":"Colorado Northwestern Community College","CZ_label":"Steamboat Springs","inst_cmplt_tot":136,"inst_green_cmplt_tot":35,"inst_perc_green_tot":0.2573529},"geometry":{"type":"Point","coordinates":[-108.7900467,40.0811119]}},{"type":"Feature","properties":{"year":2022,"instnm":"Columbia Basin College","CZ_label":"Kennewick","inst_cmplt_tot":1161,"inst_green_cmplt_tot":63,"inst_perc_green_tot":0.0542636},"geometry":{"type":"Point","coordinates":[-119.1210327,46.2521591]}},{"type":"Feature","properties":{"year":2022,"instnm":"Columbia College","CZ_label":"Stockton & Modesto","inst_cmplt_tot":239,"inst_green_cmplt_tot":39,"inst_perc_green_tot":0.1631799},"geometry":{"type":"Point","coordinates":[-120.388382,38.0303688]}},{"type":"Feature","properties":{"year":2022,"instnm":"Columbia Gorge Community College","CZ_label":"The Dalles","inst_cmplt_tot":149,"inst_green_cmplt_tot":0,"inst_perc_green_tot":0},"geometry":{"type":"Point","coordinates":[-121.1902008,45.5907249]}},{"type":"Feature","properties":{"year":2022,"instnm":"Columbia State Community College","CZ_label":"Spring Hill","inst_cmplt_tot":906,"inst_green_cmplt_tot":0,"inst_perc_green_tot":0},"geometry":{"type":"Point","coordinates":[-87.1019135,35.6167564]}},{"type":"Feature","properties":{"year":2022,"instnm":"Columbia-Greene Community College","CZ_label":"Albany","inst_cmplt_tot":206,"inst_green_cmplt_tot":11,"inst_perc_green_tot":0.0533981},"geometry":{"type":"Point","coordinates":[-73.8181152,42.2176132]}},{"type":"Feature","properties":{"year":2022,"instnm":"Columbus State Community College","CZ_label":"Columbus","inst_cmplt_tot":2322,"inst_green_cmplt_tot":325,"inst_perc_green_tot":0.1399655},"geometry":{"type":"Point","coordinates":[-82.9876633,39.9688683]}},{"type":"Feature","properties":{"year":2022,"instnm":"Columbus Technical College","CZ_label":"Columbus","inst_cmplt_tot":515,"inst_green_cmplt_tot":86,"inst_perc_green_tot":0.1669903},"geometry":{"type":"Point","coordinates":[-84.9785538,32.5080757]}},{"type":"Feature","properties":{"year":2022,"instnm":"Community College of Allegheny County","CZ_label":"Pittsburgh","inst_cmplt_tot":2323,"inst_green_cmplt_tot":695,"inst_perc_green_tot":0.2991821},"geometry":{"type":"Point","coordinates":[-80.0184555,40.4509087]}},{"type":"Feature","properties":{"year":2022,"instnm":"Community College of Aurora","CZ_label":"Denver","inst_cmplt_tot":590,"inst_green_cmplt_tot":25,"inst_perc_green_tot":0.0423729},"geometry":{"type":"Point","coordinates":[-104.8026733,39.7178802]}},{"type":"Feature","properties":{"year":2022,"instnm":"Community College of Baltimore County","CZ_label":"Baltimore","inst_cmplt_tot":1813,"inst_green_cmplt_tot":137,"inst_perc_green_tot":0.0755654},"geometry":{"type":"Point","coordinates":[-76.4821091,39.3526459]}},{"type":"Feature","properties":{"year":2022,"instnm":"Community College of Beaver County","CZ_label":"Pittsburgh","inst_cmplt_tot":274,"inst_green_cmplt_tot":48,"inst_perc_green_tot":0.1751825},"geometry":{"type":"Point","coordinates":[-80.3058777,40.6556015]}},{"type":"Feature","properties":{"year":2022,"instnm":"Community College of Denver","CZ_label":"Denver","inst_cmplt_tot":715,"inst_green_cmplt_tot":27,"inst_perc_green_tot":0.0377622},"geometry":{"type":"Point","coordinates":[-105.0010452,39.7414131]}},{"type":"Feature","properties":{"year":2022,"instnm":"Community College of Philadelphia","CZ_label":"Philadelphia","inst_cmplt_tot":1825,"inst_green_cmplt_tot":230,"inst_perc_green_tot":0.1260274},"geometry":{"type":"Point","coordinates":[-75.1656036,39.9624596]}},{"type":"Feature","properties":{"year":2022,"instnm":"Community College of Rhode Island","CZ_label":"Providence","inst_cmplt_tot":1870,"inst_green_cmplt_tot":19,"inst_perc_green_tot":0.0101604},"geometry":{"type":"Point","coordinates":[-71.4815063,41.7128181]}},{"type":"Feature","properties":{"year":2022,"instnm":"Community College of Vermont","CZ_label":"Lebanon & Claremont","inst_cmplt_tot":515,"inst_green_cmplt_tot":49,"inst_perc_green_tot":0.0951456},"geometry":{"type":"Point","coordinates":[-72.5737762,44.2808113]}},{"type":"Feature","properties":{"year":2022,"instnm":"Compton College","CZ_label":"Los Angeles","inst_cmplt_tot":444,"inst_green_cmplt_tot":38,"inst_perc_green_tot":0.0855856},"geometry":{"type":"Point","coordinates":[-118.209465,33.8782272]}},{"type":"Feature","properties":{"year":2022,"instnm":"Connors State College","CZ_label":"Muskogee","inst_cmplt_tot":555,"inst_green_cmplt_tot":83,"inst_perc_green_tot":0.1495495},"geometry":{"type":"Point","coordinates":[-95.3195419,35.4928741]}},{"type":"Feature","properties":{"year":2022,"instnm":"Contra Costa College","CZ_label":"San Francisco","inst_cmplt_tot":740,"inst_green_cmplt_tot":56,"inst_perc_green_tot":0.0756757},"geometry":{"type":"Point","coordinates":[-122.3373795,37.9693794]}},{"type":"Feature","properties":{"year":2022,"instnm":"Copiah-Lincoln Community College","CZ_label":"Jackson","inst_cmplt_tot":1026,"inst_green_cmplt_tot":498,"inst_perc_green_tot":0.4853801},"geometry":{"type":"Point","coordinates":[-90.4002304,31.6927204]}},{"type":"Feature","properties":{"year":2022,"instnm":"Copper Mountain Community College","CZ_label":"Los Angeles","inst_cmplt_tot":247,"inst_green_cmplt_tot":0,"inst_perc_green_tot":0},"geometry":{"type":"Point","coordinates":[-116.2139359,34.1404648]}},{"type":"Feature","properties":{"year":2022,"instnm":"Cossatot Community College of the University of Arkansas","CZ_label":"Idabel & De Queen & Mena","inst_cmplt_tot":493,"inst_green_cmplt_tot":43,"inst_perc_green_tot":0.0872211},"geometry":{"type":"Point","coordinates":[-94.3673019,34.0433884]}},{"type":"Feature","properties":{"year":2022,"instnm":"Cosumnes River College","CZ_label":"Sacramento","inst_cmplt_tot":1568,"inst_green_cmplt_tot":309,"inst_perc_green_tot":0.1970663},"geometry":{"type":"Point","coordinates":[-121.423111,38.4529495]}},{"type":"Feature","properties":{"year":2022,"instnm":"County College of Morris","CZ_label":"Newark & Jersey City","inst_cmplt_tot":802,"inst_green_cmplt_tot":45,"inst_perc_green_tot":0.0561097},"geometry":{"type":"Point","coordinates":[-74.5798721,40.8591423]}},{"type":"Feature","properties":{"year":2022,"instnm":"Cowley County Community College","CZ_label":"Wichita","inst_cmplt_tot":446,"inst_green_cmplt_tot":70,"inst_perc_green_tot":0.1569507},"geometry":{"type":"Point","coordinates":[-97.0430756,37.0616684]}},{"type":"Feature","properties":{"year":2022,"instnm":"Crafton Hills College","CZ_label":"Los Angeles","inst_cmplt_tot":1248,"inst_green_cmplt_tot":191,"inst_perc_green_tot":0.1530449},"geometry":{"type":"Point","coordinates":[-117.1011734,34.0391769]}},{"type":"Feature","properties":{"year":2022,"instnm":"Craven Community College","CZ_label":"Jacksonville","inst_cmplt_tot":659,"inst_green_cmplt_tot":56,"inst_perc_green_tot":0.0849772},"geometry":{"type":"Point","coordinates":[-77.1022339,35.111515]}},{"type":"Feature","properties":{"year":2022,"instnm":"Crowder College","CZ_label":"Joplin","inst_cmplt_tot":765,"inst_green_cmplt_tot":84,"inst_perc_green_tot":0.1098039},"geometry":{"type":"Point","coordinates":[-94.3683167,36.8149071]}},{"type":"Feature","properties":{"year":2022,"instnm":"Cuesta College","CZ_label":"Santa Barbara","inst_cmplt_tot":2236,"inst_green_cmplt_tot":218,"inst_perc_green_tot":0.0974955},"geometry":{"type":"Point","coordinates":[-120.7422333,35.3312759]}},{"type":"Feature","properties":{"year":2022,"instnm":"Cuyahoga Community College District","CZ_label":"Cleveland","inst_cmplt_tot":2598,"inst_green_cmplt_tot":89,"inst_perc_green_tot":0.0342571},"geometry":{"type":"Point","coordinates":[-81.6835327,41.4949074]}},{"type":"Feature","properties":{"year":2022,"instnm":"Cuyamaca College","CZ_label":"San Diego","inst_cmplt_tot":958,"inst_green_cmplt_tot":186,"inst_perc_green_tot":0.1941545},"geometry":{"type":"Point","coordinates":[-116.9435043,32.7449532]}},{"type":"Feature","properties":{"year":2022,"instnm":"Cypress College","CZ_label":"Los Angeles","inst_cmplt_tot":2493,"inst_green_cmplt_tot":108,"inst_perc_green_tot":0.0433213},"geometry":{"type":"Point","coordinates":[-118.0251465,33.828331]}},{"type":"Feature","properties":{"year":2022,"instnm":"Dakota College at Bottineau","CZ_label":"Minot","inst_cmplt_tot":118,"inst_green_cmplt_tot":5,"inst_perc_green_tot":0.0423729},"geometry":{"type":"Point","coordinates":[-100.4411011,48.8325043]}},{"type":"Feature","properties":{"year":2022,"instnm":"Dakota County Technical College","CZ_label":"Minneapolis","inst_cmplt_tot":554,"inst_green_cmplt_tot":305,"inst_perc_green_tot":0.5505415},"geometry":{"type":"Point","coordinates":[-93.0780487,44.7372551]}},{"type":"Feature","properties":{"year":2022,"instnm":"Dallas College","CZ_label":"Dallas","inst_cmplt_tot":6286,"inst_green_cmplt_tot":148,"inst_perc_green_tot":0.0235444},"geometry":{"type":"Point","coordinates":[-96.7940369,32.7663193]}},{"type":"Feature","properties":{"year":2022,"instnm":"Danville Area Community College","CZ_label":"Lafayette","inst_cmplt_tot":338,"inst_green_cmplt_tot":38,"inst_perc_green_tot":0.112426},"geometry":{"type":"Point","coordinates":[-87.587883,40.1275406]}},{"type":"Feature","properties":{"year":2022,"instnm":"Danville Community College","CZ_label":"Burlington","inst_cmplt_tot":378,"inst_green_cmplt_tot":93,"inst_perc_green_tot":0.2460317},"geometry":{"type":"Point","coordinates":[-79.4088058,36.5652847]}},{"type":"Feature","properties":{"year":2022,"instnm":"Davidson-Davie Community College","CZ_label":"Winston-Salem","inst_cmplt_tot":449,"inst_green_cmplt_tot":72,"inst_perc_green_tot":0.1603563},"geometry":{"type":"Point","coordinates":[-80.1818695,35.8654709]}},{"type":"Feature","properties":{"year":2022,"instnm":"Dawson Community College","CZ_label":"Miles City","inst_cmplt_tot":114,"inst_green_cmplt_tot":21,"inst_perc_green_tot":0.1842105},"geometry":{"type":"Point","coordinates":[-104.7254868,47.0853958]}},{"type":"Feature","properties":{"year":2022,"instnm":"Daytona State College","CZ_label":"Deltona","inst_cmplt_tot":2607,"inst_green_cmplt_tot":249,"inst_perc_green_tot":0.0955121},"geometry":{"type":"Point","coordinates":[-81.0496826,29.2032757]}},{"type":"Feature","properties":{"year":2022,"instnm":"De Anza College","CZ_label":"San Jose","inst_cmplt_tot":2313,"inst_green_cmplt_tot":165,"inst_perc_green_tot":0.0713359},"geometry":{"type":"Point","coordinates":[-122.045784,37.3199158]}},{"type":"Feature","properties":{"year":2022,"instnm":"Del Mar College","CZ_label":"McAllen","inst_cmplt_tot":1102,"inst_green_cmplt_tot":240,"inst_perc_green_tot":0.2177858},"geometry":{"type":"Point","coordinates":[-97.4076233,27.7636185]}},{"type":"Feature","properties":{"year":2022,"instnm":"Delaware County Community College","CZ_label":"Philadelphia","inst_cmplt_tot":1323,"inst_green_cmplt_tot":121,"inst_perc_green_tot":0.0914588},"geometry":{"type":"Point","coordinates":[-75.3930817,39.9667244]}},{"type":"Feature","properties":{"year":2022,"instnm":"Delaware Technical Community College-Terry","CZ_label":"Dover","inst_cmplt_tot":1452,"inst_green_cmplt_tot":262,"inst_perc_green_tot":0.1804408},"geometry":{"type":"Point","coordinates":[-75.5601196,39.1983719]}},{"type":"Feature","properties":{"year":2022,"instnm":"Delgado Community College","CZ_label":"New Orleans","inst_cmplt_tot":1183,"inst_green_cmplt_tot":148,"inst_perc_green_tot":0.1251057},"geometry":{"type":"Point","coordinates":[-90.1039658,29.9851494]}},{"type":"Feature","properties":{"year":2022,"instnm":"Delta College","CZ_label":"Saginaw","inst_cmplt_tot":611,"inst_green_cmplt_tot":81,"inst_perc_green_tot":0.1325696},"geometry":{"type":"Point","coordinates":[-83.9859467,43.5594902]}},{"type":"Feature","properties":{"year":2022,"instnm":"Denmark Technical College","CZ_label":"Columbia","inst_cmplt_tot":76,"inst_green_cmplt_tot":3,"inst_perc_green_tot":0.0394737},"geometry":{"type":"Point","coordinates":[-81.1236267,33.3133545]}},{"type":"Feature","properties":{"year":2022,"instnm":"Des Moines Area Community College","CZ_label":"Des Moines","inst_cmplt_tot":2005,"inst_green_cmplt_tot":362,"inst_perc_green_tot":0.1805486},"geometry":{"type":"Point","coordinates":[-93.6115952,41.7073479]}},{"type":"Feature","properties":{"year":2022,"instnm":"Diablo Valley College","CZ_label":"San Francisco","inst_cmplt_tot":2658,"inst_green_cmplt_tot":442,"inst_perc_green_tot":0.1662904},"geometry":{"type":"Point","coordinates":[-122.073143,37.9685173]}},{"type":"Feature","properties":{"year":2022,"instnm":"Dine College","CZ_label":"Gallup","inst_cmplt_tot":121,"inst_green_cmplt_tot":21,"inst_perc_green_tot":0.1735537},"geometry":{"type":"Point","coordinates":[-109.2168427,36.2933273]}},{"type":"Feature","properties":{"year":2022,"instnm":"Dodge City Community College","CZ_label":"Dodge City","inst_cmplt_tot":239,"inst_green_cmplt_tot":66,"inst_perc_green_tot":0.2761506},"geometry":{"type":"Point","coordinates":[-100.0374832,37.7768898]}},{"type":"Feature","properties":{"year":2022,"instnm":"Durham Technical Community College","CZ_label":"Raleigh","inst_cmplt_tot":489,"inst_green_cmplt_tot":11,"inst_perc_green_tot":0.0224949},"geometry":{"type":"Point","coordinates":[-78.8816986,35.9747696]}},{"type":"Feature","properties":{"year":2022,"instnm":"Dutchess Community College","CZ_label":"Poughkeepsie","inst_cmplt_tot":829,"inst_green_cmplt_tot":78,"inst_perc_green_tot":0.0940893},"geometry":{"type":"Point","coordinates":[-73.9046555,41.7242432]}},{"type":"Feature","properties":{"year":2022,"instnm":"Dyersburg State Community College","CZ_label":"Dyersburg","inst_cmplt_tot":311,"inst_green_cmplt_tot":6,"inst_perc_green_tot":0.0192926},"geometry":{"type":"Point","coordinates":[-89.3907928,36.0475655]}},{"type":"Feature","properties":{"year":2022,"instnm":"East Arkansas Community College","CZ_label":"Forrest City","inst_cmplt_tot":286,"inst_green_cmplt_tot":13,"inst_perc_green_tot":0.0454545},"geometry":{"type":"Point","coordinates":[-90.7677231,35.0416565]}},{"type":"Feature","properties":{"year":2022,"instnm":"East Central College","CZ_label":"St. Louis","inst_cmplt_tot":491,"inst_green_cmplt_tot":101,"inst_perc_green_tot":0.2057026},"geometry":{"type":"Point","coordinates":[-90.9780884,38.4318466]}},{"type":"Feature","properties":{"year":2022,"instnm":"East Central Community College","CZ_label":"Meridian","inst_cmplt_tot":503,"inst_green_cmplt_tot":86,"inst_perc_green_tot":0.1709742},"geometry":{"type":"Point","coordinates":[-89.1137085,32.4411621]}},{"type":"Feature","properties":{"year":2022,"instnm":"East Los Angeles College","CZ_label":"Los Angeles","inst_cmplt_tot":3117,"inst_green_cmplt_tot":187,"inst_perc_green_tot":0.0599936},"geometry":{"type":"Point","coordinates":[-118.1487885,34.0405312]}},{"type":"Feature","properties":{"year":2022,"instnm":"East Mississippi Community College","CZ_label":"Meridian","inst_cmplt_tot":1040,"inst_green_cmplt_tot":393,"inst_perc_green_tot":0.3778846},"geometry":{"type":"Point","coordinates":[-88.4835129,32.830246]}},{"type":"Feature","properties":{"year":2022,"instnm":"Eastern Arizona College","CZ_label":"Deming","inst_cmplt_tot":476,"inst_green_cmplt_tot":6,"inst_perc_green_tot":0.012605},"geometry":{"type":"Point","coordinates":[-109.7623367,32.8436623]}},{"type":"Feature","properties":{"year":2022,"instnm":"Eastern Florida State College","CZ_label":"Palm Bay & Port St. Lucie","inst_cmplt_tot":3201,"inst_green_cmplt_tot":171,"inst_perc_green_tot":0.0534208},"geometry":{"type":"Point","coordinates":[-80.670784,28.170002]}},{"type":"Feature","properties":{"year":2022,"instnm":"Eastern Gateway Community College","CZ_label":"Wheeling","inst_cmplt_tot":6780,"inst_green_cmplt_tot":20,"inst_perc_green_tot":0.0029499},"geometry":{"type":"Point","coordinates":[-80.6688004,40.3762169]}},{"type":"Feature","properties":{"year":2022,"instnm":"Eastern Iowa Community College District","CZ_label":"Davenport","inst_cmplt_tot":824,"inst_green_cmplt_tot":53,"inst_perc_green_tot":0.0643204},"geometry":{"type":"Point","coordinates":[-90.5744553,41.5221786]}},{"type":"Feature","properties":{"year":2022,"instnm":"Eastern Maine Community College","CZ_label":"Bangor","inst_cmplt_tot":358,"inst_green_cmplt_tot":144,"inst_perc_green_tot":0.4022346},"geometry":{"type":"Point","coordinates":[-68.7444534,44.8260498]}},{"type":"Feature","properties":{"year":2022,"instnm":"Eastern New Mexico University Ruidoso Branch Community College","CZ_label":"Alamogordo","inst_cmplt_tot":27,"inst_green_cmplt_tot":0,"inst_perc_green_tot":0},"geometry":{"type":"Point","coordinates":[-105.6772766,33.3463745]}},{"type":"Feature","properties":{"year":2022,"instnm":"Eastern New Mexico University-Roswell Campus","CZ_label":"Roswell","inst_cmplt_tot":244,"inst_green_cmplt_tot":100,"inst_perc_green_tot":0.4098361},"geometry":{"type":"Point","coordinates":[-104.5257187,33.3131676]}},{"type":"Feature","properties":{"year":2022,"instnm":"Eastern Oklahoma State College","CZ_label":"McAlester","inst_cmplt_tot":230,"inst_green_cmplt_tot":65,"inst_perc_green_tot":0.2826087},"geometry":{"type":"Point","coordinates":[-95.3289948,34.9140778]}},{"type":"Feature","properties":{"year":2022,"instnm":"Eastern Shore Community College","CZ_label":"Chincoteague","inst_cmplt_tot":61,"inst_green_cmplt_tot":5,"inst_perc_green_tot":0.0819672},"geometry":{"type":"Point","coordinates":[-75.7511292,37.6396523]}},{"type":"Feature","properties":{"year":2022,"instnm":"Eastern West Virginia Community and Technical College","CZ_label":"Cumberland","inst_cmplt_tot":88,"inst_green_cmplt_tot":16,"inst_perc_green_tot":0.1818182},"geometry":{"type":"Point","coordinates":[-78.9325485,39.0755615]}},{"type":"Feature","properties":{"year":2022,"instnm":"Eastern Wyoming College","CZ_label":"Torrington","inst_cmplt_tot":159,"inst_green_cmplt_tot":44,"inst_perc_green_tot":0.2767296},"geometry":{"type":"Point","coordinates":[-104.1908264,42.0793533]}},{"type":"Feature","properties":{"year":2022,"instnm":"Edgecombe Community College","CZ_label":"Rocky Mount & Wilson","inst_cmplt_tot":143,"inst_green_cmplt_tot":0,"inst_perc_green_tot":0},"geometry":{"type":"Point","coordinates":[-77.571785,35.8798676]}},{"type":"Feature","properties":{"year":2022,"instnm":"Edison State Community College","CZ_label":"Dayton","inst_cmplt_tot":382,"inst_green_cmplt_tot":70,"inst_perc_green_tot":0.1832461},"geometry":{"type":"Point","coordinates":[-84.2123871,40.1576996]}},{"type":"Feature","properties":{"year":2022,"instnm":"Edmonds College","CZ_label":"Seattle","inst_cmplt_tot":880,"inst_green_cmplt_tot":225,"inst_perc_green_tot":0.2556818},"geometry":{"type":"Point","coordinates":[-122.3275986,47.8163757]}},{"type":"Feature","properties":{"year":2022,"instnm":"El Camino Community College District","CZ_label":"Los Angeles","inst_cmplt_tot":3411,"inst_green_cmplt_tot":439,"inst_perc_green_tot":0.1287013},"geometry":{"type":"Point","coordinates":[-118.3299103,33.8852272]}},{"type":"Feature","properties":{"year":2022,"instnm":"El Paso Community College","CZ_label":"El Paso","inst_cmplt_tot":3462,"inst_green_cmplt_tot":819,"inst_perc_green_tot":0.2365685},"geometry":{"type":"Point","coordinates":[-106.3736191,31.7733593]}},{"type":"Feature","properties":{"year":2022,"instnm":"Elgin Community College","CZ_label":"Chicago","inst_cmplt_tot":978,"inst_green_cmplt_tot":130,"inst_perc_green_tot":0.1329243},"geometry":{"type":"Point","coordinates":[-88.3219376,42.0180664]}},{"type":"Feature","properties":{"year":2022,"instnm":"Elizabethtown Community and Technical College","CZ_label":"Elizabethtown","inst_cmplt_tot":853,"inst_green_cmplt_tot":120,"inst_perc_green_tot":0.14068},"geometry":{"type":"Point","coordinates":[-85.8799286,37.6928596]}},{"type":"Feature","properties":{"year":2022,"instnm":"Ellsworth Community College","CZ_label":"Iowa Falls & Hampton","inst_cmplt_tot":155,"inst_green_cmplt_tot":24,"inst_perc_green_tot":0.1548387},"geometry":{"type":"Point","coordinates":[-93.2658539,42.527523]}},{"type":"Feature","properties":{"year":2022,"instnm":"Enterprise State Community College","CZ_label":"Dothan","inst_cmplt_tot":235,"inst_green_cmplt_tot":156,"inst_perc_green_tot":0.6638298},"geometry":{"type":"Point","coordinates":[-85.8369522,31.2974968]}},{"type":"Feature","properties":{"year":2022,"instnm":"Erie Community College","CZ_label":"Buffalo","inst_cmplt_tot":1556,"inst_green_cmplt_tot":321,"inst_perc_green_tot":0.2062982},"geometry":{"type":"Point","coordinates":[-78.8726807,42.8817711]}},{"type":"Feature","properties":{"year":2022,"instnm":"Essex County College","CZ_label":"Newark & Jersey City","inst_cmplt_tot":1060,"inst_green_cmplt_tot":206,"inst_perc_green_tot":0.1943396},"geometry":{"type":"Point","coordinates":[-74.1782303,40.7384453]}},{"type":"Feature","properties":{"year":2022,"instnm":"Estrella Mountain Community College","CZ_label":"Phoenix","inst_cmplt_tot":2223,"inst_green_cmplt_tot":205,"inst_perc_green_tot":0.0922177},"geometry":{"type":"Point","coordinates":[-112.3431549,33.4807205]}},{"type":"Feature","properties":{"year":2022,"instnm":"Everett Community College","CZ_label":"Seattle","inst_cmplt_tot":1052,"inst_green_cmplt_tot":111,"inst_perc_green_tot":0.1055133},"geometry":{"type":"Point","coordinates":[-122.2047348,48.0066261]}},{"type":"Feature","properties":{"year":2022,"instnm":"Evergreen Valley College","CZ_label":"San Jose","inst_cmplt_tot":856,"inst_green_cmplt_tot":94,"inst_perc_green_tot":0.1098131},"geometry":{"type":"Point","coordinates":[-121.7656097,37.3016701]}},{"type":"Feature","properties":{"year":2022,"instnm":"Fashion Institute of Technology","CZ_label":"New York","inst_cmplt_tot":1647,"inst_green_cmplt_tot":0,"inst_perc_green_tot":0},"geometry":{"type":"Point","coordinates":[-73.9947815,40.7473106]}},{"type":"Feature","properties":{"year":2022,"instnm":"Fayetteville Technical Community College","CZ_label":"Fayetteville","inst_cmplt_tot":1327,"inst_green_cmplt_tot":110,"inst_perc_green_tot":0.0828937},"geometry":{"type":"Point","coordinates":[-78.9265823,35.0688515]}},{"type":"Feature","properties":{"year":2022,"instnm":"Feather River Community College District","CZ_label":"Susanville","inst_cmplt_tot":255,"inst_green_cmplt_tot":42,"inst_perc_green_tot":0.1647059},"geometry":{"type":"Point","coordinates":[-120.9730682,39.9531021]}},{"type":"Feature","properties":{"year":2022,"instnm":"Finger Lakes Community College","CZ_label":"Rochester","inst_cmplt_tot":596,"inst_green_cmplt_tot":114,"inst_perc_green_tot":0.1912752},"geometry":{"type":"Point","coordinates":[-77.2417984,42.8675575]}},{"type":"Feature","properties":{"year":2022,"instnm":"Flathead Valley Community College","CZ_label":"Kalispell","inst_cmplt_tot":237,"inst_green_cmplt_tot":15,"inst_perc_green_tot":0.0632911},"geometry":{"type":"Point","coordinates":[-114.3272552,48.2273903]}},{"type":"Feature","properties":{"year":2022,"instnm":"Fletcher Technical Community College","CZ_label":"Houma","inst_cmplt_tot":395,"inst_green_cmplt_tot":142,"inst_perc_green_tot":0.3594937},"geometry":{"type":"Point","coordinates":[-90.8117065,29.6908836]}},{"type":"Feature","properties":{"year":2022,"instnm":"Flint Hills Technical College","CZ_label":"Emporia","inst_cmplt_tot":148,"inst_green_cmplt_tot":61,"inst_perc_green_tot":0.4121622},"geometry":{"type":"Point","coordinates":[-96.224144,38.4188805]}},{"type":"Feature","properties":{"year":2022,"instnm":"Florence-Darlington Technical College","CZ_label":"Myrtle Beach","inst_cmplt_tot":327,"inst_green_cmplt_tot":61,"inst_perc_green_tot":0.1865443},"geometry":{"type":"Point","coordinates":[-79.8146896,34.2438812]}},{"type":"Feature","properties":{"year":2022,"instnm":"Florida Gateway College","CZ_label":"Gainesville","inst_cmplt_tot":664,"inst_green_cmplt_tot":168,"inst_perc_green_tot":0.253012},"geometry":{"type":"Point","coordinates":[-82.5679016,30.1752987]}},{"type":"Feature","properties":{"year":2022,"instnm":"Florida SouthWestern State College","CZ_label":"Cape Coral","inst_cmplt_tot":2403,"inst_green_cmplt_tot":26,"inst_perc_green_tot":0.0108198},"geometry":{"type":"Point","coordinates":[-81.8871002,26.5524025]}},{"type":"Feature","properties":{"year":2022,"instnm":"Florida State College at Jacksonville","CZ_label":"Jacksonville","inst_cmplt_tot":3877,"inst_green_cmplt_tot":142,"inst_perc_green_tot":0.0366263},"geometry":{"type":"Point","coordinates":[-81.6599045,30.3349171]}},{"type":"Feature","properties":{"year":2022,"instnm":"Folsom Lake College","CZ_label":"Sacramento","inst_cmplt_tot":1081,"inst_green_cmplt_tot":123,"inst_perc_green_tot":0.1137835},"geometry":{"type":"Point","coordinates":[-121.1274872,38.6613731]}},{"type":"Feature","properties":{"year":2022,"instnm":"Fond du Lac Tribal and Community College","CZ_label":"Duluth","inst_cmplt_tot":123,"inst_green_cmplt_tot":0,"inst_perc_green_tot":0},"geometry":{"type":"Point","coordinates":[-92.4513245,46.6900673]}},{"type":"Feature","properties":{"year":2022,"instnm":"Foothill College","CZ_label":"San Jose","inst_cmplt_tot":1545,"inst_green_cmplt_tot":176,"inst_perc_green_tot":0.1139159},"geometry":{"type":"Point","coordinates":[-122.1279602,37.3616562]}},{"type":"Feature","properties":{"year":2022,"instnm":"Forsyth Technical Community College","CZ_label":"Winston-Salem","inst_cmplt_tot":1103,"inst_green_cmplt_tot":165,"inst_perc_green_tot":0.149592},"geometry":{"type":"Point","coordinates":[-80.2722168,36.0685387]}},{"type":"Feature","properties":{"year":2022,"instnm":"Fort Scott Community College","CZ_label":"Joplin","inst_cmplt_tot":256,"inst_green_cmplt_tot":70,"inst_perc_green_tot":0.2734375},"geometry":{"type":"Point","coordinates":[-94.715332,37.8162079]}},{"type":"Feature","properties":{"year":2022,"instnm":"Fox Valley Technical College","CZ_label":"Appleton","inst_cmplt_tot":1493,"inst_green_cmplt_tot":526,"inst_perc_green_tot":0.3523108},"geometry":{"type":"Point","coordinates":[-88.458931,44.2831726]}},{"type":"Feature","properties":{"year":2022,"instnm":"Frank Phillips College","CZ_label":"Amarillo","inst_cmplt_tot":186,"inst_green_cmplt_tot":36,"inst_perc_green_tot":0.1935484},"geometry":{"type":"Point","coordinates":[-101.4060059,35.6577797]}},{"type":"Feature","properties":{"year":2022,"instnm":"Frederick Community College","CZ_label":"Hagerstown & Frederick","inst_cmplt_tot":697,"inst_green_cmplt_tot":113,"inst_perc_green_tot":0.1621234},"geometry":{"type":"Point","coordinates":[-77.4178467,39.45224]}},{"type":"Feature","properties":{"year":2022,"instnm":"Fresno City College","CZ_label":"Fresno","inst_cmplt_tot":2689,"inst_green_cmplt_tot":734,"inst_perc_green_tot":0.2729639},"geometry":{"type":"Point","coordinates":[-119.7960968,36.7681656]}},{"type":"Feature","properties":{"year":2022,"instnm":"Front Range Community College","CZ_label":"Denver","inst_cmplt_tot":1661,"inst_green_cmplt_tot":108,"inst_perc_green_tot":0.0650211},"geometry":{"type":"Point","coordinates":[-105.0380707,39.9014511]}},{"type":"Feature","properties":{"year":2022,"instnm":"Frontier Community College","CZ_label":"Olney","inst_cmplt_tot":105,"inst_green_cmplt_tot":14,"inst_perc_green_tot":0.1333333},"geometry":{"type":"Point","coordinates":[-88.3921967,38.3802719]}},{"type":"Feature","properties":{"year":2022,"instnm":"Fullerton College","CZ_label":"Los Angeles","inst_cmplt_tot":4927,"inst_green_cmplt_tot":362,"inst_perc_green_tot":0.0734727},"geometry":{"type":"Point","coordinates":[-117.9182587,33.875515]}},{"type":"Feature","properties":{"year":2022,"instnm":"Fulton-Montgomery Community College","CZ_label":"Albany","inst_cmplt_tot":172,"inst_green_cmplt_tot":22,"inst_perc_green_tot":0.127907},"geometry":{"type":"Point","coordinates":[-74.297493,42.9838066]}},{"type":"Feature","properties":{"year":2022,"instnm":"Gadsden State Community College","CZ_label":"Gadsden","inst_cmplt_tot":815,"inst_green_cmplt_tot":247,"inst_perc_green_tot":0.3030675},"geometry":{"type":"Point","coordinates":[-85.9914398,33.9939995]}},{"type":"Feature","properties":{"year":2022,"instnm":"Galveston College","CZ_label":"Houston","inst_cmplt_tot":397,"inst_green_cmplt_tot":30,"inst_perc_green_tot":0.0755668},"geometry":{"type":"Point","coordinates":[-94.8076859,29.2847347]}},{"type":"Feature","properties":{"year":2022,"instnm":"Garden City Community College","CZ_label":"Garden City","inst_cmplt_tot":359,"inst_green_cmplt_tot":73,"inst_perc_green_tot":0.2033426},"geometry":{"type":"Point","coordinates":[-100.8491592,37.9705124]}},{"type":"Feature","properties":{"year":2022,"instnm":"Garrett College","CZ_label":"Cumberland","inst_cmplt_tot":98,"inst_green_cmplt_tot":8,"inst_perc_green_tot":0.0816327},"geometry":{"type":"Point","coordinates":[-79.342926,39.5604935]}},{"type":"Feature","properties":{"year":2022,"instnm":"Gaston College","CZ_label":"Charlotte","inst_cmplt_tot":614,"inst_green_cmplt_tot":23,"inst_perc_green_tot":0.0374593},"geometry":{"type":"Point","coordinates":[-81.1885223,35.3120499]}},{"type":"Feature","properties":{"year":2022,"instnm":"GateWay Community College","CZ_label":"Phoenix","inst_cmplt_tot":849,"inst_green_cmplt_tot":106,"inst_perc_green_tot":0.1248528},"geometry":{"type":"Point","coordinates":[-111.9970779,33.4496841]}},{"type":"Feature","properties":{"year":2022,"instnm":"GateWay Community College-Central City","CZ_label":"Phoenix","inst_cmplt_tot":21,"inst_green_cmplt_tot":0,"inst_perc_green_tot":0},"geometry":{"type":"Point","coordinates":[-112.0549088,33.4356842]}},{"type":"Feature","properties":{"year":2022,"instnm":"Gateway Community College","CZ_label":"Hartford & Bridgeport","inst_cmplt_tot":603,"inst_green_cmplt_tot":44,"inst_perc_green_tot":0.0729685},"geometry":{"type":"Point","coordinates":[-72.927681,41.3037834]}},{"type":"Feature","properties":{"year":2022,"instnm":"Gateway Community and Technical College","CZ_label":"Cincinnati","inst_cmplt_tot":576,"inst_green_cmplt_tot":151,"inst_perc_green_tot":0.2621528},"geometry":{"type":"Point","coordinates":[-84.6334763,38.9606361]}},{"type":"Feature","properties":{"year":2022,"instnm":"Gateway Technical College","CZ_label":"Chicago","inst_cmplt_tot":823,"inst_green_cmplt_tot":165,"inst_perc_green_tot":0.200486},"geometry":{"type":"Point","coordinates":[-87.8466949,42.6056786]}},{"type":"Feature","properties":{"year":2022,"instnm":"Gavilan College","CZ_label":"San Jose","inst_cmplt_tot":524,"inst_green_cmplt_tot":65,"inst_perc_green_tot":0.1240458},"geometry":{"type":"Point","coordinates":[-121.5698395,36.9726257]}},{"type":"Feature","properties":{"year":2022,"instnm":"Genesee Community College","CZ_label":"Buffalo","inst_cmplt_tot":414,"inst_green_cmplt_tot":6,"inst_perc_green_tot":0.0144928},"geometry":{"type":"Point","coordinates":[-78.1380768,43.0170174]}},{"type":"Feature","properties":{"year":2022,"instnm":"George C Wallace Community College-Dothan","CZ_label":"Dothan","inst_cmplt_tot":549,"inst_green_cmplt_tot":53,"inst_perc_green_tot":0.0965392},"geometry":{"type":"Point","coordinates":[-85.4658356,31.3152733]}},{"type":"Feature","properties":{"year":2022,"instnm":"George C Wallace State Community College-Hanceville","CZ_label":"Birmingham","inst_cmplt_tot":1124,"inst_green_cmplt_tot":135,"inst_perc_green_tot":0.1201068},"geometry":{"type":"Point","coordinates":[-86.7819366,34.0724373]}},{"type":"Feature","properties":{"year":2022,"instnm":"George C Wallace State Community College-Selma","CZ_label":"Tuscaloosa","inst_cmplt_tot":310,"inst_green_cmplt_tot":81,"inst_perc_green_tot":0.2612903},"geometry":{"type":"Point","coordinates":[-87.0132904,32.4459152]}},{"type":"Feature","properties":{"year":2022,"instnm":"Georgia Northwestern Technical College","CZ_label":"Dalton","inst_cmplt_tot":421,"inst_green_cmplt_tot":88,"inst_perc_green_tot":0.2090261},"geometry":{"type":"Point","coordinates":[-85.1713638,34.2246742]}},{"type":"Feature","properties":{"year":2022,"instnm":"Georgia Piedmont Technical College","CZ_label":"Atlanta","inst_cmplt_tot":186,"inst_green_cmplt_tot":73,"inst_perc_green_tot":0.3924731},"geometry":{"type":"Point","coordinates":[-84.2345047,33.7898979]}},{"type":"Feature","properties":{"year":2022,"instnm":"Germanna Community College","CZ_label":"Culpeper","inst_cmplt_tot":1697,"inst_green_cmplt_tot":60,"inst_perc_green_tot":0.0353565},"geometry":{"type":"Point","coordinates":[-77.7801208,38.3755302]}},{"type":"Feature","properties":{"year":2022,"instnm":"Glen Oaks Community College","CZ_label":"South Bend","inst_cmplt_tot":199,"inst_green_cmplt_tot":24,"inst_perc_green_tot":0.120603},"geometry":{"type":"Point","coordinates":[-85.4969254,41.8925056]}},{"type":"Feature","properties":{"year":2022,"instnm":"Glendale Community College","CZ_label":"Phoenix","inst_cmplt_tot":2506,"inst_green_cmplt_tot":310,"inst_perc_green_tot":0.1237031},"geometry":{"type":"Point","coordinates":[-112.1907349,33.5702248]}},{"type":"Feature","properties":{"year":2022,"instnm":"Glendale Community College","CZ_label":"Los Angeles","inst_cmplt_tot":914,"inst_green_cmplt_tot":161,"inst_perc_green_tot":0.1761488},"geometry":{"type":"Point","coordinates":[-118.2276688,34.16745]}},{"type":"Feature","properties":{"year":2022,"instnm":"Gogebic Community College","CZ_label":"Ironwood","inst_cmplt_tot":174,"inst_green_cmplt_tot":41,"inst_perc_green_tot":0.2356322},"geometry":{"type":"Point","coordinates":[-90.1655884,46.4718933]}},{"type":"Feature","properties":{"year":2022,"instnm":"Golden West College","CZ_label":"Los Angeles","inst_cmplt_tot":3933,"inst_green_cmplt_tot":288,"inst_perc_green_tot":0.0732265},"geometry":{"type":"Point","coordinates":[-118.0025711,33.7325325]}},{"type":"Feature","properties":{"year":2022,"instnm":"Grand Rapids Community College","CZ_label":"Grand Rapids","inst_cmplt_tot":1333,"inst_green_cmplt_tot":158,"inst_perc_green_tot":0.1185296},"geometry":{"type":"Point","coordinates":[-85.6656265,42.9670753]}},{"type":"Feature","properties":{"year":2022,"instnm":"Grays Harbor College","CZ_label":"Aberdeen","inst_cmplt_tot":272,"inst_green_cmplt_tot":52,"inst_perc_green_tot":0.1911765},"geometry":{"type":"Point","coordinates":[-123.8030701,46.9538803]}},{"type":"Feature","properties":{"year":2022,"instnm":"Grayson College","CZ_label":"Dallas","inst_cmplt_tot":883,"inst_green_cmplt_tot":104,"inst_perc_green_tot":0.1177803},"geometry":{"type":"Point","coordinates":[-96.6338882,33.7057419]}},{"type":"Feature","properties":{"year":2022,"instnm":"Great Basin College","CZ_label":"Elko","inst_cmplt_tot":680,"inst_green_cmplt_tot":399,"inst_perc_green_tot":0.5867647},"geometry":{"type":"Point","coordinates":[-115.7672729,40.8434296]}},{"type":"Feature","properties":{"year":2022,"instnm":"Great Bay Community College","CZ_label":"Nashua","inst_cmplt_tot":265,"inst_green_cmplt_tot":47,"inst_perc_green_tot":0.1773585},"geometry":{"type":"Point","coordinates":[-70.7989655,43.072094]}},{"type":"Feature","properties":{"year":2022,"instnm":"Great Falls College Montana State University","CZ_label":"Great Falls","inst_cmplt_tot":225,"inst_green_cmplt_tot":6,"inst_perc_green_tot":0.0266667},"geometry":{"type":"Point","coordinates":[-111.2695618,47.4855804]}},{"type":"Feature","properties":{"year":2022,"instnm":"Green River College","CZ_label":"Seattle","inst_cmplt_tot":1534,"inst_green_cmplt_tot":326,"inst_perc_green_tot":0.2125163},"geometry":{"type":"Point","coordinates":[-122.1758194,47.3136482]}},{"type":"Feature","properties":{"year":2022,"instnm":"Greenfield Community College","CZ_label":"Springfield","inst_cmplt_tot":208,"inst_green_cmplt_tot":33,"inst_perc_green_tot":0.1586538},"geometry":{"type":"Point","coordinates":[-72.6309738,42.5995102]}},{"type":"Feature","properties":{"year":2022,"instnm":"Greenville Technical College","CZ_label":"Greenville","inst_cmplt_tot":714,"inst_green_cmplt_tot":190,"inst_perc_green_tot":0.2661064},"geometry":{"type":"Point","coordinates":[-82.3711777,34.8262138]}},{"type":"Feature","properties":{"year":2022,"instnm":"Grossmont College","CZ_label":"San Diego","inst_cmplt_tot":2908,"inst_green_cmplt_tot":249,"inst_perc_green_tot":0.0856259},"geometry":{"type":"Point","coordinates":[-117.006279,32.8152466]}},{"type":"Feature","properties":{"year":2022,"instnm":"Guam Community College","CZ_label":null,"inst_cmplt_tot":171,"inst_green_cmplt_tot":20,"inst_perc_green_tot":0.1169591},"geometry":{"type":"Point","coordinates":[144.8089447,13.440649]}},{"type":"Feature","properties":{"year":2022,"instnm":"Guilford Technical Community College","CZ_label":"Winston-Salem","inst_cmplt_tot":1397,"inst_green_cmplt_tot":227,"inst_perc_green_tot":0.1624911},"geometry":{"type":"Point","coordinates":[-79.9206238,35.9984589]}},{"type":"Feature","properties":{"year":2022,"instnm":"Gulf Coast State College","CZ_label":"Panama City","inst_cmplt_tot":611,"inst_green_cmplt_tot":6,"inst_perc_green_tot":0.00982},"geometry":{"type":"Point","coordinates":[-85.7279205,30.1855412]}},{"type":"Feature","properties":{"year":2022,"instnm":"Gwinnett Technical College","CZ_label":"Gainesville","inst_cmplt_tot":653,"inst_green_cmplt_tot":204,"inst_perc_green_tot":0.3124043},"geometry":{"type":"Point","coordinates":[-84.0662231,33.9627647]}},{"type":"Feature","properties":{"year":2022,"instnm":"H Councill Trenholm State Community College","CZ_label":"Montgomery","inst_cmplt_tot":122,"inst_green_cmplt_tot":3,"inst_perc_green_tot":0.0245902},"geometry":{"type":"Point","coordinates":[-86.3430557,32.3501091]}},{"type":"Feature","properties":{"year":2022,"instnm":"Hagerstown Community College","CZ_label":"Hagerstown & Frederick","inst_cmplt_tot":658,"inst_green_cmplt_tot":48,"inst_perc_green_tot":0.0729483},"geometry":{"type":"Point","coordinates":[-77.6673813,39.6310081]}},{"type":"Feature","properties":{"year":2022,"instnm":"Halifax Community College","CZ_label":"Roanoke Rapids","inst_cmplt_tot":180,"inst_green_cmplt_tot":3,"inst_perc_green_tot":0.0166667},"geometry":{"type":"Point","coordinates":[-77.6176834,36.4277115]}},{"type":"Feature","properties":{"year":2022,"instnm":"Harford Community College","CZ_label":"Baltimore","inst_cmplt_tot":872,"inst_green_cmplt_tot":73,"inst_perc_green_tot":0.0837156},"geometry":{"type":"Point","coordinates":[-76.2828445,39.5613098]}},{"type":"Feature","properties":{"year":2022,"instnm":"Harrisburg Area Community College","CZ_label":"Harrisburg & Lancaster","inst_cmplt_tot":1889,"inst_green_cmplt_tot":187,"inst_perc_green_tot":0.0989942},"geometry":{"type":"Point","coordinates":[-76.8864059,40.2967758]}},{"type":"Feature","properties":{"year":2022,"instnm":"Hartnell College","CZ_label":"San Jose","inst_cmplt_tot":1753,"inst_green_cmplt_tot":311,"inst_perc_green_tot":0.1774102},"geometry":{"type":"Point","coordinates":[-121.6660538,36.6750908]}},{"type":"Feature","properties":{"year":2022,"instnm":"Hawaii Community College","CZ_label":"Hilo","inst_cmplt_tot":397,"inst_green_cmplt_tot":84,"inst_perc_green_tot":0.2115869},"geometry":{"type":"Point","coordinates":[-155.0696564,19.7047558]}},{"type":"Feature","properties":{"year":2022,"instnm":"Hawkeye Community College","CZ_label":"Waterloo","inst_cmplt_tot":763,"inst_green_cmplt_tot":229,"inst_perc_green_tot":0.3001311},"geometry":{"type":"Point","coordinates":[-92.3306351,42.4300041]}},{"type":"Feature","properties":{"year":2022,"instnm":"Haywood Community College","CZ_label":"Waynesville","inst_cmplt_tot":195,"inst_green_cmplt_tot":26,"inst_perc_green_tot":0.1333333},"geometry":{"type":"Point","coordinates":[-82.9279175,35.5259056]}},{"type":"Feature","properties":{"year":2022,"instnm":"Hazard Community and Technical College","CZ_label":"Hazard","inst_cmplt_tot":313,"inst_green_cmplt_tot":22,"inst_perc_green_tot":0.0702875},"geometry":{"type":"Point","coordinates":[-83.1756439,37.2348976]}},{"type":"Feature","properties":{"year":2022,"instnm":"Heartland Community College","CZ_label":"Champaign & Bloomington","inst_cmplt_tot":321,"inst_green_cmplt_tot":9,"inst_perc_green_tot":0.0280374},"geometry":{"type":"Point","coordinates":[-89.0147781,40.5330086]}},{"type":"Feature","properties":{"year":2022,"instnm":"Helena College University of Montana","CZ_label":"Bozeman","inst_cmplt_tot":148,"inst_green_cmplt_tot":73,"inst_perc_green_tot":0.4932432},"geometry":{"type":"Point","coordinates":[-112.016037,46.5953827]}},{"type":"Feature","properties":{"year":2022,"instnm":"Henderson Community College","CZ_label":"Henderson","inst_cmplt_tot":172,"inst_green_cmplt_tot":0,"inst_perc_green_tot":0},"geometry":{"type":"Point","coordinates":[-87.6500931,37.7976875]}},{"type":"Feature","properties":{"year":2022,"instnm":"Hennepin Technical College","CZ_label":"Minneapolis","inst_cmplt_tot":730,"inst_green_cmplt_tot":450,"inst_perc_green_tot":0.6164384},"geometry":{"type":"Point","coordinates":[-93.3977585,45.0965347]}},{"type":"Feature","properties":{"year":2022,"instnm":"Henry Ford College","CZ_label":"Detroit","inst_cmplt_tot":1220,"inst_green_cmplt_tot":182,"inst_perc_green_tot":0.1491803},"geometry":{"type":"Point","coordinates":[-83.2360535,42.3246384]}},{"type":"Feature","properties":{"year":2022,"instnm":"Herkimer County Community College","CZ_label":"Syracuse","inst_cmplt_tot":316,"inst_green_cmplt_tot":26,"inst_perc_green_tot":0.0822785},"geometry":{"type":"Point","coordinates":[-75.0072098,43.0327377]}},{"type":"Feature","properties":{"year":2022,"instnm":"Highland Community College","CZ_label":"Rockford","inst_cmplt_tot":282,"inst_green_cmplt_tot":42,"inst_perc_green_tot":0.1489362},"geometry":{"type":"Point","coordinates":[-89.6734238,42.2833443]}},{"type":"Feature","properties":{"year":2022,"instnm":"Highland Community College","CZ_label":"St. Joseph","inst_cmplt_tot":334,"inst_green_cmplt_tot":58,"inst_perc_green_tot":0.1736527},"geometry":{"type":"Point","coordinates":[-95.2715378,39.8599854]}},{"type":"Feature","properties":{"year":2022,"instnm":"Highlands College of Montana Tech","CZ_label":"Missoula","inst_cmplt_tot":180,"inst_green_cmplt_tot":158,"inst_perc_green_tot":0.8777778},"geometry":{"type":"Point","coordinates":[-112.5093613,45.9381447]}},{"type":"Feature","properties":{"year":2022,"instnm":"Highline College","CZ_label":"Seattle","inst_cmplt_tot":936,"inst_green_cmplt_tot":171,"inst_perc_green_tot":0.1826923},"geometry":{"type":"Point","coordinates":[-122.3030624,47.3882294]}},{"type":"Feature","properties":{"year":2022,"instnm":"Hill College","CZ_label":"Killeen","inst_cmplt_tot":405,"inst_green_cmplt_tot":73,"inst_perc_green_tot":0.1802469},"geometry":{"type":"Point","coordinates":[-97.0883331,32.0109291]}},{"type":"Feature","properties":{"year":2022,"instnm":"Hillsborough Community College","CZ_label":"Tampa","inst_cmplt_tot":4074,"inst_green_cmplt_tot":281,"inst_perc_green_tot":0.068974},"geometry":{"type":"Point","coordinates":[-82.4562531,27.9348888]}},{"type":"Feature","properties":{"year":2022,"instnm":"Hinds Community College","CZ_label":"Jackson","inst_cmplt_tot":3128,"inst_green_cmplt_tot":728,"inst_perc_green_tot":0.2327366},"geometry":{"type":"Point","coordinates":[-90.4161148,32.2561073]}},{"type":"Feature","properties":{"year":2022,"instnm":"Hocking College","CZ_label":"Athens","inst_cmplt_tot":548,"inst_green_cmplt_tot":249,"inst_perc_green_tot":0.4543796},"geometry":{"type":"Point","coordinates":[-82.2207947,39.4419556]}},{"type":"Feature","properties":{"year":2022,"instnm":"Holmes Community College","CZ_label":"Jackson","inst_cmplt_tot":1353,"inst_green_cmplt_tot":240,"inst_perc_green_tot":0.1773836},"geometry":{"type":"Point","coordinates":[-89.915802,32.969986]}},{"type":"Feature","properties":{"year":2022,"instnm":"Holyoke Community College","CZ_label":"Springfield","inst_cmplt_tot":593,"inst_green_cmplt_tot":128,"inst_perc_green_tot":0.2158516},"geometry":{"type":"Point","coordinates":[-72.6512527,42.1947823]}},{"type":"Feature","properties":{"year":2022,"instnm":"Honolulu Community College","CZ_label":"Honolulu","inst_cmplt_tot":559,"inst_green_cmplt_tot":370,"inst_perc_green_tot":0.6618962},"geometry":{"type":"Point","coordinates":[-157.8699951,21.321785]}},{"type":"Feature","properties":{"year":2022,"instnm":"Hopkinsville Community College","CZ_label":"Clarksville","inst_cmplt_tot":338,"inst_green_cmplt_tot":4,"inst_perc_green_tot":0.0118343},"geometry":{"type":"Point","coordinates":[-87.4882965,36.8826523]}},{"type":"Feature","properties":{"year":2022,"instnm":"Horry-Georgetown Technical College","CZ_label":"Myrtle Beach","inst_cmplt_tot":797,"inst_green_cmplt_tot":64,"inst_perc_green_tot":0.0803011},"geometry":{"type":"Point","coordinates":[-79.0036087,33.7961388]}},{"type":"Feature","properties":{"year":2022,"instnm":"Housatonic Community College","CZ_label":"Hartford & Bridgeport","inst_cmplt_tot":361,"inst_green_cmplt_tot":64,"inst_perc_green_tot":0.1772853},"geometry":{"type":"Point","coordinates":[-73.1910019,41.1752281]}},{"type":"Feature","properties":{"year":2022,"instnm":"Houston Community College","CZ_label":"Houston","inst_cmplt_tot":5787,"inst_green_cmplt_tot":2235,"inst_perc_green_tot":0.3862105},"geometry":{"type":"Point","coordinates":[-95.3773193,29.7421131]}},{"type":"Feature","properties":{"year":2022,"instnm":"Howard College","CZ_label":"Odessa & Midland","inst_cmplt_tot":543,"inst_green_cmplt_tot":57,"inst_perc_green_tot":0.1049724},"geometry":{"type":"Point","coordinates":[-101.4501038,32.2522926]}},{"type":"Feature","properties":{"year":2022,"instnm":"Howard Community College","CZ_label":"Baltimore","inst_cmplt_tot":692,"inst_green_cmplt_tot":42,"inst_perc_green_tot":0.0606936},"geometry":{"type":"Point","coordinates":[-76.8779602,39.2136345]}},{"type":"Feature","properties":{"year":2022,"instnm":"Hudson County Community College","CZ_label":"Newark & Jersey City","inst_cmplt_tot":1267,"inst_green_cmplt_tot":220,"inst_perc_green_tot":0.1736385},"geometry":{"type":"Point","coordinates":[-74.0629044,40.7303009]}},{"type":"Feature","properties":{"year":2022,"instnm":"Hudson Valley Community College","CZ_label":"Albany","inst_cmplt_tot":1506,"inst_green_cmplt_tot":417,"inst_perc_green_tot":0.2768924},"geometry":{"type":"Point","coordinates":[-73.6837311,42.6965103]}},{"type":"Feature","properties":{"year":2022,"instnm":"Hutchinson Community College","CZ_label":"Hutchinson","inst_cmplt_tot":924,"inst_green_cmplt_tot":124,"inst_perc_green_tot":0.1341991},"geometry":{"type":"Point","coordinates":[-97.9213486,38.0680351]}},{"type":"Feature","properties":{"year":2022,"instnm":"Illinois Central College","CZ_label":"Peoria","inst_cmplt_tot":1104,"inst_green_cmplt_tot":207,"inst_perc_green_tot":0.1875},"geometry":{"type":"Point","coordinates":[-89.5248489,40.7072334]}},{"type":"Feature","properties":{"year":2022,"instnm":"Illinois Valley Community College","CZ_label":"Peoria","inst_cmplt_tot":484,"inst_green_cmplt_tot":89,"inst_perc_green_tot":0.1838843},"geometry":{"type":"Point","coordinates":[-89.1008835,41.3074417]}},{"type":"Feature","properties":{"year":2022,"instnm":"Imperial Valley College","CZ_label":"Yuma","inst_cmplt_tot":1028,"inst_green_cmplt_tot":106,"inst_perc_green_tot":0.1031128},"geometry":{"type":"Point","coordinates":[-115.5035629,32.8272095]}},{"type":"Feature","properties":{"year":2022,"instnm":"Independence Community College","CZ_label":"Bartlesville","inst_cmplt_tot":123,"inst_green_cmplt_tot":3,"inst_perc_green_tot":0.0243902},"geometry":{"type":"Point","coordinates":[-95.72052,37.1956139]}},{"type":"Feature","properties":{"year":2022,"instnm":"Indian Hills Community College","CZ_label":"Ottumwa","inst_cmplt_tot":697,"inst_green_cmplt_tot":197,"inst_perc_green_tot":0.2826399},"geometry":{"type":"Point","coordinates":[-92.3947372,41.045105]}},{"type":"Feature","properties":{"year":2022,"instnm":"Indian River State College","CZ_label":"Palm Bay & Port St. Lucie","inst_cmplt_tot":2965,"inst_green_cmplt_tot":209,"inst_perc_green_tot":0.070489},"geometry":{"type":"Point","coordinates":[-80.3586807,27.42416]}},{"type":"Feature","properties":{"year":2022,"instnm":"Inver Hills Community College","CZ_label":"Minneapolis","inst_cmplt_tot":225,"inst_green_cmplt_tot":18,"inst_perc_green_tot":0.08},"geometry":{"type":"Point","coordinates":[-93.0552521,44.828598]}},{"type":"Feature","properties":{"year":2022,"instnm":"Iowa Central Community College","CZ_label":"Fort Dodge","inst_cmplt_tot":993,"inst_green_cmplt_tot":247,"inst_perc_green_tot":0.2487412},"geometry":{"type":"Point","coordinates":[-94.2029877,42.4900665]}},{"type":"Feature","properties":{"year":2022,"instnm":"Iowa Lakes Community College","CZ_label":"Spencer","inst_cmplt_tot":330,"inst_green_cmplt_tot":109,"inst_perc_green_tot":0.330303},"geometry":{"type":"Point","coordinates":[-94.8356628,43.4013748]}},{"type":"Feature","properties":{"year":2022,"instnm":"Iowa Western Community College","CZ_label":"Omaha","inst_cmplt_tot":952,"inst_green_cmplt_tot":187,"inst_perc_green_tot":0.1964286},"geometry":{"type":"Point","coordinates":[-95.7979736,41.2721672]}},{"type":"Feature","properties":{"year":2022,"instnm":"Irvine Valley College","CZ_label":"Los Angeles","inst_cmplt_tot":4031,"inst_green_cmplt_tot":621,"inst_perc_green_tot":0.1540561},"geometry":{"type":"Point","coordinates":[-117.7775421,33.6753807]}},{"type":"Feature","properties":{"year":2022,"instnm":"Isothermal Community College","CZ_label":"Spartanburg","inst_cmplt_tot":412,"inst_green_cmplt_tot":73,"inst_perc_green_tot":0.1771845},"geometry":{"type":"Point","coordinates":[-81.9118576,35.3367271]}},{"type":"Feature","properties":{"year":2022,"instnm":"Itawamba Community College","CZ_label":"Tupelo","inst_cmplt_tot":1144,"inst_green_cmplt_tot":317,"inst_perc_green_tot":0.2770979},"geometry":{"type":"Point","coordinates":[-88.4120712,34.2765198]}},{"type":"Feature","properties":{"year":2022,"instnm":"Ivy Tech Community College","CZ_label":"Indianapolis","inst_cmplt_tot":9354,"inst_green_cmplt_tot":2676,"inst_perc_green_tot":0.2860808},"geometry":{"type":"Point","coordinates":[-86.1582108,39.8037529]}},{"type":"Feature","properties":{"year":2022,"instnm":"J F Ingram State Technical College","CZ_label":"Montgomery","inst_cmplt_tot":39,"inst_green_cmplt_tot":27,"inst_perc_green_tot":0.6923077},"geometry":{"type":"Point","coordinates":[-86.3923721,32.5823135]}},{"type":"Feature","properties":{"year":2022,"instnm":"J Sargeant Reynolds Community College","CZ_label":"Richmond","inst_cmplt_tot":1098,"inst_green_cmplt_tot":107,"inst_perc_green_tot":0.0974499},"geometry":{"type":"Point","coordinates":[-77.4739151,37.636837]}},{"type":"Feature","properties":{"year":2022,"instnm":"J. F. Drake State Community and Technical College","CZ_label":"Huntsville","inst_cmplt_tot":76,"inst_green_cmplt_tot":9,"inst_perc_green_tot":0.1184211},"geometry":{"type":"Point","coordinates":[-86.5728836,34.7718582]}},{"type":"Feature","properties":{"year":2022,"instnm":"Jackson College","CZ_label":"Jackson","inst_cmplt_tot":361,"inst_green_cmplt_tot":141,"inst_perc_green_tot":0.3905817},"geometry":{"type":"Point","coordinates":[-84.4039383,42.1648293]}},{"type":"Feature","properties":{"year":2022,"instnm":"Jackson State Community College","CZ_label":"Jackson","inst_cmplt_tot":224,"inst_green_cmplt_tot":11,"inst_perc_green_tot":0.0491071},"geometry":{"type":"Point","coordinates":[-88.7800064,35.6455727]}},{"type":"Feature","properties":{"year":2022,"instnm":"James A. Rhodes State College","CZ_label":"Lima","inst_cmplt_tot":266,"inst_green_cmplt_tot":7,"inst_perc_green_tot":0.0263158},"geometry":{"type":"Point","coordinates":[-84.0263214,40.7383461]}},{"type":"Feature","properties":{"year":2022,"instnm":"James Sprunt Community College","CZ_label":"Greenville","inst_cmplt_tot":176,"inst_green_cmplt_tot":20,"inst_perc_green_tot":0.1136364},"geometry":{"type":"Point","coordinates":[-77.9776382,34.9468002]}},{"type":"Feature","properties":{"year":2022,"instnm":"Jamestown Community College","CZ_label":"Erie","inst_cmplt_tot":540,"inst_green_cmplt_tot":42,"inst_perc_green_tot":0.0777778},"geometry":{"type":"Point","coordinates":[-79.2189636,42.1146011]}},{"type":"Feature","properties":{"year":2022,"instnm":"Jefferson College","CZ_label":"St. Louis","inst_cmplt_tot":616,"inst_green_cmplt_tot":87,"inst_perc_green_tot":0.1412338},"geometry":{"type":"Point","coordinates":[-90.5589523,38.2598877]}},{"type":"Feature","properties":{"year":2022,"instnm":"Jefferson Community College","CZ_label":"Watertown","inst_cmplt_tot":324,"inst_green_cmplt_tot":18,"inst_perc_green_tot":0.0555556},"geometry":{"type":"Point","coordinates":[-75.935051,43.9928284]}},{"type":"Feature","properties":{"year":2022,"instnm":"Jefferson Community and Technical College","CZ_label":"Louisville","inst_cmplt_tot":1183,"inst_green_cmplt_tot":36,"inst_perc_green_tot":0.0304311},"geometry":{"type":"Point","coordinates":[-85.7536163,38.2460289]}},{"type":"Feature","properties":{"year":2022,"instnm":"Jefferson State Community College","CZ_label":"Birmingham","inst_cmplt_tot":1131,"inst_green_cmplt_tot":8,"inst_perc_green_tot":0.0070734},"geometry":{"type":"Point","coordinates":[-86.7072296,33.6525345]}},{"type":"Feature","properties":{"year":2022,"instnm":"John A Logan College","CZ_label":"Carbondale","inst_cmplt_tot":536,"inst_green_cmplt_tot":64,"inst_perc_green_tot":0.119403},