{"type":"FeatureCollection","features":[{"type":"Feature","properties":{"year":2021,"instnm":"Aiken Technical College","CZ_label":"Hilton Head Island & Aiken","inst_cmplt_tot":267,"inst_green_cmplt_tot":25,"inst_perc_green_tot":0.093633},"geometry":{"type":"Point","coordinates":[-81.8416672,33.5338326]}},{"type":"Feature","properties":{"year":2021,"instnm":"Aims Community College","CZ_label":"Fort Collins","inst_cmplt_tot":576,"inst_green_cmplt_tot":21,"inst_perc_green_tot":0.0364583},"geometry":{"type":"Point","coordinates":[-104.7634125,40.4095573]}},{"type":"Feature","properties":{"year":2021,"instnm":"Alamance Community College","CZ_label":"Burlington","inst_cmplt_tot":286,"inst_green_cmplt_tot":33,"inst_perc_green_tot":0.1153846},"geometry":{"type":"Point","coordinates":[-79.3576584,36.0666847]}},{"type":"Feature","properties":{"year":2021,"instnm":"Albany Technical College","CZ_label":"Albany","inst_cmplt_tot":399,"inst_green_cmplt_tot":57,"inst_perc_green_tot":0.1428571},"geometry":{"type":"Point","coordinates":[-84.1742859,31.5543404]}},{"type":"Feature","properties":{"year":2021,"instnm":"Alexandria Technical & Community College","CZ_label":"Alexandria & Fergus Falls","inst_cmplt_tot":362,"inst_green_cmplt_tot":126,"inst_perc_green_tot":0.3480663},"geometry":{"type":"Point","coordinates":[-95.3723679,45.8731079]}},{"type":"Feature","properties":{"year":2021,"instnm":"Allan Hancock College","CZ_label":"Santa Barbara","inst_cmplt_tot":2655,"inst_green_cmplt_tot":202,"inst_perc_green_tot":0.0760829},"geometry":{"type":"Point","coordinates":[-120.4211426,34.9437141]}},{"type":"Feature","properties":{"year":2021,"instnm":"Allegany College of Maryland","CZ_label":"Cumberland","inst_cmplt_tot":494,"inst_green_cmplt_tot":14,"inst_perc_green_tot":0.0283401},"geometry":{"type":"Point","coordinates":[-78.7304001,39.652153]}},{"type":"Feature","properties":{"year":2021,"instnm":"Allen County Community College","CZ_label":"Parsons & Chanute","inst_cmplt_tot":262,"inst_green_cmplt_tot":0,"inst_perc_green_tot":0},"geometry":{"type":"Point","coordinates":[-95.3963776,37.9380379]}},{"type":"Feature","properties":{"year":2021,"instnm":"Alpena Community College","CZ_label":"Alpena","inst_cmplt_tot":296,"inst_green_cmplt_tot":106,"inst_perc_green_tot":0.3581081},"geometry":{"type":"Point","coordinates":[-83.4450684,45.081646]}},{"type":"Feature","properties":{"year":2021,"instnm":"Alvin Community College","CZ_label":"Houston","inst_cmplt_tot":813,"inst_green_cmplt_tot":72,"inst_perc_green_tot":0.0885609},"geometry":{"type":"Point","coordinates":[-95.2406693,29.396244]}},{"type":"Feature","properties":{"year":2021,"instnm":"Amarillo College","CZ_label":"Amarillo","inst_cmplt_tot":1462,"inst_green_cmplt_tot":262,"inst_perc_green_tot":0.1792066},"geometry":{"type":"Point","coordinates":[-101.8469849,35.1878395]}},{"type":"Feature","properties":{"year":2021,"instnm":"American River College","CZ_label":"Sacramento","inst_cmplt_tot":3234,"inst_green_cmplt_tot":584,"inst_perc_green_tot":0.1805813},"geometry":{"type":"Point","coordinates":[-121.3496704,38.6508484]}},{"type":"Feature","properties":{"year":2021,"instnm":"Angelina College","CZ_label":"Lufkin","inst_cmplt_tot":584,"inst_green_cmplt_tot":49,"inst_perc_green_tot":0.0839041},"geometry":{"type":"Point","coordinates":[-94.7316284,31.2874432]}},{"type":"Feature","properties":{"year":2021,"instnm":"Anne Arundel Community College","CZ_label":"Baltimore","inst_cmplt_tot":1473,"inst_green_cmplt_tot":123,"inst_perc_green_tot":0.0835031},"geometry":{"type":"Point","coordinates":[-76.5122223,39.0498123]}},{"type":"Feature","properties":{"year":2021,"instnm":"Anoka Technical College","CZ_label":"Minneapolis","inst_cmplt_tot":331,"inst_green_cmplt_tot":116,"inst_perc_green_tot":0.3504532},"geometry":{"type":"Point","coordinates":[-93.4160843,45.2167091]}},{"type":"Feature","properties":{"year":2021,"instnm":"Anoka-Ramsey Community College","CZ_label":"Minneapolis","inst_cmplt_tot":1037,"inst_green_cmplt_tot":34,"inst_perc_green_tot":0.0327869},"geometry":{"type":"Point","coordinates":[-93.3516998,45.1729774]}},{"type":"Feature","properties":{"year":2021,"instnm":"Antelope Valley Community College District","CZ_label":"Los Angeles","inst_cmplt_tot":2437,"inst_green_cmplt_tot":402,"inst_perc_green_tot":0.1649569},"geometry":{"type":"Point","coordinates":[-118.1861649,34.6762085]}},{"type":"Feature","properties":{"year":2021,"instnm":"Arapahoe Community College","CZ_label":"Denver","inst_cmplt_tot":532,"inst_green_cmplt_tot":35,"inst_perc_green_tot":0.0657895},"geometry":{"type":"Point","coordinates":[-105.018631,39.6075058]}},{"type":"Feature","properties":{"year":2021,"instnm":"Arizona Western College","CZ_label":"Yuma","inst_cmplt_tot":783,"inst_green_cmplt_tot":148,"inst_perc_green_tot":0.1890166},"geometry":{"type":"Point","coordinates":[-114.4959717,32.6893044]}},{"type":"Feature","properties":{"year":2021,"instnm":"Arkansas Northeastern College","CZ_label":"Blytheville","inst_cmplt_tot":253,"inst_green_cmplt_tot":74,"inst_perc_green_tot":0.2924901},"geometry":{"type":"Point","coordinates":[-89.9210052,35.8985977]}},{"type":"Feature","properties":{"year":2021,"instnm":"Arkansas State University Mid-South","CZ_label":"Memphis","inst_cmplt_tot":214,"inst_green_cmplt_tot":76,"inst_perc_green_tot":0.3551402},"geometry":{"type":"Point","coordinates":[-90.222847,35.1457367]}},{"type":"Feature","properties":{"year":2021,"instnm":"Arkansas State University Three Rivers","CZ_label":"Hot Springs","inst_cmplt_tot":203,"inst_green_cmplt_tot":0,"inst_perc_green_tot":0},"geometry":{"type":"Point","coordinates":[-92.8214188,34.378746]}},{"type":"Feature","properties":{"year":2021,"instnm":"Arkansas State University-Beebe","CZ_label":"Searcy","inst_cmplt_tot":906,"inst_green_cmplt_tot":56,"inst_perc_green_tot":0.0618102},"geometry":{"type":"Point","coordinates":[-91.8953476,35.0741768]}},{"type":"Feature","properties":{"year":2021,"instnm":"Arkansas State University-Mountain Home","CZ_label":"Mountain Home","inst_cmplt_tot":315,"inst_green_cmplt_tot":33,"inst_perc_green_tot":0.1047619},"geometry":{"type":"Point","coordinates":[-92.3885803,36.3204651]}},{"type":"Feature","properties":{"year":2021,"instnm":"Arkansas State University-Newport","CZ_label":"Searcy","inst_cmplt_tot":487,"inst_green_cmplt_tot":95,"inst_perc_green_tot":0.1950719},"geometry":{"type":"Point","coordinates":[-91.1888428,35.6387215]}},{"type":"Feature","properties":{"year":2021,"instnm":"Asheville-Buncombe Technical Community College","CZ_label":"Asheville","inst_cmplt_tot":676,"inst_green_cmplt_tot":68,"inst_perc_green_tot":0.1005917},"geometry":{"type":"Point","coordinates":[-82.5548248,35.5704384]}},{"type":"Feature","properties":{"year":2021,"instnm":"Ashland Community and Technical College","CZ_label":"Huntington","inst_cmplt_tot":441,"inst_green_cmplt_tot":120,"inst_perc_green_tot":0.2721088},"geometry":{"type":"Point","coordinates":[-82.6506653,38.4692001]}},{"type":"Feature","properties":{"year":2021,"instnm":"Asnuntuck Community College","CZ_label":null,"inst_cmplt_tot":217,"inst_green_cmplt_tot":98,"inst_perc_green_tot":0.4516129},"geometry":{"type":"Point","coordinates":[-72.5701752,41.9984093]}},{"type":"Feature","properties":{"year":2021,"instnm":"Athens Technical College","CZ_label":"Athens","inst_cmplt_tot":570,"inst_green_cmplt_tot":279,"inst_perc_green_tot":0.4894737},"geometry":{"type":"Point","coordinates":[-83.3395996,33.9901848]}},{"type":"Feature","properties":{"year":2021,"instnm":"Atlanta Technical College","CZ_label":"Atlanta","inst_cmplt_tot":347,"inst_green_cmplt_tot":124,"inst_perc_green_tot":0.3573487},"geometry":{"type":"Point","coordinates":[-84.4049988,33.7120094]}},{"type":"Feature","properties":{"year":2021,"instnm":"Atlantic Cape Community College","CZ_label":"Trenton","inst_cmplt_tot":506,"inst_green_cmplt_tot":38,"inst_perc_green_tot":0.0750988},"geometry":{"type":"Point","coordinates":[-74.6800156,39.4620819]}},{"type":"Feature","properties":{"year":2021,"instnm":"Augusta Technical College","CZ_label":"Augusta","inst_cmplt_tot":495,"inst_green_cmplt_tot":158,"inst_perc_green_tot":0.3191919},"geometry":{"type":"Point","coordinates":[-82.048439,33.4189911]}},{"type":"Feature","properties":{"year":2021,"instnm":"Austin Community College District","CZ_label":"Austin","inst_cmplt_tot":4651,"inst_green_cmplt_tot":844,"inst_perc_green_tot":0.1814664},"geometry":{"type":"Point","coordinates":[-97.7125015,30.3227444]}},{"type":"Feature","properties":{"year":2021,"instnm":"Bakersfield College","CZ_label":"Bakersfield","inst_cmplt_tot":4358,"inst_green_cmplt_tot":1164,"inst_perc_green_tot":0.267095},"geometry":{"type":"Point","coordinates":[-118.9737549,35.409111]}},{"type":"Feature","properties":{"year":2021,"instnm":"Baltimore City Community College","CZ_label":"Baltimore","inst_cmplt_tot":383,"inst_green_cmplt_tot":46,"inst_perc_green_tot":0.1201044},"geometry":{"type":"Point","coordinates":[-76.6628799,39.3199768]}},{"type":"Feature","properties":{"year":2021,"instnm":"Barstow Community College","CZ_label":"Los Angeles","inst_cmplt_tot":562,"inst_green_cmplt_tot":29,"inst_perc_green_tot":0.0516014},"geometry":{"type":"Point","coordinates":[-117.0234146,34.870285]}},{"type":"Feature","properties":{"year":2021,"instnm":"Barton County Community College","CZ_label":"Great Bend","inst_cmplt_tot":626,"inst_green_cmplt_tot":54,"inst_perc_green_tot":0.086262},"geometry":{"type":"Point","coordinates":[-98.7316513,38.4035301]}},{"type":"Feature","properties":{"year":2021,"instnm":"Bates Technical College","CZ_label":"Seattle","inst_cmplt_tot":245,"inst_green_cmplt_tot":119,"inst_perc_green_tot":0.4857143},"geometry":{"type":"Point","coordinates":[-122.4468307,47.2517433]}},{"type":"Feature","properties":{"year":2021,"instnm":"Baton Rouge Community College","CZ_label":"Baton Rouge","inst_cmplt_tot":1895,"inst_green_cmplt_tot":258,"inst_perc_green_tot":0.1361478},"geometry":{"type":"Point","coordinates":[-91.1379318,30.4482765]}},{"type":"Feature","properties":{"year":2021,"instnm":"Bay de Noc Community College","CZ_label":"Marquette","inst_cmplt_tot":278,"inst_green_cmplt_tot":57,"inst_perc_green_tot":0.205036},"geometry":{"type":"Point","coordinates":[-87.085228,45.7725868]}},{"type":"Feature","properties":{"year":2021,"instnm":"Beaufort County Community College","CZ_label":"Washington","inst_cmplt_tot":340,"inst_green_cmplt_tot":32,"inst_perc_green_tot":0.0941176},"geometry":{"type":"Point","coordinates":[-76.9653473,35.5335884]}},{"type":"Feature","properties":{"year":2021,"instnm":"Bellevue College","CZ_label":"Seattle","inst_cmplt_tot":2382,"inst_green_cmplt_tot":256,"inst_perc_green_tot":0.1074727},"geometry":{"type":"Point","coordinates":[-122.150116,47.5840149]}},{"type":"Feature","properties":{"year":2021,"instnm":"Bellingham Technical College","CZ_label":"Seattle","inst_cmplt_tot":607,"inst_green_cmplt_tot":346,"inst_perc_green_tot":0.5700165},"geometry":{"type":"Point","coordinates":[-122.5121613,48.7661896]}},{"type":"Feature","properties":{"year":2021,"instnm":"Belmont College","CZ_label":"Wheeling","inst_cmplt_tot":198,"inst_green_cmplt_tot":56,"inst_perc_green_tot":0.2828283},"geometry":{"type":"Point","coordinates":[-80.9649048,40.0769501]}},{"type":"Feature","properties":{"year":2021,"instnm":"Bergen Community College","CZ_label":"Newark & Jersey City","inst_cmplt_tot":2271,"inst_green_cmplt_tot":14,"inst_perc_green_tot":0.0061647},"geometry":{"type":"Point","coordinates":[-74.0888062,40.9517822]}},{"type":"Feature","properties":{"year":2021,"instnm":"Berkeley City College","CZ_label":"San Francisco","inst_cmplt_tot":469,"inst_green_cmplt_tot":54,"inst_perc_green_tot":0.1151386},"geometry":{"type":"Point","coordinates":[-122.2698746,37.8697701]}},{"type":"Feature","properties":{"year":2021,"instnm":"Berkshire Community College","CZ_label":"Pittsfield","inst_cmplt_tot":228,"inst_green_cmplt_tot":36,"inst_perc_green_tot":0.1578947},"geometry":{"type":"Point","coordinates":[-73.3147049,42.4597511]}},{"type":"Feature","properties":{"year":2021,"instnm":"Bevill State Community College","CZ_label":"Birmingham","inst_cmplt_tot":666,"inst_green_cmplt_tot":127,"inst_perc_green_tot":0.1906907},"geometry":{"type":"Point","coordinates":[-87.2664032,33.8369293]}},{"type":"Feature","properties":{"year":2021,"instnm":"Big Bend Community College","CZ_label":"Moses Lake","inst_cmplt_tot":401,"inst_green_cmplt_tot":24,"inst_perc_green_tot":0.0598504},"geometry":{"type":"Point","coordinates":[-119.325676,47.183651]}},{"type":"Feature","properties":{"year":2021,"instnm":"Big Sandy Community and Technical College","CZ_label":"Pikeville","inst_cmplt_tot":474,"inst_green_cmplt_tot":109,"inst_perc_green_tot":0.2299578},"geometry":{"type":"Point","coordinates":[-82.7788467,37.6882477]}},{"type":"Feature","properties":{"year":2021,"instnm":"Bishop State Community College","CZ_label":"Mobile","inst_cmplt_tot":488,"inst_green_cmplt_tot":74,"inst_perc_green_tot":0.1516393},"geometry":{"type":"Point","coordinates":[-88.0569839,30.6939716]}},{"type":"Feature","properties":{"year":2021,"instnm":"Bismarck State College","CZ_label":"Bismarck","inst_cmplt_tot":834,"inst_green_cmplt_tot":223,"inst_perc_green_tot":0.2673861},"geometry":{"type":"Point","coordinates":[-100.8165359,46.8214607]}},{"type":"Feature","properties":{"year":2021,"instnm":"Black Hawk College","CZ_label":"Davenport","inst_cmplt_tot":541,"inst_green_cmplt_tot":67,"inst_perc_green_tot":0.1238447},"geometry":{"type":"Point","coordinates":[-90.4477997,41.4772835]}},{"type":"Feature","properties":{"year":2021,"instnm":"Black River Technical College","CZ_label":"Jonesboro","inst_cmplt_tot":485,"inst_green_cmplt_tot":47,"inst_perc_green_tot":0.0969072},"geometry":{"type":"Point","coordinates":[-90.9510345,36.2397919]}},{"type":"Feature","properties":{"year":2021,"instnm":"Blackhawk Technical College","CZ_label":"Milwaukee","inst_cmplt_tot":319,"inst_green_cmplt_tot":74,"inst_perc_green_tot":0.2319749},"geometry":{"type":"Point","coordinates":[-89.0162506,42.5931587]}},{"type":"Feature","properties":{"year":2021,"instnm":"Bladen Community College","CZ_label":"Fayetteville","inst_cmplt_tot":314,"inst_green_cmplt_tot":18,"inst_perc_green_tot":0.0573248},"geometry":{"type":"Point","coordinates":[-78.7311172,34.6446915]}},{"type":"Feature","properties":{"year":2021,"instnm":"Blinn College","CZ_label":"College Station","inst_cmplt_tot":3479,"inst_green_cmplt_tot":888,"inst_perc_green_tot":0.2552458},"geometry":{"type":"Point","coordinates":[-96.4085236,30.1604576]}},{"type":"Feature","properties":{"year":2021,"instnm":"Blue Mountain Community College","CZ_label":"Kennewick","inst_cmplt_tot":287,"inst_green_cmplt_tot":27,"inst_perc_green_tot":0.0940767},"geometry":{"type":"Point","coordinates":[-118.8169403,45.6773148]}},{"type":"Feature","properties":{"year":2021,"instnm":"Blue Ridge Community College","CZ_label":"Asheville","inst_cmplt_tot":265,"inst_green_cmplt_tot":18,"inst_perc_green_tot":0.0679245},"geometry":{"type":"Point","coordinates":[-82.4255447,35.3080406]}},{"type":"Feature","properties":{"year":2021,"instnm":"Blue Ridge Community College","CZ_label":"Harrisonburg","inst_cmplt_tot":629,"inst_green_cmplt_tot":42,"inst_perc_green_tot":0.0667727},"geometry":{"type":"Point","coordinates":[-78.9374695,38.2790756]}},{"type":"Feature","properties":{"year":2021,"instnm":"Blue Ridge Community and Technical College","CZ_label":"Winchester","inst_cmplt_tot":561,"inst_green_cmplt_tot":57,"inst_perc_green_tot":0.1016043},"geometry":{"type":"Point","coordinates":[-78.001915,39.4352913]}},{"type":"Feature","properties":{"year":2021,"instnm":"Bluegrass Community and Technical College","CZ_label":"Lexington","inst_cmplt_tot":1787,"inst_green_cmplt_tot":310,"inst_perc_green_tot":0.1734751},"geometry":{"type":"Point","coordinates":[-84.5036621,38.024807]}},{"type":"Feature","properties":{"year":2021,"instnm":"Bossier Parish Community College","CZ_label":"Shreveport","inst_cmplt_tot":799,"inst_green_cmplt_tot":74,"inst_perc_green_tot":0.0926158},"geometry":{"type":"Point","coordinates":[-93.6468811,32.5395508]}},{"type":"Feature","properties":{"year":2021,"instnm":"Brazosport College","CZ_label":"Houston","inst_cmplt_tot":477,"inst_green_cmplt_tot":79,"inst_perc_green_tot":0.1656184},"geometry":{"type":"Point","coordinates":[-95.4093399,29.0486031]}},{"type":"Feature","properties":{"year":2021,"instnm":"BridgeValley Community & Technical College","CZ_label":"Charleston","inst_cmplt_tot":333,"inst_green_cmplt_tot":68,"inst_perc_green_tot":0.2042042},"geometry":{"type":"Point","coordinates":[-81.6983032,38.3538475]}},{"type":"Feature","properties":{"year":2021,"instnm":"Brightpoint Community College","CZ_label":"Richmond","inst_cmplt_tot":1172,"inst_green_cmplt_tot":158,"inst_perc_green_tot":0.1348123},"geometry":{"type":"Point","coordinates":[-77.4079208,37.3462524]}},{"type":"Feature","properties":{"year":2021,"instnm":"Bristol Community College","CZ_label":"Providence","inst_cmplt_tot":1263,"inst_green_cmplt_tot":234,"inst_perc_green_tot":0.1852732},"geometry":{"type":"Point","coordinates":[-71.119133,41.7219925]}},{"type":"Feature","properties":{"year":2021,"instnm":"Brookdale Community College","CZ_label":"Long Branch","inst_cmplt_tot":1737,"inst_green_cmplt_tot":216,"inst_perc_green_tot":0.1243523},"geometry":{"type":"Point","coordinates":[-74.1327438,40.3249054]}},{"type":"Feature","properties":{"year":2021,"instnm":"Broward College","CZ_label":"Miami","inst_cmplt_tot":6870,"inst_green_cmplt_tot":86,"inst_perc_green_tot":0.0125182},"geometry":{"type":"Point","coordinates":[-80.1418304,26.1194229]}},{"type":"Feature","properties":{"year":2021,"instnm":"Brunswick Community College","CZ_label":"Wilmington","inst_cmplt_tot":332,"inst_green_cmplt_tot":26,"inst_perc_green_tot":0.0783133},"geometry":{"type":"Point","coordinates":[-78.2297897,34.0389748]}},{"type":"Feature","properties":{"year":2021,"instnm":"Bucks County Community College","CZ_label":"Philadelphia","inst_cmplt_tot":939,"inst_green_cmplt_tot":82,"inst_perc_green_tot":0.0873269},"geometry":{"type":"Point","coordinates":[-74.9658432,40.2391014]}},{"type":"Feature","properties":{"year":2021,"instnm":"Bunker Hill Community College","CZ_label":"Boston","inst_cmplt_tot":1173,"inst_green_cmplt_tot":265,"inst_perc_green_tot":0.2259165},"geometry":{"type":"Point","coordinates":[-71.0692596,42.3748055]}},{"type":"Feature","properties":{"year":2021,"instnm":"Butler Community College","CZ_label":"Wichita","inst_cmplt_tot":1070,"inst_green_cmplt_tot":96,"inst_perc_green_tot":0.0897196},"geometry":{"type":"Point","coordinates":[-96.882988,37.8066978]}},{"type":"Feature","properties":{"year":2021,"instnm":"Butler County Community College","CZ_label":"Pittsburgh","inst_cmplt_tot":465,"inst_green_cmplt_tot":34,"inst_perc_green_tot":0.0731183},"geometry":{"type":"Point","coordinates":[-79.9114304,40.8293648]}},{"type":"Feature","properties":{"year":2021,"instnm":"Butte College","CZ_label":"Redding & Chico","inst_cmplt_tot":1239,"inst_green_cmplt_tot":271,"inst_perc_green_tot":0.2187248},"geometry":{"type":"Point","coordinates":[-121.6448288,39.6497803]}},{"type":"Feature","properties":{"year":2021,"instnm":"CUNY Borough of Manhattan Community College","CZ_label":"New York","inst_cmplt_tot":4870,"inst_green_cmplt_tot":605,"inst_perc_green_tot":0.12423},"geometry":{"type":"Point","coordinates":[-74.0118256,40.7187881]}},{"type":"Feature","properties":{"year":2021,"instnm":"CUNY Bronx Community College","CZ_label":"New York","inst_cmplt_tot":1670,"inst_green_cmplt_tot":213,"inst_perc_green_tot":0.1275449},"geometry":{"type":"Point","coordinates":[-73.9120407,40.8581123]}},{"type":"Feature","properties":{"year":2021,"instnm":"CUNY Hostos Community College","CZ_label":"New York","inst_cmplt_tot":1023,"inst_green_cmplt_tot":100,"inst_perc_green_tot":0.0977517},"geometry":{"type":"Point","coordinates":[-73.9267578,40.818119]}},{"type":"Feature","properties":{"year":2021,"instnm":"CUNY Kingsborough Community College","CZ_label":"New York","inst_cmplt_tot":2389,"inst_green_cmplt_tot":403,"inst_perc_green_tot":0.1686898},"geometry":{"type":"Point","coordinates":[-73.9358139,40.5772209]}},{"type":"Feature","properties":{"year":2021,"instnm":"CUNY LaGuardia Community College","CZ_label":"New York","inst_cmplt_tot":3822,"inst_green_cmplt_tot":1152,"inst_perc_green_tot":0.3014129},"geometry":{"type":"Point","coordinates":[-73.9350586,40.7444992]}},{"type":"Feature","properties":{"year":2021,"instnm":"CUNY Queensborough Community College","CZ_label":"New York","inst_cmplt_tot":2503,"inst_green_cmplt_tot":414,"inst_perc_green_tot":0.1654015},"geometry":{"type":"Point","coordinates":[-73.7566528,40.7554817]}},{"type":"Feature","properties":{"year":2021,"instnm":"CUNY Stella and Charles Guttman Community College","CZ_label":"New York","inst_cmplt_tot":245,"inst_green_cmplt_tot":0,"inst_perc_green_tot":0},"geometry":{"type":"Point","coordinates":[-73.9841309,40.7528114]}},{"type":"Feature","properties":{"year":2021,"instnm":"Cabrillo College","CZ_label":"San Jose","inst_cmplt_tot":1018,"inst_green_cmplt_tot":221,"inst_perc_green_tot":0.2170923},"geometry":{"type":"Point","coordinates":[-121.9247971,36.9894485]}},{"type":"Feature","properties":{"year":2021,"instnm":"Caldwell Community College and Technical Institute","CZ_label":"Hickory","inst_cmplt_tot":946,"inst_green_cmplt_tot":39,"inst_perc_green_tot":0.0412262},"geometry":{"type":"Point","coordinates":[-81.4841461,35.8546028]}},{"type":"Feature","properties":{"year":2021,"instnm":"Camden County College","CZ_label":"Trenton","inst_cmplt_tot":1242,"inst_green_cmplt_tot":39,"inst_perc_green_tot":0.031401},"geometry":{"type":"Point","coordinates":[-75.0383835,39.784874]}},{"type":"Feature","properties":{"year":2021,"instnm":"Canada College","CZ_label":"San Francisco","inst_cmplt_tot":573,"inst_green_cmplt_tot":54,"inst_perc_green_tot":0.0942408},"geometry":{"type":"Point","coordinates":[-122.2653961,37.4487686]}},{"type":"Feature","properties":{"year":2021,"instnm":"Cape Cod Community College","CZ_label":"Boston","inst_cmplt_tot":367,"inst_green_cmplt_tot":34,"inst_perc_green_tot":0.0926431},"geometry":{"type":"Point","coordinates":[-70.3373337,41.6919098]}},{"type":"Feature","properties":{"year":2021,"instnm":"Cape Fear Community College","CZ_label":"Wilmington","inst_cmplt_tot":1400,"inst_green_cmplt_tot":135,"inst_perc_green_tot":0.0964286},"geometry":{"type":"Point","coordinates":[-77.9483032,34.2406235]}},{"type":"Feature","properties":{"year":2021,"instnm":"Capital Community College","CZ_label":null,"inst_cmplt_tot":190,"inst_green_cmplt_tot":13,"inst_perc_green_tot":0.0684211},"geometry":{"type":"Point","coordinates":[-72.6727371,41.7683983]}},{"type":"Feature","properties":{"year":2021,"instnm":"Carl Albert State College","CZ_label":"McAlester","inst_cmplt_tot":332,"inst_green_cmplt_tot":27,"inst_perc_green_tot":0.0813253},"geometry":{"type":"Point","coordinates":[-94.6339874,35.0391731]}},{"type":"Feature","properties":{"year":2021,"instnm":"Carl Sandburg College","CZ_label":"Davenport","inst_cmplt_tot":678,"inst_green_cmplt_tot":4,"inst_perc_green_tot":0.0058997},"geometry":{"type":"Point","coordinates":[-90.4082031,40.9812813]}},{"type":"Feature","properties":{"year":2021,"instnm":"Carroll Community College","CZ_label":"Baltimore","inst_cmplt_tot":568,"inst_green_cmplt_tot":47,"inst_perc_green_tot":0.0827465},"geometry":{"type":"Point","coordinates":[-76.9911118,39.5318031]}},{"type":"Feature","properties":{"year":2021,"instnm":"Carteret Community College","CZ_label":"Jacksonville","inst_cmplt_tot":218,"inst_green_cmplt_tot":26,"inst_perc_green_tot":0.1192661},"geometry":{"type":"Point","coordinates":[-76.7555389,34.7236824]}},{"type":"Feature","properties":{"year":2021,"instnm":"Cascadia College","CZ_label":"Seattle","inst_cmplt_tot":701,"inst_green_cmplt_tot":207,"inst_perc_green_tot":0.2952924},"geometry":{"type":"Point","coordinates":[-122.1915741,47.7609138]}},{"type":"Feature","properties":{"year":2021,"instnm":"Casper College","CZ_label":"Casper","inst_cmplt_tot":659,"inst_green_cmplt_tot":155,"inst_perc_green_tot":0.2352049},"geometry":{"type":"Point","coordinates":[-106.3267136,42.8327866]}},{"type":"Feature","properties":{"year":2021,"instnm":"Catawba Valley Community College","CZ_label":"Hickory","inst_cmplt_tot":700,"inst_green_cmplt_tot":65,"inst_perc_green_tot":0.0928571},"geometry":{"type":"Point","coordinates":[-81.2879181,35.6997337]}},{"type":"Feature","properties":{"year":2021,"instnm":"Cayuga County Community College","CZ_label":"Syracuse","inst_cmplt_tot":330,"inst_green_cmplt_tot":12,"inst_perc_green_tot":0.0363636},"geometry":{"type":"Point","coordinates":[-76.5428696,42.9437256]}},{"type":"Feature","properties":{"year":2021,"instnm":"Cecil College","CZ_label":"Philadelphia","inst_cmplt_tot":270,"inst_green_cmplt_tot":38,"inst_perc_green_tot":0.1407407},"geometry":{"type":"Point","coordinates":[-75.9559479,39.6422234]}},{"type":"Feature","properties":{"year":2021,"instnm":"Central Alabama Community College","CZ_label":"Anniston","inst_cmplt_tot":144,"inst_green_cmplt_tot":36,"inst_perc_green_tot":0.25},"geometry":{"type":"Point","coordinates":[-85.9452667,32.9247818]}},{"type":"Feature","properties":{"year":2021,"instnm":"Central Arizona College","CZ_label":"Phoenix","inst_cmplt_tot":537,"inst_green_cmplt_tot":18,"inst_perc_green_tot":0.0335196},"geometry":{"type":"Point","coordinates":[-111.652504,32.9570923]}},{"type":"Feature","properties":{"year":2021,"instnm":"Central Carolina Community College","CZ_label":"Fayetteville","inst_cmplt_tot":534,"inst_green_cmplt_tot":58,"inst_perc_green_tot":0.1086142},"geometry":{"type":"Point","coordinates":[-79.1435547,35.4718628]}},{"type":"Feature","properties":{"year":2021,"instnm":"Central Carolina Technical College","CZ_label":"Columbia","inst_cmplt_tot":245,"inst_green_cmplt_tot":54,"inst_perc_green_tot":0.2204082},"geometry":{"type":"Point","coordinates":[-80.3710098,33.933342]}},{"type":"Feature","properties":{"year":2021,"instnm":"Central Community College","CZ_label":"Grand Island","inst_cmplt_tot":827,"inst_green_cmplt_tot":224,"inst_perc_green_tot":0.2708585},"geometry":{"type":"Point","coordinates":[-98.372551,40.8895836]}},{"type":"Feature","properties":{"year":2021,"instnm":"Central Georgia Technical College","CZ_label":"Macon & Warner Robins","inst_cmplt_tot":1188,"inst_green_cmplt_tot":318,"inst_perc_green_tot":0.2676768},"geometry":{"type":"Point","coordinates":[-83.6676483,32.5453415]}},{"type":"Feature","properties":{"year":2021,"instnm":"Central Lakes College-Brainerd","CZ_label":"Bemidji & Brainerd","inst_cmplt_tot":369,"inst_green_cmplt_tot":205,"inst_perc_green_tot":0.5555556},"geometry":{"type":"Point","coordinates":[-94.2142639,46.3458633]}},{"type":"Feature","properties":{"year":2021,"instnm":"Central Louisiana Technical Community College","CZ_label":"Alexandria","inst_cmplt_tot":716,"inst_green_cmplt_tot":662,"inst_perc_green_tot":0.924581},"geometry":{"type":"Point","coordinates":[-92.4466934,31.310461]}},{"type":"Feature","properties":{"year":2021,"instnm":"Central Maine Community College","CZ_label":"Portland","inst_cmplt_tot":311,"inst_green_cmplt_tot":82,"inst_perc_green_tot":0.2636656},"geometry":{"type":"Point","coordinates":[-70.2354965,44.134346]}},{"type":"Feature","properties":{"year":2021,"instnm":"Central New Mexico Community College","CZ_label":"Albuquerque","inst_cmplt_tot":2424,"inst_green_cmplt_tot":240,"inst_perc_green_tot":0.0990099},"geometry":{"type":"Point","coordinates":[-106.6288605,35.0718765]}},{"type":"Feature","properties":{"year":2021,"instnm":"Central Ohio Technical College","CZ_label":"Columbus","inst_cmplt_tot":457,"inst_green_cmplt_tot":25,"inst_perc_green_tot":0.0547046},"geometry":{"type":"Point","coordinates":[-82.4474411,40.069313]}},{"type":"Feature","properties":{"year":2021,"instnm":"Central Oregon Community College","CZ_label":"Bend","inst_cmplt_tot":688,"inst_green_cmplt_tot":24,"inst_perc_green_tot":0.0348837},"geometry":{"type":"Point","coordinates":[-121.348587,44.0713997]}},{"type":"Feature","properties":{"year":2021,"instnm":"Central Piedmont Community College","CZ_label":"Charlotte","inst_cmplt_tot":2254,"inst_green_cmplt_tot":197,"inst_perc_green_tot":0.0874002},"geometry":{"type":"Point","coordinates":[-80.8297958,35.2177734]}},{"type":"Feature","properties":{"year":2021,"instnm":"Central Texas College","CZ_label":"Killeen","inst_cmplt_tot":2001,"inst_green_cmplt_tot":141,"inst_perc_green_tot":0.0704648},"geometry":{"type":"Point","coordinates":[-97.8108292,31.1205158]}},{"type":"Feature","properties":{"year":2021,"instnm":"Central Virginia Community College","CZ_label":"Lynchburg","inst_cmplt_tot":776,"inst_green_cmplt_tot":84,"inst_perc_green_tot":0.1082474},"geometry":{"type":"Point","coordinates":[-79.1842346,37.3588104]}},{"type":"Feature","properties":{"year":2021,"instnm":"Central Wyoming College","CZ_label":"Riverton","inst_cmplt_tot":239,"inst_green_cmplt_tot":32,"inst_perc_green_tot":0.1338912},"geometry":{"type":"Point","coordinates":[-108.4267349,43.0305557]}},{"type":"Feature","properties":{"year":2021,"instnm":"Centralia College","CZ_label":"Seattle","inst_cmplt_tot":473,"inst_green_cmplt_tot":79,"inst_perc_green_tot":0.167019},"geometry":{"type":"Point","coordinates":[-122.9605942,46.7150154]}},{"type":"Feature","properties":{"year":2021,"instnm":"Century College","CZ_label":"Minneapolis","inst_cmplt_tot":1281,"inst_green_cmplt_tot":177,"inst_perc_green_tot":0.1381733},"geometry":{"type":"Point","coordinates":[-92.9821014,45.0418243]}},{"type":"Feature","properties":{"year":2021,"instnm":"Cerritos College","CZ_label":"Los Angeles","inst_cmplt_tot":1867,"inst_green_cmplt_tot":210,"inst_perc_green_tot":0.1124799},"geometry":{"type":"Point","coordinates":[-118.0973358,33.8868752]}},{"type":"Feature","properties":{"year":2021,"instnm":"Cerro Coso Community College","CZ_label":"Bakersfield","inst_cmplt_tot":663,"inst_green_cmplt_tot":6,"inst_perc_green_tot":0.0090498},"geometry":{"type":"Point","coordinates":[-117.6676712,35.567524]}},{"type":"Feature","properties":{"year":2021,"instnm":"Chabot College","CZ_label":"San Francisco","inst_cmplt_tot":1409,"inst_green_cmplt_tot":416,"inst_perc_green_tot":0.2952449},"geometry":{"type":"Point","coordinates":[-122.1056366,37.6424599]}},{"type":"Feature","properties":{"year":2021,"instnm":"Chaffey College","CZ_label":"Los Angeles","inst_cmplt_tot":4230,"inst_green_cmplt_tot":240,"inst_perc_green_tot":0.0567376},"geometry":{"type":"Point","coordinates":[-117.5739288,34.1476631]}},{"type":"Feature","properties":{"year":2021,"instnm":"Chandler-Gilbert Community College","CZ_label":"Phoenix","inst_cmplt_tot":2305,"inst_green_cmplt_tot":589,"inst_perc_green_tot":0.2555315},"geometry":{"type":"Point","coordinates":[-111.7959213,33.2938957]}},{"type":"Feature","properties":{"year":2021,"instnm":"Chattahoochee Technical College","CZ_label":"Atlanta","inst_cmplt_tot":611,"inst_green_cmplt_tot":126,"inst_perc_green_tot":0.2062193},"geometry":{"type":"Point","coordinates":[-84.5537186,33.9290924]}},{"type":"Feature","properties":{"year":2021,"instnm":"Chattahoochee Valley Community College","CZ_label":"Columbus","inst_cmplt_tot":151,"inst_green_cmplt_tot":0,"inst_perc_green_tot":0},"geometry":{"type":"Point","coordinates":[-85.0314865,32.4239082]}},{"type":"Feature","properties":{"year":2021,"instnm":"Chattanooga State Community College","CZ_label":"Chattanooga","inst_cmplt_tot":583,"inst_green_cmplt_tot":120,"inst_perc_green_tot":0.2058319},"geometry":{"type":"Point","coordinates":[-85.2373886,35.1002007]}},{"type":"Feature","properties":{"year":2021,"instnm":"Chemeketa Community College","CZ_label":"Portland","inst_cmplt_tot":1440,"inst_green_cmplt_tot":99,"inst_perc_green_tot":0.06875},"geometry":{"type":"Point","coordinates":[-122.9780731,44.9786568]}},{"type":"Feature","properties":{"year":2021,"instnm":"Chesapeake College","CZ_label":"Dover","inst_cmplt_tot":252,"inst_green_cmplt_tot":30,"inst_perc_green_tot":0.1190476},"geometry":{"type":"Point","coordinates":[-76.0836716,38.9521942]}},{"type":"Feature","properties":{"year":2021,"instnm":"Chipola College","CZ_label":"Panama City","inst_cmplt_tot":321,"inst_green_cmplt_tot":37,"inst_perc_green_tot":0.1152648},"geometry":{"type":"Point","coordinates":[-85.2313919,30.7892284]}},{"type":"Feature","properties":{"year":2021,"instnm":"Chippewa Valley Technical College","CZ_label":"Eau Claire","inst_cmplt_tot":1140,"inst_green_cmplt_tot":305,"inst_perc_green_tot":0.2675439},"geometry":{"type":"Point","coordinates":[-91.5056763,44.7948685]}},{"type":"Feature","properties":{"year":2021,"instnm":"Cincinnati State Technical and Community College","CZ_label":"Cincinnati","inst_cmplt_tot":893,"inst_green_cmplt_tot":148,"inst_perc_green_tot":0.1657335},"geometry":{"type":"Point","coordinates":[-84.5369339,39.1499138]}},{"type":"Feature","properties":{"year":2021,"instnm":"Cisco College","CZ_label":"Graham","inst_cmplt_tot":520,"inst_green_cmplt_tot":62,"inst_perc_green_tot":0.1192308},"geometry":{"type":"Point","coordinates":[-98.9852066,32.4011307]}},{"type":"Feature","properties":{"year":2021,"instnm":"Citrus College","CZ_label":"Los Angeles","inst_cmplt_tot":2846,"inst_green_cmplt_tot":272,"inst_perc_green_tot":0.0955727},"geometry":{"type":"Point","coordinates":[-117.886467,34.1353683]}},{"type":"Feature","properties":{"year":2021,"instnm":"City College of San Francisco","CZ_label":"San Francisco","inst_cmplt_tot":1707,"inst_green_cmplt_tot":215,"inst_perc_green_tot":0.125952},"geometry":{"type":"Point","coordinates":[-122.4511566,37.7259521]}},{"type":"Feature","properties":{"year":2021,"instnm":"City Colleges of Chicago-Harold Washington College","CZ_label":"Chicago","inst_cmplt_tot":1095,"inst_green_cmplt_tot":27,"inst_perc_green_tot":0.0246575},"geometry":{"type":"Point","coordinates":[-87.6265945,41.8860664]}},{"type":"Feature","properties":{"year":2021,"instnm":"City Colleges of Chicago-Harry S Truman College","CZ_label":"Chicago","inst_cmplt_tot":420,"inst_green_cmplt_tot":6,"inst_perc_green_tot":0.0142857},"geometry":{"type":"Point","coordinates":[-87.6591034,41.9645004]}},{"type":"Feature","properties":{"year":2021,"instnm":"City Colleges of Chicago-Kennedy-King College","CZ_label":"Chicago","inst_cmplt_tot":281,"inst_green_cmplt_tot":70,"inst_perc_green_tot":0.2491103},"geometry":{"type":"Point","coordinates":[-87.643425,41.7802544]}},{"type":"Feature","properties":{"year":2021,"instnm":"City Colleges of Chicago-Malcolm X College","CZ_label":"Chicago","inst_cmplt_tot":922,"inst_green_cmplt_tot":0,"inst_perc_green_tot":0},"geometry":{"type":"Point","coordinates":[-87.6753235,41.8780937]}},{"type":"Feature","properties":{"year":2021,"instnm":"City Colleges of Chicago-Olive-Harvey College","CZ_label":"Chicago","inst_cmplt_tot":152,"inst_green_cmplt_tot":0,"inst_perc_green_tot":0},"geometry":{"type":"Point","coordinates":[-87.5892487,41.7099953]}},{"type":"Feature","properties":{"year":2021,"instnm":"City Colleges of Chicago-Richard J Daley College","CZ_label":"Chicago","inst_cmplt_tot":432,"inst_green_cmplt_tot":107,"inst_perc_green_tot":0.2476852},"geometry":{"type":"Point","coordinates":[-87.7239838,41.7559547]}},{"type":"Feature","properties":{"year":2021,"instnm":"City Colleges of Chicago-Wilbur Wright College","CZ_label":"Chicago","inst_cmplt_tot":979,"inst_green_cmplt_tot":85,"inst_perc_green_tot":0.0868233},"geometry":{"type":"Point","coordinates":[-87.7878647,41.9587746]}},{"type":"Feature","properties":{"year":2021,"instnm":"Clackamas Community College","CZ_label":"Portland","inst_cmplt_tot":717,"inst_green_cmplt_tot":103,"inst_perc_green_tot":0.1436541},"geometry":{"type":"Point","coordinates":[-122.5742722,45.323185]}},{"type":"Feature","properties":{"year":2021,"instnm":"Clarendon College","CZ_label":"Amarillo","inst_cmplt_tot":354,"inst_green_cmplt_tot":86,"inst_perc_green_tot":0.2429379},"geometry":{"type":"Point","coordinates":[-100.90242,34.9445572]}},{"type":"Feature","properties":{"year":2021,"instnm":"Clark College","CZ_label":"Portland","inst_cmplt_tot":1854,"inst_green_cmplt_tot":412,"inst_perc_green_tot":0.2222222},"geometry":{"type":"Point","coordinates":[-122.6512604,45.6361313]}},{"type":"Feature","properties":{"year":2021,"instnm":"Clark State College","CZ_label":"Dayton","inst_cmplt_tot":555,"inst_green_cmplt_tot":20,"inst_perc_green_tot":0.036036},"geometry":{"type":"Point","coordinates":[-83.7997894,39.8964119]}},{"type":"Feature","properties":{"year":2021,"instnm":"Clatsop Community College","CZ_label":"Aberdeen","inst_cmplt_tot":90,"inst_green_cmplt_tot":0,"inst_perc_green_tot":0},"geometry":{"type":"Point","coordinates":[-123.8233414,46.1831055]}},{"type":"Feature","properties":{"year":2021,"instnm":"Cleveland Community College","CZ_label":"Charlotte","inst_cmplt_tot":383,"inst_green_cmplt_tot":14,"inst_perc_green_tot":0.0365535},"geometry":{"type":"Point","coordinates":[-81.4928589,35.2798347]}},{"type":"Feature","properties":{"year":2021,"instnm":"Cleveland State Community College","CZ_label":"Chattanooga","inst_cmplt_tot":457,"inst_green_cmplt_tot":28,"inst_perc_green_tot":0.0612691},"geometry":{"type":"Point","coordinates":[-84.8792877,35.2001038]}},{"type":"Feature","properties":{"year":2021,"instnm":"Clinton Community College","CZ_label":"Plattsburgh","inst_cmplt_tot":138,"inst_green_cmplt_tot":14,"inst_perc_green_tot":0.1014493},"geometry":{"type":"Point","coordinates":[-73.4397354,44.6484108]}},{"type":"Feature","properties":{"year":2021,"instnm":"Cloud County Community College","CZ_label":"Concordia","inst_cmplt_tot":376,"inst_green_cmplt_tot":41,"inst_perc_green_tot":0.1090426},"geometry":{"type":"Point","coordinates":[-97.6641464,39.5541992]}},{"type":"Feature","properties":{"year":2021,"instnm":"Clover Park Technical College","CZ_label":"Seattle","inst_cmplt_tot":446,"inst_green_cmplt_tot":137,"inst_perc_green_tot":0.3071749},"geometry":{"type":"Point","coordinates":[-122.4978714,47.1760826]}},{"type":"Feature","properties":{"year":2021,"instnm":"Clovis Community College","CZ_label":"Clovis","inst_cmplt_tot":453,"inst_green_cmplt_tot":50,"inst_perc_green_tot":0.1103753},"geometry":{"type":"Point","coordinates":[-103.1658859,34.4024849]}},{"type":"Feature","properties":{"year":2021,"instnm":"Clovis Community College","CZ_label":"Fresno","inst_cmplt_tot":1071,"inst_green_cmplt_tot":672,"inst_perc_green_tot":0.627451},"geometry":{"type":"Point","coordinates":[-119.7312622,36.8868599]}},{"type":"Feature","properties":{"year":2021,"instnm":"Coahoma Community College","CZ_label":"Oxford","inst_cmplt_tot":362,"inst_green_cmplt_tot":83,"inst_perc_green_tot":0.2292818},"geometry":{"type":"Point","coordinates":[-90.5684662,34.2544174]}},{"type":"Feature","properties":{"year":2021,"instnm":"Coastal Alabama Community College","CZ_label":"Mobile","inst_cmplt_tot":1056,"inst_green_cmplt_tot":214,"inst_perc_green_tot":0.2026515},"geometry":{"type":"Point","coordinates":[-87.7781906,30.8513432]}},{"type":"Feature","properties":{"year":2021,"instnm":"Coastal Bend College","CZ_label":"McAllen","inst_cmplt_tot":376,"inst_green_cmplt_tot":7,"inst_perc_green_tot":0.018617},"geometry":{"type":"Point","coordinates":[-97.7558975,28.435194]}},{"type":"Feature","properties":{"year":2021,"instnm":"Coastal Carolina Community College","CZ_label":"Jacksonville","inst_cmplt_tot":709,"inst_green_cmplt_tot":34,"inst_perc_green_tot":0.0479549},"geometry":{"type":"Point","coordinates":[-77.3847885,34.7716866]}},{"type":"Feature","properties":{"year":2021,"instnm":"Coastal Pines Technical College","CZ_label":"Brunswick","inst_cmplt_tot":231,"inst_green_cmplt_tot":59,"inst_perc_green_tot":0.2554113},"geometry":{"type":"Point","coordinates":[-82.382103,31.2127819]}},{"type":"Feature","properties":{"year":2021,"instnm":"Coastline Community College","CZ_label":"Los Angeles","inst_cmplt_tot":1076,"inst_green_cmplt_tot":115,"inst_perc_green_tot":0.1068773},"geometry":{"type":"Point","coordinates":[-117.9291458,33.7156334]}},{"type":"Feature","properties":{"year":2021,"instnm":"Cochise County Community College District","CZ_label":"Tucson","inst_cmplt_tot":1550,"inst_green_cmplt_tot":144,"inst_perc_green_tot":0.0929032},"geometry":{"type":"Point","coordinates":[-110.2469482,31.5645962]}},{"type":"Feature","properties":{"year":2021,"instnm":"Coconino Community College","CZ_label":"Prescott Valley & Flagstaff","inst_cmplt_tot":298,"inst_green_cmplt_tot":1,"inst_perc_green_tot":0.0033557},"geometry":{"type":"Point","coordinates":[-111.6456299,35.1713295]}},{"type":"Feature","properties":{"year":2021,"instnm":"Coffeyville Community College","CZ_label":"Bartlesville","inst_cmplt_tot":284,"inst_green_cmplt_tot":56,"inst_perc_green_tot":0.1971831},"geometry":{"type":"Point","coordinates":[-95.621376,37.0338135]}},{"type":"Feature","properties":{"year":2021,"instnm":"Colby Community College","CZ_label":"Colby","inst_cmplt_tot":311,"inst_green_cmplt_tot":60,"inst_perc_green_tot":0.192926},"geometry":{"type":"Point","coordinates":[-101.052742,39.3776016]}},{"type":"Feature","properties":{"year":2021,"instnm":"College of Alameda","CZ_label":"San Francisco","inst_cmplt_tot":540,"inst_green_cmplt_tot":155,"inst_perc_green_tot":0.287037},"geometry":{"type":"Point","coordinates":[-122.2793045,37.7810173]}},{"type":"Feature","properties":{"year":2021,"instnm":"College of Central Florida","CZ_label":"Orlando","inst_cmplt_tot":1133,"inst_green_cmplt_tot":15,"inst_perc_green_tot":0.0132392},"geometry":{"type":"Point","coordinates":[-82.1756897,29.1660786]}},{"type":"Feature","properties":{"year":2021,"instnm":"College of DuPage","CZ_label":"Chicago","inst_cmplt_tot":2033,"inst_green_cmplt_tot":169,"inst_perc_green_tot":0.0831284},"geometry":{"type":"Point","coordinates":[-88.0716324,41.8415756]}},{"type":"Feature","properties":{"year":2021,"instnm":"College of Eastern Idaho","CZ_label":"Idaho Falls","inst_cmplt_tot":300,"inst_green_cmplt_tot":47,"inst_perc_green_tot":0.1566667},"geometry":{"type":"Point","coordinates":[-111.9855194,43.486042]}},{"type":"Feature","properties":{"year":2021,"instnm":"College of Lake County","CZ_label":"Chicago","inst_cmplt_tot":1211,"inst_green_cmplt_tot":124,"inst_perc_green_tot":0.1023947},"geometry":{"type":"Point","coordinates":[-88.012291,42.3541641]}},{"type":"Feature","properties":{"year":2021,"instnm":"College of Marin","CZ_label":"San Francisco","inst_cmplt_tot":364,"inst_green_cmplt_tot":20,"inst_perc_green_tot":0.0549451},"geometry":{"type":"Point","coordinates":[-122.5491486,37.9548988]}},{"type":"Feature","properties":{"year":2021,"instnm":"College of Micronesia-FSM","CZ_label":null,"inst_cmplt_tot":298,"inst_green_cmplt_tot":55,"inst_perc_green_tot":0.1845638},"geometry":{"type":"Point","coordinates":[158.1581879,6.909759]}},{"type":"Feature","properties":{"year":2021,"instnm":"College of San Mateo","CZ_label":"San Francisco","inst_cmplt_tot":1042,"inst_green_cmplt_tot":169,"inst_perc_green_tot":0.1621881},"geometry":{"type":"Point","coordinates":[-122.3348007,37.5356979]}},{"type":"Feature","properties":{"year":2021,"instnm":"College of Southern Idaho","CZ_label":"Twin Falls","inst_cmplt_tot":772,"inst_green_cmplt_tot":157,"inst_perc_green_tot":0.2033679},"geometry":{"type":"Point","coordinates":[-114.4738998,42.5798378]}},{"type":"Feature","properties":{"year":2021,"instnm":"College of Southern Maryland","CZ_label":"Washington","inst_cmplt_tot":988,"inst_green_cmplt_tot":119,"inst_perc_green_tot":0.1204453},"geometry":{"type":"Point","coordinates":[-77.0092468,38.5589485]}},{"type":"Feature","properties":{"year":2021,"instnm":"College of Southern Nevada","CZ_label":"Las Vegas","inst_cmplt_tot":2843,"inst_green_cmplt_tot":760,"inst_perc_green_tot":0.2673233},"geometry":{"type":"Point","coordinates":[-115.2331009,36.1581154]}},{"type":"Feature","properties":{"year":2021,"instnm":"College of Western Idaho","CZ_label":"Boise","inst_cmplt_tot":1873,"inst_green_cmplt_tot":332,"inst_perc_green_tot":0.1772557},"geometry":{"type":"Point","coordinates":[-116.5073166,43.6141052]}},{"type":"Feature","properties":{"year":2021,"instnm":"College of the Albemarle","CZ_label":"Virginia Beach","inst_cmplt_tot":401,"inst_green_cmplt_tot":12,"inst_perc_green_tot":0.0299252},"geometry":{"type":"Point","coordinates":[-76.2197647,36.3248863]}},{"type":"Feature","properties":{"year":2021,"instnm":"College of the Canyons","CZ_label":"Los Angeles","inst_cmplt_tot":2913,"inst_green_cmplt_tot":371,"inst_perc_green_tot":0.1273601},"geometry":{"type":"Point","coordinates":[-118.5686951,34.4039917]}},{"type":"Feature","properties":{"year":2021,"instnm":"College of the Desert","CZ_label":"Los Angeles","inst_cmplt_tot":1421,"inst_green_cmplt_tot":105,"inst_perc_green_tot":0.0738916},"geometry":{"type":"Point","coordinates":[-116.3882675,33.7321091]}},{"type":"Feature","properties":{"year":2021,"instnm":"College of the Mainland","CZ_label":"Houston","inst_cmplt_tot":719,"inst_green_cmplt_tot":115,"inst_perc_green_tot":0.1599444},"geometry":{"type":"Point","coordinates":[-94.9996033,29.3958092]}},{"type":"Feature","properties":{"year":2021,"instnm":"College of the Marshall Islands","CZ_label":null,"inst_cmplt_tot":255,"inst_green_cmplt_tot":16,"inst_perc_green_tot":0.0627451},"geometry":{"type":"Point","coordinates":[171.3781281,7.1026878]}},{"type":"Feature","properties":{"year":2021,"instnm":"College of the Redwoods","CZ_label":"Eureka","inst_cmplt_tot":514,"inst_green_cmplt_tot":25,"inst_perc_green_tot":0.0486381},"geometry":{"type":"Point","coordinates":[-124.1952896,40.6984253]}},{"type":"Feature","properties":{"year":2021,"instnm":"College of the Sequoias","CZ_label":"Fresno","inst_cmplt_tot":1995,"inst_green_cmplt_tot":173,"inst_perc_green_tot":0.0867168},"geometry":{"type":"Point","coordinates":[-119.3151855,36.3238754]}},{"type":"Feature","properties":{"year":2021,"instnm":"College of the Siskiyous","CZ_label":"Klamath Falls","inst_cmplt_tot":263,"inst_green_cmplt_tot":14,"inst_perc_green_tot":0.0532319},"geometry":{"type":"Point","coordinates":[-122.3890915,41.4130058]}},{"type":"Feature","properties":{"year":2021,"instnm":"Collin County Community College District","CZ_label":"Dallas","inst_cmplt_tot":4397,"inst_green_cmplt_tot":54,"inst_perc_green_tot":0.0122811},"geometry":{"type":"Point","coordinates":[-96.6389389,33.1624107]}},{"type":"Feature","properties":{"year":2021,"instnm":"Colorado Mountain College","CZ_label":"Rifle & Edwards","inst_cmplt_tot":577,"inst_green_cmplt_tot":3,"inst_perc_green_tot":0.0051993},"geometry":{"type":"Point","coordinates":[-107.32444,39.54636]}},{"type":"Feature","properties":{"year":2021,"instnm":"Colorado Northwestern Community College","CZ_label":"Steamboat Springs","inst_cmplt_tot":92,"inst_green_cmplt_tot":3,"inst_perc_green_tot":0.0326087},"geometry":{"type":"Point","coordinates":[-108.7900467,40.0811119]}},{"type":"Feature","properties":{"year":2021,"instnm":"Columbia Basin College","CZ_label":"Kennewick","inst_cmplt_tot":1331,"inst_green_cmplt_tot":51,"inst_perc_green_tot":0.0383171},"geometry":{"type":"Point","coordinates":[-119.1210327,46.2521591]}},{"type":"Feature","properties":{"year":2021,"instnm":"Columbia College","CZ_label":"Stockton & Modesto","inst_cmplt_tot":270,"inst_green_cmplt_tot":69,"inst_perc_green_tot":0.2555556},"geometry":{"type":"Point","coordinates":[-120.388382,38.0303688]}},{"type":"Feature","properties":{"year":2021,"instnm":"Columbia Gorge Community College","CZ_label":"The Dalles","inst_cmplt_tot":137,"inst_green_cmplt_tot":10,"inst_perc_green_tot":0.0729927},"geometry":{"type":"Point","coordinates":[-121.1902008,45.5907249]}},{"type":"Feature","properties":{"year":2021,"instnm":"Columbia State Community College","CZ_label":"Spring Hill","inst_cmplt_tot":907,"inst_green_cmplt_tot":0,"inst_perc_green_tot":0},"geometry":{"type":"Point","coordinates":[-87.1019135,35.6167564]}},{"type":"Feature","properties":{"year":2021,"instnm":"Columbia-Greene Community College","CZ_label":"Albany","inst_cmplt_tot":223,"inst_green_cmplt_tot":12,"inst_perc_green_tot":0.0538117},"geometry":{"type":"Point","coordinates":[-73.8181152,42.2176132]}},{"type":"Feature","properties":{"year":2021,"instnm":"Columbus State Community College","CZ_label":"Columbus","inst_cmplt_tot":2572,"inst_green_cmplt_tot":374,"inst_perc_green_tot":0.1454121},"geometry":{"type":"Point","coordinates":[-82.9876633,39.9688683]}},{"type":"Feature","properties":{"year":2021,"instnm":"Columbus Technical College","CZ_label":"Columbus","inst_cmplt_tot":575,"inst_green_cmplt_tot":80,"inst_perc_green_tot":0.1391304},"geometry":{"type":"Point","coordinates":[-84.9785538,32.5080757]}},{"type":"Feature","properties":{"year":2021,"instnm":"Community College of Allegheny County","CZ_label":"Pittsburgh","inst_cmplt_tot":2268,"inst_green_cmplt_tot":780,"inst_perc_green_tot":0.3439153},"geometry":{"type":"Point","coordinates":[-80.0184555,40.4509087]}},{"type":"Feature","properties":{"year":2021,"instnm":"Community College of Aurora","CZ_label":"Denver","inst_cmplt_tot":502,"inst_green_cmplt_tot":32,"inst_perc_green_tot":0.063745},"geometry":{"type":"Point","coordinates":[-104.8026733,39.7178802]}},{"type":"Feature","properties":{"year":2021,"instnm":"Community College of Baltimore County","CZ_label":"Baltimore","inst_cmplt_tot":1145,"inst_green_cmplt_tot":46,"inst_perc_green_tot":0.0401747},"geometry":{"type":"Point","coordinates":[-76.4821091,39.3526459]}},{"type":"Feature","properties":{"year":2021,"instnm":"Community College of Beaver County","CZ_label":"Pittsburgh","inst_cmplt_tot":274,"inst_green_cmplt_tot":38,"inst_perc_green_tot":0.1386861},"geometry":{"type":"Point","coordinates":[-80.3058777,40.6556015]}},{"type":"Feature","properties":{"year":2021,"instnm":"Community College of Denver","CZ_label":"Denver","inst_cmplt_tot":673,"inst_green_cmplt_tot":43,"inst_perc_green_tot":0.063893},"geometry":{"type":"Point","coordinates":[-105.0010452,39.7414131]}},{"type":"Feature","properties":{"year":2021,"instnm":"Community College of Philadelphia","CZ_label":"Philadelphia","inst_cmplt_tot":1753,"inst_green_cmplt_tot":240,"inst_perc_green_tot":0.1369082},"geometry":{"type":"Point","coordinates":[-75.1656036,39.9624596]}},{"type":"Feature","properties":{"year":2021,"instnm":"Community College of Rhode Island","CZ_label":"Providence","inst_cmplt_tot":2062,"inst_green_cmplt_tot":37,"inst_perc_green_tot":0.0179437},"geometry":{"type":"Point","coordinates":[-71.4815063,41.7128181]}},{"type":"Feature","properties":{"year":2021,"instnm":"Community College of Vermont","CZ_label":"Lebanon & Claremont","inst_cmplt_tot":440,"inst_green_cmplt_tot":25,"inst_perc_green_tot":0.0568182},"geometry":{"type":"Point","coordinates":[-72.5737762,44.2808113]}},{"type":"Feature","properties":{"year":2021,"instnm":"Compton College","CZ_label":"Los Angeles","inst_cmplt_tot":428,"inst_green_cmplt_tot":70,"inst_perc_green_tot":0.1635514},"geometry":{"type":"Point","coordinates":[-118.209465,33.8782272]}},{"type":"Feature","properties":{"year":2021,"instnm":"Connors State College","CZ_label":"Muskogee","inst_cmplt_tot":517,"inst_green_cmplt_tot":116,"inst_perc_green_tot":0.2243714},"geometry":{"type":"Point","coordinates":[-95.3195419,35.4928741]}},{"type":"Feature","properties":{"year":2021,"instnm":"Contra Costa College","CZ_label":"San Francisco","inst_cmplt_tot":838,"inst_green_cmplt_tot":99,"inst_perc_green_tot":0.1181384},"geometry":{"type":"Point","coordinates":[-122.3373795,37.9693794]}},{"type":"Feature","properties":{"year":2021,"instnm":"Copiah-Lincoln Community College","CZ_label":"Jackson","inst_cmplt_tot":923,"inst_green_cmplt_tot":471,"inst_perc_green_tot":0.5102925},"geometry":{"type":"Point","coordinates":[-90.4002304,31.6927204]}},{"type":"Feature","properties":{"year":2021,"instnm":"Copper Mountain Community College","CZ_label":"Los Angeles","inst_cmplt_tot":240,"inst_green_cmplt_tot":0,"inst_perc_green_tot":0},"geometry":{"type":"Point","coordinates":[-116.2139359,34.1404648]}},{"type":"Feature","properties":{"year":2021,"instnm":"Cossatot Community College of the University of Arkansas","CZ_label":"Idabel & De Queen & Mena","inst_cmplt_tot":198,"inst_green_cmplt_tot":17,"inst_perc_green_tot":0.0858586},"geometry":{"type":"Point","coordinates":[-94.3673019,34.0433884]}},{"type":"Feature","properties":{"year":2021,"instnm":"Cosumnes River College","CZ_label":"Sacramento","inst_cmplt_tot":1284,"inst_green_cmplt_tot":183,"inst_perc_green_tot":0.1425234},"geometry":{"type":"Point","coordinates":[-121.423111,38.4529495]}},{"type":"Feature","properties":{"year":2021,"instnm":"County College of Morris","CZ_label":"Newark & Jersey City","inst_cmplt_tot":1176,"inst_green_cmplt_tot":89,"inst_perc_green_tot":0.0756803},"geometry":{"type":"Point","coordinates":[-74.5798721,40.8591423]}},{"type":"Feature","properties":{"year":2021,"instnm":"Cowley County Community College","CZ_label":"Wichita","inst_cmplt_tot":524,"inst_green_cmplt_tot":112,"inst_perc_green_tot":0.2137405},"geometry":{"type":"Point","coordinates":[-97.0430756,37.0616684]}},{"type":"Feature","properties":{"year":2021,"instnm":"Crafton Hills College","CZ_label":"Los Angeles","inst_cmplt_tot":806,"inst_green_cmplt_tot":93,"inst_perc_green_tot":0.1153846},"geometry":{"type":"Point","coordinates":[-117.1011734,34.0391769]}},{"type":"Feature","properties":{"year":2021,"instnm":"Craven Community College","CZ_label":"Jacksonville","inst_cmplt_tot":403,"inst_green_cmplt_tot":13,"inst_perc_green_tot":0.0322581},"geometry":{"type":"Point","coordinates":[-77.1022339,35.111515]}},{"type":"Feature","properties":{"year":2021,"instnm":"Crowder College","CZ_label":"Joplin","inst_cmplt_tot":641,"inst_green_cmplt_tot":97,"inst_perc_green_tot":0.1513261},"geometry":{"type":"Point","coordinates":[-94.3683167,36.8149071]}},{"type":"Feature","properties":{"year":2021,"instnm":"Cuesta College","CZ_label":"Santa Barbara","inst_cmplt_tot":1379,"inst_green_cmplt_tot":169,"inst_perc_green_tot":0.1225526},"geometry":{"type":"Point","coordinates":[-120.7422333,35.3312759]}},{"type":"Feature","properties":{"year":2021,"instnm":"Cuyahoga Community College District","CZ_label":"Cleveland","inst_cmplt_tot":3642,"inst_green_cmplt_tot":229,"inst_perc_green_tot":0.0628775},"geometry":{"type":"Point","coordinates":[-81.6835327,41.4949074]}},{"type":"Feature","properties":{"year":2021,"instnm":"Cuyamaca College","CZ_label":"San Diego","inst_cmplt_tot":884,"inst_green_cmplt_tot":284,"inst_perc_green_tot":0.321267},"geometry":{"type":"Point","coordinates":[-116.9435043,32.7449532]}},{"type":"Feature","properties":{"year":2021,"instnm":"Cypress College","CZ_label":"Los Angeles","inst_cmplt_tot":1509,"inst_green_cmplt_tot":185,"inst_perc_green_tot":0.1225977},"geometry":{"type":"Point","coordinates":[-118.0251465,33.828331]}},{"type":"Feature","properties":{"year":2021,"instnm":"Dabney S Lancaster Community College","CZ_label":"Covington","inst_cmplt_tot":155,"inst_green_cmplt_tot":24,"inst_perc_green_tot":0.1548387},"geometry":{"type":"Point","coordinates":[-79.8525391,37.8122749]}},{"type":"Feature","properties":{"year":2021,"instnm":"Dakota College at Bottineau","CZ_label":"Minot","inst_cmplt_tot":100,"inst_green_cmplt_tot":7,"inst_perc_green_tot":0.07},"geometry":{"type":"Point","coordinates":[-100.4411011,48.8325043]}},{"type":"Feature","properties":{"year":2021,"instnm":"Dakota County Technical College","CZ_label":"Minneapolis","inst_cmplt_tot":551,"inst_green_cmplt_tot":310,"inst_perc_green_tot":0.5626134},"geometry":{"type":"Point","coordinates":[-93.0780487,44.7372551]}},{"type":"Feature","properties":{"year":2021,"instnm":"Dallas College","CZ_label":"Dallas","inst_cmplt_tot":9086,"inst_green_cmplt_tot":169,"inst_perc_green_tot":0.0186},"geometry":{"type":"Point","coordinates":[-96.7940369,32.7663193]}},{"type":"Feature","properties":{"year":2021,"instnm":"Danville Area Community College","CZ_label":"Lafayette","inst_cmplt_tot":325,"inst_green_cmplt_tot":38,"inst_perc_green_tot":0.1169231},"geometry":{"type":"Point","coordinates":[-87.587883,40.1275406]}},{"type":"Feature","properties":{"year":2021,"instnm":"Danville Community College","CZ_label":"Burlington","inst_cmplt_tot":418,"inst_green_cmplt_tot":134,"inst_perc_green_tot":0.3205742},"geometry":{"type":"Point","coordinates":[-79.4088058,36.5652847]}},{"type":"Feature","properties":{"year":2021,"instnm":"Davidson-Davie Community College","CZ_label":"Winston-Salem","inst_cmplt_tot":558,"inst_green_cmplt_tot":45,"inst_perc_green_tot":0.0806452},"geometry":{"type":"Point","coordinates":[-80.1818695,35.8654709]}},{"type":"Feature","properties":{"year":2021,"instnm":"Dawson Community College","CZ_label":"Miles City","inst_cmplt_tot":76,"inst_green_cmplt_tot":13,"inst_perc_green_tot":0.1710526},"geometry":{"type":"Point","coordinates":[-104.7254868,47.0853958]}},{"type":"Feature","properties":{"year":2021,"instnm":"Daytona State College","CZ_label":"Deltona","inst_cmplt_tot":2864,"inst_green_cmplt_tot":220,"inst_perc_green_tot":0.0768156},"geometry":{"type":"Point","coordinates":[-81.0496826,29.2032757]}},{"type":"Feature","properties":{"year":2021,"instnm":"De Anza College","CZ_label":"San Jose","inst_cmplt_tot":1894,"inst_green_cmplt_tot":137,"inst_perc_green_tot":0.0723337},"geometry":{"type":"Point","coordinates":[-122.045784,37.3199158]}},{"type":"Feature","properties":{"year":2021,"instnm":"Del Mar College","CZ_label":"McAllen","inst_cmplt_tot":1126,"inst_green_cmplt_tot":270,"inst_perc_green_tot":0.2397869},"geometry":{"type":"Point","coordinates":[-97.4076233,27.7636185]}},{"type":"Feature","properties":{"year":2021,"instnm":"Delaware County Community College","CZ_label":"Philadelphia","inst_cmplt_tot":1047,"inst_green_cmplt_tot":153,"inst_perc_green_tot":0.1461318},"geometry":{"type":"Point","coordinates":[-75.3930817,39.9667244]}},{"type":"Feature","properties":{"year":2021,"instnm":"Delaware Technical Community College-Terry","CZ_label":"Dover","inst_cmplt_tot":1761,"inst_green_cmplt_tot":300,"inst_perc_green_tot":0.1703578},"geometry":{"type":"Point","coordinates":[-75.5601196,39.1983719]}},{"type":"Feature","properties":{"year":2021,"instnm":"Delgado Community College","CZ_label":"New Orleans","inst_cmplt_tot":1427,"inst_green_cmplt_tot":198,"inst_perc_green_tot":0.1387526},"geometry":{"type":"Point","coordinates":[-90.1039658,29.9851494]}},{"type":"Feature","properties":{"year":2021,"instnm":"Delta College","CZ_label":"Saginaw","inst_cmplt_tot":575,"inst_green_cmplt_tot":64,"inst_perc_green_tot":0.1113043},"geometry":{"type":"Point","coordinates":[-83.9859467,43.5594902]}},{"type":"Feature","properties":{"year":2021,"instnm":"Denmark Technical College","CZ_label":"Columbia","inst_cmplt_tot":21,"inst_green_cmplt_tot":0,"inst_perc_green_tot":0},"geometry":{"type":"Point","coordinates":[-81.1236267,33.3133545]}},{"type":"Feature","properties":{"year":2021,"instnm":"Des Moines Area Community College","CZ_label":"Des Moines","inst_cmplt_tot":2011,"inst_green_cmplt_tot":236,"inst_perc_green_tot":0.1173545},"geometry":{"type":"Point","coordinates":[-93.6115952,41.7073479]}},{"type":"Feature","properties":{"year":2021,"instnm":"Diablo Valley College","CZ_label":"San Francisco","inst_cmplt_tot":1621,"inst_green_cmplt_tot":434,"inst_perc_green_tot":0.267736},"geometry":{"type":"Point","coordinates":[-122.073143,37.9685173]}},{"type":"Feature","properties":{"year":2021,"instnm":"Dine College","CZ_label":"Gallup","inst_cmplt_tot":135,"inst_green_cmplt_tot":33,"inst_perc_green_tot":0.2444444},"geometry":{"type":"Point","coordinates":[-109.2168427,36.2933273]}},{"type":"Feature","properties":{"year":2021,"instnm":"Dodge City Community College","CZ_label":"Dodge City","inst_cmplt_tot":122,"inst_green_cmplt_tot":20,"inst_perc_green_tot":0.1639344},"geometry":{"type":"Point","coordinates":[-100.0374832,37.7768898]}},{"type":"Feature","properties":{"year":2021,"instnm":"Durham Technical Community College","CZ_label":"Raleigh","inst_cmplt_tot":670,"inst_green_cmplt_tot":29,"inst_perc_green_tot":0.0432836},"geometry":{"type":"Point","coordinates":[-78.8816986,35.9747696]}},{"type":"Feature","properties":{"year":2021,"instnm":"Dutchess Community College","CZ_label":"Poughkeepsie","inst_cmplt_tot":985,"inst_green_cmplt_tot":95,"inst_perc_green_tot":0.0964467},"geometry":{"type":"Point","coordinates":[-73.9046555,41.7242432]}},{"type":"Feature","properties":{"year":2021,"instnm":"Dyersburg State Community College","CZ_label":"Dyersburg","inst_cmplt_tot":316,"inst_green_cmplt_tot":3,"inst_perc_green_tot":0.0094937},"geometry":{"type":"Point","coordinates":[-89.3907928,36.0475655]}},{"type":"Feature","properties":{"year":2021,"instnm":"East Arkansas Community College","CZ_label":"Forrest City","inst_cmplt_tot":193,"inst_green_cmplt_tot":28,"inst_perc_green_tot":0.1450777},"geometry":{"type":"Point","coordinates":[-90.7677231,35.0416565]}},{"type":"Feature","properties":{"year":2021,"instnm":"East Central College","CZ_label":"St. Louis","inst_cmplt_tot":506,"inst_green_cmplt_tot":113,"inst_perc_green_tot":0.2233202},"geometry":{"type":"Point","coordinates":[-90.9780884,38.4318466]}},{"type":"Feature","properties":{"year":2021,"instnm":"East Central Community College","CZ_label":"Meridian","inst_cmplt_tot":550,"inst_green_cmplt_tot":82,"inst_perc_green_tot":0.1490909},"geometry":{"type":"Point","coordinates":[-89.1137085,32.4411621]}},{"type":"Feature","properties":{"year":2021,"instnm":"East Los Angeles College","CZ_label":"Los Angeles","inst_cmplt_tot":5334,"inst_green_cmplt_tot":138,"inst_perc_green_tot":0.0258718},"geometry":{"type":"Point","coordinates":[-118.1487885,34.0405312]}},{"type":"Feature","properties":{"year":2021,"instnm":"East Mississippi Community College","CZ_label":"Meridian","inst_cmplt_tot":953,"inst_green_cmplt_tot":347,"inst_perc_green_tot":0.3641133},"geometry":{"type":"Point","coordinates":[-88.4835129,32.830246]}},{"type":"Feature","properties":{"year":2021,"instnm":"Eastern Arizona College","CZ_label":"Deming","inst_cmplt_tot":492,"inst_green_cmplt_tot":37,"inst_perc_green_tot":0.0752033},"geometry":{"type":"Point","coordinates":[-109.7623367,32.8436623]}},{"type":"Feature","properties":{"year":2021,"instnm":"Eastern Florida State College","CZ_label":"Palm Bay & Port St. Lucie","inst_cmplt_tot":2746,"inst_green_cmplt_tot":119,"inst_perc_green_tot":0.0433358},"geometry":{"type":"Point","coordinates":[-80.7564774,28.3836098]}},{"type":"Feature","properties":{"year":2021,"instnm":"Eastern Gateway Community College","CZ_label":"Wheeling","inst_cmplt_tot":753,"inst_green_cmplt_tot":9,"inst_perc_green_tot":0.0119522},"geometry":{"type":"Point","coordinates":[-80.6723404,40.3760567]}},{"type":"Feature","properties":{"year":2021,"instnm":"Eastern Iowa Community College District","CZ_label":"Davenport","inst_cmplt_tot":898,"inst_green_cmplt_tot":84,"inst_perc_green_tot":0.0935412},"geometry":{"type":"Point","coordinates":[-90.5744553,41.5221786]}},{"type":"Feature","properties":{"year":2021,"instnm":"Eastern Maine Community College","CZ_label":"Bangor","inst_cmplt_tot":362,"inst_green_cmplt_tot":112,"inst_perc_green_tot":0.3093923},"geometry":{"type":"Point","coordinates":[-68.7444534,44.8260498]}},{"type":"Feature","properties":{"year":2021,"instnm":"Eastern New Mexico University Ruidoso Branch Community College","CZ_label":"Alamogordo","inst_cmplt_tot":58,"inst_green_cmplt_tot":0,"inst_perc_green_tot":0},"geometry":{"type":"Point","coordinates":[-105.6772766,33.3463745]}},{"type":"Feature","properties":{"year":2021,"instnm":"Eastern New Mexico University-Roswell Campus","CZ_label":"Roswell","inst_cmplt_tot":241,"inst_green_cmplt_tot":47,"inst_perc_green_tot":0.1950207},"geometry":{"type":"Point","coordinates":[-104.5257187,33.3131676]}},{"type":"Feature","properties":{"year":2021,"instnm":"Eastern Oklahoma State College","CZ_label":"McAlester","inst_cmplt_tot":257,"inst_green_cmplt_tot":86,"inst_perc_green_tot":0.3346304},"geometry":{"type":"Point","coordinates":[-95.3289948,34.9140778]}},{"type":"Feature","properties":{"year":2021,"instnm":"Eastern Shore Community College","CZ_label":"Chincoteague","inst_cmplt_tot":64,"inst_green_cmplt_tot":4,"inst_perc_green_tot":0.0625},"geometry":{"type":"Point","coordinates":[-75.7511292,37.6396523]}},{"type":"Feature","properties":{"year":2021,"instnm":"Eastern West Virginia Community and Technical College","CZ_label":"Cumberland","inst_cmplt_tot":68,"inst_green_cmplt_tot":27,"inst_perc_green_tot":0.3970588},"geometry":{"type":"Point","coordinates":[-78.9325485,39.0755615]}},{"type":"Feature","properties":{"year":2021,"instnm":"Eastern Wyoming College","CZ_label":"Torrington","inst_cmplt_tot":194,"inst_green_cmplt_tot":52,"inst_perc_green_tot":0.2680412},"geometry":{"type":"Point","coordinates":[-104.1908264,42.0793533]}},{"type":"Feature","properties":{"year":2021,"instnm":"Edgecombe Community College","CZ_label":"Rocky Mount & Wilson","inst_cmplt_tot":107,"inst_green_cmplt_tot":4,"inst_perc_green_tot":0.0373832},"geometry":{"type":"Point","coordinates":[-77.571785,35.8798676]}},{"type":"Feature","properties":{"year":2021,"instnm":"Edison State Community College","CZ_label":"Dayton","inst_cmplt_tot":355,"inst_green_cmplt_tot":42,"inst_perc_green_tot":0.1183099},"geometry":{"type":"Point","coordinates":[-84.2123871,40.1576996]}},{"type":"Feature","properties":{"year":2021,"instnm":"Edmonds College","CZ_label":"Seattle","inst_cmplt_tot":1036,"inst_green_cmplt_tot":240,"inst_perc_green_tot":0.2316602},"geometry":{"type":"Point","coordinates":[-122.3275986,47.8163757]}},{"type":"Feature","properties":{"year":2021,"instnm":"El Camino Community College District","CZ_label":"Los Angeles","inst_cmplt_tot":3150,"inst_green_cmplt_tot":539,"inst_perc_green_tot":0.1711111},"geometry":{"type":"Point","coordinates":[-118.3299103,33.8852272]}},{"type":"Feature","properties":{"year":2021,"instnm":"El Paso Community College","CZ_label":"El Paso","inst_cmplt_tot":3986,"inst_green_cmplt_tot":789,"inst_perc_green_tot":0.1979428},"geometry":{"type":"Point","coordinates":[-106.3736191,31.7733593]}},{"type":"Feature","properties":{"year":2021,"instnm":"Elgin Community College","CZ_label":"Chicago","inst_cmplt_tot":1183,"inst_green_cmplt_tot":97,"inst_perc_green_tot":0.0819949},"geometry":{"type":"Point","coordinates":[-88.3219376,42.0180664]}},{"type":"Feature","properties":{"year":2021,"instnm":"Elizabethtown Community and Technical College","CZ_label":"Elizabethtown","inst_cmplt_tot":674,"inst_green_cmplt_tot":118,"inst_perc_green_tot":0.1750742},"geometry":{"type":"Point","coordinates":[-85.8799286,37.6928596]}},{"type":"Feature","properties":{"year":2021,"instnm":"Ellsworth Community College","CZ_label":"Iowa Falls & Hampton","inst_cmplt_tot":143,"inst_green_cmplt_tot":16,"inst_perc_green_tot":0.1118881},"geometry":{"type":"Point","coordinates":[-93.2658539,42.527523]}},{"type":"Feature","properties":{"year":2021,"instnm":"Enterprise State Community College","CZ_label":"Dothan","inst_cmplt_tot":156,"inst_green_cmplt_tot":13,"inst_perc_green_tot":0.0833333},"geometry":{"type":"Point","coordinates":[-85.8369522,31.2974968]}},{"type":"Feature","properties":{"year":2021,"instnm":"Erie Community College","CZ_label":"Buffalo","inst_cmplt_tot":1748,"inst_green_cmplt_tot":529,"inst_perc_green_tot":0.3026316},"geometry":{"type":"Point","coordinates":[-78.8726807,42.8817711]}},{"type":"Feature","properties":{"year":2021,"instnm":"Essex County College","CZ_label":"Newark & Jersey City","inst_cmplt_tot":1065,"inst_green_cmplt_tot":275,"inst_perc_green_tot":0.258216},"geometry":{"type":"Point","coordinates":[-74.1782303,40.7384453]}},{"type":"Feature","properties":{"year":2021,"instnm":"Estrella Mountain Community College","CZ_label":"Phoenix","inst_cmplt_tot":2091,"inst_green_cmplt_tot":333,"inst_perc_green_tot":0.1592539},"geometry":{"type":"Point","coordinates":[-112.3431549,33.4807205]}},{"type":"Feature","properties":{"year":2021,"instnm":"Everett Community College","CZ_label":"Seattle","inst_cmplt_tot":1489,"inst_green_cmplt_tot":187,"inst_perc_green_tot":0.1255876},"geometry":{"type":"Point","coordinates":[-122.2047348,48.0066261]}},{"type":"Feature","properties":{"year":2021,"instnm":"Evergreen Valley College","CZ_label":"San Jose","inst_cmplt_tot":1121,"inst_green_cmplt_tot":156,"inst_perc_green_tot":0.1391615},"geometry":{"type":"Point","coordinates":[-121.7656097,37.3016701]}},{"type":"Feature","properties":{"year":2021,"instnm":"Fashion Institute of Technology","CZ_label":"New York","inst_cmplt_tot":1904,"inst_green_cmplt_tot":0,"inst_perc_green_tot":0},"geometry":{"type":"Point","coordinates":[-73.9947815,40.7473106]}},{"type":"Feature","properties":{"year":2021,"instnm":"Fayetteville Technical Community College","CZ_label":"Fayetteville","inst_cmplt_tot":1584,"inst_green_cmplt_tot":46,"inst_perc_green_tot":0.0290404},"geometry":{"type":"Point","coordinates":[-78.9265823,35.0688515]}},{"type":"Feature","properties":{"year":2021,"instnm":"Feather River Community College District","CZ_label":"Susanville","inst_cmplt_tot":240,"inst_green_cmplt_tot":77,"inst_perc_green_tot":0.3208333},"geometry":{"type":"Point","coordinates":[-120.9730682,39.9531021]}},{"type":"Feature","properties":{"year":2021,"instnm":"Finger Lakes Community College","CZ_label":"Rochester","inst_cmplt_tot":633,"inst_green_cmplt_tot":160,"inst_perc_green_tot":0.2527646},"geometry":{"type":"Point","coordinates":[-77.2417984,42.8675575]}},{"type":"Feature","properties":{"year":2021,"instnm":"Flathead Valley Community College","CZ_label":"Kalispell","inst_cmplt_tot":278,"inst_green_cmplt_tot":25,"inst_perc_green_tot":0.0899281},"geometry":{"type":"Point","coordinates":[-114.3272552,48.2273903]}},{"type":"Feature","properties":{"year":2021,"instnm":"Fletcher Technical Community College","CZ_label":"Houma","inst_cmplt_tot":281,"inst_green_cmplt_tot":120,"inst_perc_green_tot":0.4270463},"geometry":{"type":"Point","coordinates":[-90.8117065,29.6908836]}},{"type":"Feature","properties":{"year":2021,"instnm":"Flint Hills Technical College","CZ_label":"Emporia","inst_cmplt_tot":256,"inst_green_cmplt_tot":152,"inst_perc_green_tot":0.59375},"geometry":{"type":"Point","coordinates":[-96.224144,38.4188805]}},{"type":"Feature","properties":{"year":2021,"instnm":"Florence-Darlington Technical College","CZ_label":"Myrtle Beach","inst_cmplt_tot":428,"inst_green_cmplt_tot":102,"inst_perc_green_tot":0.2383178},"geometry":{"type":"Point","coordinates":[-79.8146896,34.2438812]}},{"type":"Feature","properties":{"year":2021,"instnm":"Florida Gateway College","CZ_label":"Gainesville","inst_cmplt_tot":538,"inst_green_cmplt_tot":42,"inst_perc_green_tot":0.0780669},"geometry":{"type":"Point","coordinates":[-82.5679016,30.1752987]}},{"type":"Feature","properties":{"year":2021,"instnm":"Florida SouthWestern State College","CZ_label":"Cape Coral","inst_cmplt_tot":2467,"inst_green_cmplt_tot":25,"inst_perc_green_tot":0.0101338},"geometry":{"type":"Point","coordinates":[-81.8871002,26.5524025]}},{"type":"Feature","properties":{"year":2021,"instnm":"Florida State College at Jacksonville","CZ_label":"Jacksonville","inst_cmplt_tot":5271,"inst_green_cmplt_tot":85,"inst_perc_green_tot":0.016126},"geometry":{"type":"Point","coordinates":[-81.6599045,30.3349171]}},{"type":"Feature","properties":{"year":2021,"instnm":"Folsom Lake College","CZ_label":"Sacramento","inst_cmplt_tot":1317,"inst_green_cmplt_tot":93,"inst_perc_green_tot":0.070615},"geometry":{"type":"Point","coordinates":[-121.1274872,38.6613731]}},{"type":"Feature","properties":{"year":2021,"instnm":"Fond du Lac Tribal and Community College","CZ_label":"Duluth","inst_cmplt_tot":141,"inst_green_cmplt_tot":7,"inst_perc_green_tot":0.0496454},"geometry":{"type":"Point","coordinates":[-92.4513245,46.6900673]}},{"type":"Feature","properties":{"year":2021,"instnm":"Foothill College","CZ_label":"San Jose","inst_cmplt_tot":1899,"inst_green_cmplt_tot":239,"inst_perc_green_tot":0.1258557},"geometry":{"type":"Point","coordinates":[-122.1279602,37.3616562]}},{"type":"Feature","properties":{"year":2021,"instnm":"Forsyth Technical Community College","CZ_label":"Winston-Salem","inst_cmplt_tot":1211,"inst_green_cmplt_tot":169,"inst_perc_green_tot":0.1395541},"geometry":{"type":"Point","coordinates":[-80.2722168,36.0685387]}},{"type":"Feature","properties":{"year":2021,"instnm":"Fort Scott Community College","CZ_label":"Joplin","inst_cmplt_tot":223,"inst_green_cmplt_tot":39,"inst_perc_green_tot":0.1748879},"geometry":{"type":"Point","coordinates":[-94.715332,37.8162079]}},{"type":"Feature","properties":{"year":2021,"instnm":"Fox Valley Technical College","CZ_label":"Appleton","inst_cmplt_tot":1433,"inst_green_cmplt_tot":431,"inst_perc_green_tot":0.3007676},"geometry":{"type":"Point","coordinates":[-88.458931,44.2831726]}},{"type":"Feature","properties":{"year":2021,"instnm":"Frank Phillips College","CZ_label":"Amarillo","inst_cmplt_tot":182,"inst_green_cmplt_tot":22,"inst_perc_green_tot":0.1208791},"geometry":{"type":"Point","coordinates":[-101.4060059,35.6577797]}},{"type":"Feature","properties":{"year":2021,"instnm":"Frederick Community College","CZ_label":"Hagerstown & Frederick","inst_cmplt_tot":521,"inst_green_cmplt_tot":112,"inst_perc_green_tot":0.2149712},"geometry":{"type":"Point","coordinates":[-77.4178467,39.45224]}},{"type":"Feature","properties":{"year":2021,"instnm":"Fresno City College","CZ_label":"Fresno","inst_cmplt_tot":2374,"inst_green_cmplt_tot":897,"inst_perc_green_tot":0.3778433},"geometry":{"type":"Point","coordinates":[-119.7960968,36.7681656]}},{"type":"Feature","properties":{"year":2021,"instnm":"Front Range Community College","CZ_label":"Denver","inst_cmplt_tot":1629,"inst_green_cmplt_tot":79,"inst_perc_green_tot":0.048496},"geometry":{"type":"Point","coordinates":[-105.0380707,39.9014511]}},{"type":"Feature","properties":{"year":2021,"instnm":"Frontier Community College","CZ_label":"Olney","inst_cmplt_tot":116,"inst_green_cmplt_tot":30,"inst_perc_green_tot":0.2586207},"geometry":{"type":"Point","coordinates":[-88.3921967,38.3802719]}},{"type":"Feature","properties":{"year":2021,"instnm":"Fullerton College","CZ_label":"Los Angeles","inst_cmplt_tot":3188,"inst_green_cmplt_tot":344,"inst_perc_green_tot":0.1079046},"geometry":{"type":"Point","coordinates":[-117.9182587,33.875515]}},{"type":"Feature","properties":{"year":2021,"instnm":"Fulton-Montgomery Community College","CZ_label":"Albany","inst_cmplt_tot":210,"inst_green_cmplt_tot":24,"inst_perc_green_tot":0.1142857},"geometry":{"type":"Point","coordinates":[-74.297493,42.9838066]}},{"type":"Feature","properties":{"year":2021,"instnm":"Gadsden State Community College","CZ_label":"Gadsden","inst_cmplt_tot":559,"inst_green_cmplt_tot":53,"inst_perc_green_tot":0.0948122},"geometry":{"type":"Point","coordinates":[-85.9914398,33.9939995]}},{"type":"Feature","properties":{"year":2021,"instnm":"Galveston College","CZ_label":"Houston","inst_cmplt_tot":367,"inst_green_cmplt_tot":32,"inst_perc_green_tot":0.0871935},"geometry":{"type":"Point","coordinates":[-94.8076859,29.2847347]}},{"type":"Feature","properties":{"year":2021,"instnm":"Garden City Community College","CZ_label":"Garden City","inst_cmplt_tot":355,"inst_green_cmplt_tot":62,"inst_perc_green_tot":0.1746479},"geometry":{"type":"Point","coordinates":[-100.8480835,37.97015]}},{"type":"Feature","properties":{"year":2021,"instnm":"Garrett College","CZ_label":"Cumberland","inst_cmplt_tot":109,"inst_green_cmplt_tot":14,"inst_perc_green_tot":0.1284404},"geometry":{"type":"Point","coordinates":[-79.342926,39.5604935]}},{"type":"Feature","properties":{"year":2021,"instnm":"Gaston College","CZ_label":"Charlotte","inst_cmplt_tot":647,"inst_green_cmplt_tot":68,"inst_perc_green_tot":0.1051005},"geometry":{"type":"Point","coordinates":[-81.1885223,35.3120499]}},{"type":"Feature","properties":{"year":2021,"instnm":"GateWay Community College","CZ_label":"Phoenix","inst_cmplt_tot":811,"inst_green_cmplt_tot":122,"inst_perc_green_tot":0.1504316},"geometry":{"type":"Point","coordinates":[-111.9970779,33.4496841]}},{"type":"Feature","properties":{"year":2021,"instnm":"GateWay Community College-Central City","CZ_label":"Phoenix","inst_cmplt_tot":29,"inst_green_cmplt_tot":0,"inst_perc_green_tot":0},"geometry":{"type":"Point","coordinates":[-112.0549088,33.4356842]}},{"type":"Feature","properties":{"year":2021,"instnm":"Gateway Community College","CZ_label":null,"inst_cmplt_tot":589,"inst_green_cmplt_tot":74,"inst_perc_green_tot":0.1256367},"geometry":{"type":"Point","coordinates":[-72.927681,41.3037834]}},{"type":"Feature","properties":{"year":2021,"instnm":"Gateway Community and Technical College","CZ_label":"Cincinnati","inst_cmplt_tot":588,"inst_green_cmplt_tot":124,"inst_perc_green_tot":0.2108844},"geometry":{"type":"Point","coordinates":[-84.6334763,38.9606361]}},{"type":"Feature","properties":{"year":2021,"instnm":"Gateway Technical College","CZ_label":"Chicago","inst_cmplt_tot":848,"inst_green_cmplt_tot":182,"inst_perc_green_tot":0.2146226},"geometry":{"type":"Point","coordinates":[-87.8466949,42.6056786]}},{"type":"Feature","properties":{"year":2021,"instnm":"Gavilan College","CZ_label":"San Jose","inst_cmplt_tot":544,"inst_green_cmplt_tot":142,"inst_perc_green_tot":0.2610294},"geometry":{"type":"Point","coordinates":[-121.5698395,36.9726257]}},{"type":"Feature","properties":{"year":2021,"instnm":"Genesee Community College","CZ_label":"Buffalo","inst_cmplt_tot":434,"inst_green_cmplt_tot":2,"inst_perc_green_tot":0.0046083},"geometry":{"type":"Point","coordinates":[-78.1375885,43.0165825]}},{"type":"Feature","properties":{"year":2021,"instnm":"George C Wallace Community College-Dothan","CZ_label":"Dothan","inst_cmplt_tot":585,"inst_green_cmplt_tot":35,"inst_perc_green_tot":0.0598291},"geometry":{"type":"Point","coordinates":[-85.4658356,31.3152733]}},{"type":"Feature","properties":{"year":2021,"instnm":"George C Wallace State Community College-Hanceville","CZ_label":"Birmingham","inst_cmplt_tot":1073,"inst_green_cmplt_tot":138,"inst_perc_green_tot":0.1286114},"geometry":{"type":"Point","coordinates":[-86.7819366,34.0724373]}},{"type":"Feature","properties":{"year":2021,"instnm":"George C Wallace State Community College-Selma","CZ_label":"Tuscaloosa","inst_cmplt_tot":445,"inst_green_cmplt_tot":130,"inst_perc_green_tot":0.2921348},"geometry":{"type":"Point","coordinates":[-87.0132904,32.4459152]}},{"type":"Feature","properties":{"year":2021,"instnm":"Georgia Northwestern Technical College","CZ_label":"Dalton","inst_cmplt_tot":677,"inst_green_cmplt_tot":256,"inst_perc_green_tot":0.3781388},"geometry":{"type":"Point","coordinates":[-85.1713638,34.2246742]}},{"type":"Feature","properties":{"year":2021,"instnm":"Georgia Piedmont Technical College","CZ_label":"Atlanta","inst_cmplt_tot":244,"inst_green_cmplt_tot":75,"inst_perc_green_tot":0.307377},"geometry":{"type":"Point","coordinates":[-84.2345047,33.7898979]}},{"type":"Feature","properties":{"year":2021,"instnm":"Germanna Community College","CZ_label":"Culpeper","inst_cmplt_tot":1560,"inst_green_cmplt_tot":54,"inst_perc_green_tot":0.0346154},"geometry":{"type":"Point","coordinates":[-77.7801208,38.3755302]}},{"type":"Feature","properties":{"year":2021,"instnm":"Glen Oaks Community College","CZ_label":"South Bend","inst_cmplt_tot":254,"inst_green_cmplt_tot":28,"inst_perc_green_tot":0.1102362},"geometry":{"type":"Point","coordinates":[-85.4969254,41.8925056]}},{"type":"Feature","properties":{"year":2021,"instnm":"Glendale Community College","CZ_label":"Phoenix","inst_cmplt_tot":3045,"inst_green_cmplt_tot":490,"inst_perc_green_tot":0.1609195},"geometry":{"type":"Point","coordinates":[-112.1907349,33.5702248]}},{"type":"Feature","properties":{"year":2021,"instnm":"Glendale Community College","CZ_label":"Los Angeles","inst_cmplt_tot":1132,"inst_green_cmplt_tot":205,"inst_perc_green_tot":0.1810954},"geometry":{"type":"Point","coordinates":[-118.2276688,34.16745]}},{"type":"Feature","properties":{"year":2021,"instnm":"Gogebic Community College","CZ_label":"Ironwood","inst_cmplt_tot":188,"inst_green_cmplt_tot":61,"inst_perc_green_tot":0.3244681},"geometry":{"type":"Point","coordinates":[-90.1655884,46.4718933]}},{"type":"Feature","properties":{"year":2021,"instnm":"Golden West College","CZ_label":"Los Angeles","inst_cmplt_tot":3721,"inst_green_cmplt_tot":340,"inst_perc_green_tot":0.0913733},"geometry":{"type":"Point","coordinates":[-118.0025711,33.7325325]}},{"type":"Feature","properties":{"year":2021,"instnm":"Grand Rapids Community College","CZ_label":"Grand Rapids","inst_cmplt_tot":1509,"inst_green_cmplt_tot":202,"inst_perc_green_tot":0.1338635},"geometry":{"type":"Point","coordinates":[-85.6656265,42.9670753]}},{"type":"Feature","properties":{"year":2021,"instnm":"Grays Harbor College","CZ_label":"Aberdeen","inst_cmplt_tot":354,"inst_green_cmplt_tot":85,"inst_perc_green_tot":0.240113},"geometry":{"type":"Point","coordinates":[-123.8030701,46.9538803]}},{"type":"Feature","properties":{"year":2021,"instnm":"Grayson College","CZ_label":"Dallas","inst_cmplt_tot":633,"inst_green_cmplt_tot":43,"inst_perc_green_tot":0.0679305},"geometry":{"type":"Point","coordinates":[-96.6338882,33.7057419]}},{"type":"Feature","properties":{"year":2021,"instnm":"Great Basin College","CZ_label":"Elko","inst_cmplt_tot":613,"inst_green_cmplt_tot":401,"inst_perc_green_tot":0.6541599},"geometry":{"type":"Point","coordinates":[-115.7672729,40.8434296]}},{"type":"Feature","properties":{"year":2021,"instnm":"Great Bay Community College","CZ_label":"Nashua","inst_cmplt_tot":238,"inst_green_cmplt_tot":54,"inst_perc_green_tot":0.2268908},"geometry":{"type":"Point","coordinates":[-70.7989655,43.072094]}},{"type":"Feature","properties":{"year":2021,"instnm":"Great Falls College Montana State University","CZ_label":"Great Falls","inst_cmplt_tot":201,"inst_green_cmplt_tot":16,"inst_perc_green_tot":0.079602},"geometry":{"type":"Point","coordinates":[-111.2695618,47.4855804]}},{"type":"Feature","properties":{"year":2021,"instnm":"Green River College","CZ_label":"Seattle","inst_cmplt_tot":2067,"inst_green_cmplt_tot":505,"inst_perc_green_tot":0.2443154},"geometry":{"type":"Point","coordinates":[-122.1758194,47.3136482]}},{"type":"Feature","properties":{"year":2021,"instnm":"Greenfield Community College","CZ_label":"Springfield","inst_cmplt_tot":223,"inst_green_cmplt_tot":33,"inst_perc_green_tot":0.1479821},"geometry":{"type":"Point","coordinates":[-72.6309738,42.5995102]}},{"type":"Feature","properties":{"year":2021,"instnm":"Greenville Technical College","CZ_label":"Greenville","inst_cmplt_tot":1249,"inst_green_cmplt_tot":290,"inst_perc_green_tot":0.2321857},"geometry":{"type":"Point","coordinates":[-82.3711777,34.8262138]}},{"type":"Feature","properties":{"year":2021,"instnm":"Grossmont College","CZ_label":"San Diego","inst_cmplt_tot":1993,"inst_green_cmplt_tot":204,"inst_perc_green_tot":0.1023583},"geometry":{"type":"Point","coordinates":[-117.006279,32.8152466]}},{"type":"Feature","properties":{"year":2021,"instnm":"Guam Community College","CZ_label":null,"inst_cmplt_tot":234,"inst_green_cmplt_tot":28,"inst_perc_green_tot":0.1196581},"geometry":{"type":"Point","coordinates":[144.8089447,13.440649]}},{"type":"Feature","properties":{"year":2021,"instnm":"Guilford Technical Community College","CZ_label":"Winston-Salem","inst_cmplt_tot":1420,"inst_green_cmplt_tot":278,"inst_perc_green_tot":0.1957746},"geometry":{"type":"Point","coordinates":[-79.9206238,35.9984589]}},{"type":"Feature","properties":{"year":2021,"instnm":"Gulf Coast State College","CZ_label":"Panama City","inst_cmplt_tot":772,"inst_green_cmplt_tot":8,"inst_perc_green_tot":0.0103627},"geometry":{"type":"Point","coordinates":[-85.7279205,30.1855412]}},{"type":"Feature","properties":{"year":2021,"instnm":"Gwinnett Technical College","CZ_label":"Gainesville","inst_cmplt_tot":657,"inst_green_cmplt_tot":192,"inst_perc_green_tot":0.2922374},"geometry":{"type":"Point","coordinates":[-84.0662231,33.9627647]}},{"type":"Feature","properties":{"year":2021,"instnm":"H Councill Trenholm State Community College","CZ_label":"Montgomery","inst_cmplt_tot":104,"inst_green_cmplt_tot":9,"inst_perc_green_tot":0.0865385},"geometry":{"type":"Point","coordinates":[-86.3430557,32.3501091]}},{"type":"Feature","properties":{"year":2021,"instnm":"Hagerstown Community College","CZ_label":"Hagerstown & Frederick","inst_cmplt_tot":678,"inst_green_cmplt_tot":34,"inst_perc_green_tot":0.0501475},"geometry":{"type":"Point","coordinates":[-77.6673813,39.6310081]}},{"type":"Feature","properties":{"year":2021,"instnm":"Halifax Community College","CZ_label":"Roanoke Rapids","inst_cmplt_tot":151,"inst_green_cmplt_tot":15,"inst_perc_green_tot":0.0993377},"geometry":{"type":"Point","coordinates":[-77.6176834,36.4277115]}},{"type":"Feature","properties":{"year":2021,"instnm":"Harford Community College","CZ_label":"Baltimore","inst_cmplt_tot":864,"inst_green_cmplt_tot":48,"inst_perc_green_tot":0.0555556},"geometry":{"type":"Point","coordinates":[-76.2828445,39.5613098]}},{"type":"Feature","properties":{"year":2021,"instnm":"Harrisburg Area Community College","CZ_label":"Harrisburg & Lancaster","inst_cmplt_tot":2070,"inst_green_cmplt_tot":293,"inst_perc_green_tot":0.1415459},"geometry":{"type":"Point","coordinates":[-76.8864059,40.2967758]}},{"type":"Feature","properties":{"year":2021,"instnm":"Hartnell College","CZ_label":"San Jose","inst_cmplt_tot":1781,"inst_green_cmplt_tot":276,"inst_perc_green_tot":0.1549691},"geometry":{"type":"Point","coordinates":[-121.6660538,36.6750908]}},{"type":"Feature","properties":{"year":2021,"instnm":"Hawaii Community College","CZ_label":"Hilo","inst_cmplt_tot":391,"inst_green_cmplt_tot":39,"inst_perc_green_tot":0.0997442},"geometry":{"type":"Point","coordinates":[-155.0696564,19.7047558]}},{"type":"Feature","properties":{"year":2021,"instnm":"Hawkeye Community College","CZ_label":"Waterloo","inst_cmplt_tot":812,"inst_green_cmplt_tot":211,"inst_perc_green_tot":0.2598522},"geometry":{"type":"Point","coordinates":[-92.3306351,42.4300041]}},{"type":"Feature","properties":{"year":2021,"instnm":"Haywood Community College","CZ_label":"Waynesville","inst_cmplt_tot":218,"inst_green_cmplt_tot":42,"inst_perc_green_tot":0.1926606},"geometry":{"type":"Point","coordinates":[-82.9279175,35.5259056]}},{"type":"Feature","properties":{"year":2021,"instnm":"Hazard Community and Technical College","CZ_label":"Hazard","inst_cmplt_tot":312,"inst_green_cmplt_tot":25,"inst_perc_green_tot":0.0801282},"geometry":{"type":"Point","coordinates":[-83.1756439,37.2348976]}},{"type":"Feature","properties":{"year":2021,"instnm":"Heartland Community College","CZ_label":"Champaign & Bloomington","inst_cmplt_tot":252,"inst_green_cmplt_tot":8,"inst_perc_green_tot":0.031746},"geometry":{"type":"Point","coordinates":[-89.0147781,40.5330086]}},{"type":"Feature","properties":{"year":2021,"instnm":"Helena College University of Montana","CZ_label":"Bozeman","inst_cmplt_tot":144,"inst_green_cmplt_tot":71,"inst_perc_green_tot":0.4930556},"geometry":{"type":"Point","coordinates":[-112.016037,46.5953827]}},{"type":"Feature","properties":{"year":2021,"instnm":"Henderson Community College","CZ_label":"Henderson","inst_cmplt_tot":173,"inst_green_cmplt_tot":14,"inst_perc_green_tot":0.0809249},"geometry":{"type":"Point","coordinates":[-87.6500931,37.7976875]}},{"type":"Feature","properties":{"year":2021,"instnm":"Hennepin Technical College","CZ_label":"Minneapolis","inst_cmplt_tot":392,"inst_green_cmplt_tot":184,"inst_perc_green_tot":0.4693878},"geometry":{"type":"Point","coordinates":[-93.3977585,45.0965347]}},{"type":"Feature","properties":{"year":2021,"instnm":"Henry Ford College","CZ_label":"Detroit","inst_cmplt_tot":1257,"inst_green_cmplt_tot":137,"inst_perc_green_tot":0.1089897},"geometry":{"type":"Point","coordinates":[-83.2360535,42.3246384]}},{"type":"Feature","properties":{"year":2021,"instnm":"Herkimer County Community College","CZ_label":"Syracuse","inst_cmplt_tot":370,"inst_green_cmplt_tot":35,"inst_perc_green_tot":0.0945946},"geometry":{"type":"Point","coordinates":[-75.0072098,43.0327377]}},{"type":"Feature","properties":{"year":2021,"instnm":"Hibbing Community College","CZ_label":"Duluth","inst_cmplt_tot":254,"inst_green_cmplt_tot":81,"inst_perc_green_tot":0.3188976},"geometry":{"type":"Point","coordinates":[-92.9216995,47.4223595]}},{"type":"Feature","properties":{"year":2021,"instnm":"Highland Community College","CZ_label":"Rockford","inst_cmplt_tot":254,"inst_green_cmplt_tot":34,"inst_perc_green_tot":0.1338583},"geometry":{"type":"Point","coordinates":[-89.6734238,42.2833443]}},{"type":"Feature","properties":{"year":2021,"instnm":"Highland Community College","CZ_label":"St. Joseph","inst_cmplt_tot":315,"inst_green_cmplt_tot":78,"inst_perc_green_tot":0.247619},"geometry":{"type":"Point","coordinates":[-95.2715378,39.8599854]}},{"type":"Feature","properties":{"year":2021,"instnm":"Highlands College of Montana Tech","CZ_label":"Missoula","inst_cmplt_tot":170,"inst_green_cmplt_tot":148,"inst_perc_green_tot":0.8705882},"geometry":{"type":"Point","coordinates":[-112.5093613,45.9381447]}},{"type":"Feature","properties":{"year":2021,"instnm":"Highline College","CZ_label":"Seattle","inst_cmplt_tot":1024,"inst_green_cmplt_tot":150,"inst_perc_green_tot":0.1464844},"geometry":{"type":"Point","coordinates":[-122.3030624,47.3882294]}},{"type":"Feature","properties":{"year":2021,"instnm":"Hill College","CZ_label":"Killeen","inst_cmplt_tot":420,"inst_green_cmplt_tot":40,"inst_perc_green_tot":0.0952381},"geometry":{"type":"Point","coordinates":[-97.0883331,32.0109291]}},{"type":"Feature","properties":{"year":2021,"instnm":"Hillsborough Community College","CZ_label":"Tampa","inst_cmplt_tot":4489,"inst_green_cmplt_tot":366,"inst_perc_green_tot":0.0815326},"geometry":{"type":"Point","coordinates":[-82.4562531,27.9348888]}},{"type":"Feature","properties":{"year":2021,"instnm":"Hinds Community College","CZ_label":"Jackson","inst_cmplt_tot":2793,"inst_green_cmplt_tot":769,"inst_perc_green_tot":0.2753312},"geometry":{"type":"Point","coordinates":[-90.4161148,32.2561073]}},{"type":"Feature","properties":{"year":2021,"instnm":"Hocking College","CZ_label":"Athens","inst_cmplt_tot":481,"inst_green_cmplt_tot":208,"inst_perc_green_tot":0.4324324},"geometry":{"type":"Point","coordinates":[-82.2207947,39.4419556]}},{"type":"Feature","properties":{"year":2021,"instnm":"Holmes Community College","CZ_label":"Jackson","inst_cmplt_tot":1422,"inst_green_cmplt_tot":255,"inst_perc_green_tot":0.1793249},"geometry":{"type":"Point","coordinates":[-89.915802,32.969986]}},{"type":"Feature","properties":{"year":2021,"instnm":"Holyoke Community College","CZ_label":"Springfield","inst_cmplt_tot":737,"inst_green_cmplt_tot":142,"inst_perc_green_tot":0.192673},"geometry":{"type":"Point","coordinates":[-72.6512527,42.1947823]}},{"type":"Feature","properties":{"year":2021,"instnm":"Honolulu Community College","CZ_label":"Honolulu","inst_cmplt_tot":711,"inst_green_cmplt_tot":551,"inst_perc_green_tot":0.7749648},"geometry":{"type":"Point","coordinates":[-157.8699951,21.321785]}},{"type":"Feature","properties":{"year":2021,"instnm":"Hopkinsville Community College","CZ_label":"Clarksville","inst_cmplt_tot":439,"inst_green_cmplt_tot":5,"inst_perc_green_tot":0.0113895},"geometry":{"type":"Point","coordinates":[-87.4882965,36.8826523]}},{"type":"Feature","properties":{"year":2021,"instnm":"Horry-Georgetown Technical College","CZ_label":"Myrtle Beach","inst_cmplt_tot":985,"inst_green_cmplt_tot":92,"inst_perc_green_tot":0.093401},"geometry":{"type":"Point","coordinates":[-79.0036087,33.7961388]}},{"type":"Feature","properties":{"year":2021,"instnm":"Housatonic Community College","CZ_label":null,"inst_cmplt_tot":422,"inst_green_cmplt_tot":67,"inst_perc_green_tot":0.1587678},"geometry":{"type":"Point","coordinates":[-73.1910019,41.1752281]}},{"type":"Feature","properties":{"year":2021,"instnm":"Houston Community College","CZ_label":"Houston","inst_cmplt_tot":6535,"inst_green_cmplt_tot":2051,"inst_perc_green_tot":0.3138485},"geometry":{"type":"Point","coordinates":[-95.3773193,29.7421131]}},{"type":"Feature","properties":{"year":2021,"instnm":"Howard College","CZ_label":"Odessa & Midland","inst_cmplt_tot":591,"inst_green_cmplt_tot":41,"inst_perc_green_tot":0.0693739},"geometry":{"type":"Point","coordinates":[-101.4501038,32.2522926]}},{"type":"Feature","properties":{"year":2021,"instnm":"Howard Community College","CZ_label":"Baltimore","inst_cmplt_tot":1322,"inst_green_cmplt_tot":51,"inst_perc_green_tot":0.0385779},"geometry":{"type":"Point","coordinates":[-76.8779602,39.2136345]}},{"type":"Feature","properties":{"year":2021,"instnm":"Hudson County Community College","CZ_label":"Newark & Jersey City","inst_cmplt_tot":1045,"inst_green_cmplt_tot":118,"inst_perc_green_tot":0.1129187},"geometry":{"type":"Point","coordinates":[-74.0629044,40.7303009]}},{"type":"Feature","properties":{"year":2021,"instnm":"Hudson Valley Community College","CZ_label":"Albany","inst_cmplt_tot":1729,"inst_green_cmplt_tot":462,"inst_perc_green_tot":0.2672065},"geometry":{"type":"Point","coordinates":[-73.6837311,42.6965103]}},{"type":"Feature","properties":{"year":2021,"instnm":"Hutchinson Community College","CZ_label":"Hutchinson","inst_cmplt_tot":924,"inst_green_cmplt_tot":105,"inst_perc_green_tot":0.1136364},"geometry":{"type":"Point","coordinates":[-97.9213486,38.0680351]}},{"type":"Feature","properties":{"year":2021,"instnm":"Illinois Central College","CZ_label":"Peoria","inst_cmplt_tot":1027,"inst_green_cmplt_tot":149,"inst_perc_green_tot":0.1450828},"geometry":{"type":"Point","coordinates":[-89.5248489,40.7072334]}},{"type":"Feature","properties":{"year":2021,"instnm":"Illinois Valley Community College","CZ_label":"Peoria","inst_cmplt_tot":610,"inst_green_cmplt_tot":134,"inst_perc_green_tot":0.2196721},"geometry":{"type":"Point","coordinates":[-89.1008835,41.3074417]}},{"type":"Feature","properties":{"year":2021,"instnm":"Imperial Valley College","CZ_label":"Yuma","inst_cmplt_tot":1196,"inst_green_cmplt_tot":230,"inst_perc_green_tot":0.1923077},"geometry":{"type":"Point","coordinates":[-115.5035629,32.8272095]}},{"type":"Feature","properties":{"year":2021,"instnm":"Independence Community College","CZ_label":"Bartlesville","inst_cmplt_tot":117,"inst_green_cmplt_tot":3,"inst_perc_green_tot":0.025641},"geometry":{"type":"Point","coordinates":[-95.72052,37.1956139]}},{"type":"Feature","properties":{"year":2021,"instnm":"Indian Hills Community College","CZ_label":"Ottumwa","inst_cmplt_tot":679,"inst_green_cmplt_tot":222,"inst_perc_green_tot":0.3269514},"geometry":{"type":"Point","coordinates":[-92.3947372,41.045105]}},{"type":"Feature","properties":{"year":2021,"instnm":"Indian River State College","CZ_label":"Palm Bay & Port St. Lucie","inst_cmplt_tot":3107,"inst_green_cmplt_tot":218,"inst_perc_green_tot":0.0701641},"geometry":{"type":"Point","coordinates":[-80.3586807,27.42416]}},{"type":"Feature","properties":{"year":2021,"instnm":"Inver Hills Community College","CZ_label":"Minneapolis","inst_cmplt_tot":255,"inst_green_cmplt_tot":27,"inst_perc_green_tot":0.1058824},"geometry":{"type":"Point","coordinates":[-93.0552521,44.828598]}},{"type":"Feature","properties":{"year":2021,"instnm":"Iowa Central Community College","CZ_label":"Fort Dodge","inst_cmplt_tot":461,"inst_green_cmplt_tot":136,"inst_perc_green_tot":0.2950108},"geometry":{"type":"Point","coordinates":[-94.2029877,42.4900665]}},{"type":"Feature","properties":{"year":2021,"instnm":"Iowa Lakes Community College","CZ_label":"Spencer","inst_cmplt_tot":366,"inst_green_cmplt_tot":126,"inst_perc_green_tot":0.3442623},"geometry":{"type":"Point","coordinates":[-94.8356628,43.4013748]}},{"type":"Feature","properties":{"year":2021,"instnm":"Iowa Western Community College","CZ_label":"Omaha","inst_cmplt_tot":961,"inst_green_cmplt_tot":93,"inst_perc_green_tot":0.0967742},"geometry":{"type":"Point","coordinates":[-95.7979736,41.2721672]}},{"type":"Feature","properties":{"year":2021,"instnm":"Irvine Valley College","CZ_label":"Los Angeles","inst_cmplt_tot":2657,"inst_green_cmplt_tot":476,"inst_perc_green_tot":0.1791494},"geometry":{"type":"Point","coordinates":[-117.7775421,33.6753807]}},{"type":"Feature","properties":{"year":2021,"instnm":"Isothermal Community College","CZ_label":"Spartanburg","inst_cmplt_tot":356,"inst_green_cmplt_tot":33,"inst_perc_green_tot":0.0926966},"geometry":{"type":"Point","coordinates":[-81.9118576,35.3367271]}},{"type":"Feature","properties":{"year":2021,"instnm":"Itasca Community College","CZ_label":"Duluth","inst_cmplt_tot":217,"inst_green_cmplt_tot":29,"inst_perc_green_tot":0.1336406},"geometry":{"type":"Point","coordinates":[-93.4955521,47.2419205]}},{"type":"Feature","properties":{"year":2021,"instnm":"Itawamba Community College","CZ_label":"Tupelo","inst_cmplt_tot":1299,"inst_green_cmplt_tot":290,"inst_perc_green_tot":0.2232487},"geometry":{"type":"Point","coordinates":[-88.4120712,34.2765198]}},{"type":"Feature","properties":{"year":2021,"instnm":"Ivy Tech Community College","CZ_label":"Indianapolis","inst_cmplt_tot":14538,"inst_green_cmplt_tot":2605,"inst_perc_green_tot":0.1791856},"geometry":{"type":"Point","coordinates":[-86.1582108,39.8037529]}},{"type":"Feature","properties":{"year":2021,"instnm":"J F Ingram State Technical College","CZ_label":"Montgomery","inst_cmplt_tot":16,"inst_green_cmplt_tot":12,"inst_perc_green_tot":0.75},"geometry":{"type":"Point","coordinates":[-86.3923721,32.5823135]}},{"type":"Feature","properties":{"year":2021,"instnm":"J Sargeant Reynolds Community College","CZ_label":"Richmond","inst_cmplt_tot":1068,"inst_green_cmplt_tot":87,"inst_perc_green_tot":0.0814607},"geometry":{"type":"Point","coordinates":[-77.4739151,37.636837]}},{"type":"Feature","properties":{"year":2021,"instnm":"J. F. Drake State Community and Technical College","CZ_label":"Huntsville","inst_cmplt_tot":62,"inst_green_cmplt_tot":9,"inst_perc_green_tot":0.1451613},"geometry":{"type":"Point","coordinates":[-86.5728836,34.7718582]}},{"type":"Feature","properties":{"year":2021,"instnm":"Jackson College","CZ_label":"Jackson","inst_cmplt_tot":435,"inst_green_cmplt_tot":16,"inst_perc_green_tot":0.0367816},"geometry":{"type":"Point","coordinates":[-84.4039383,42.1648293]}},{"type":"Feature","properties":{"year":2021,"instnm":"Jackson State Community College","CZ_label":"Jackson","inst_cmplt_tot":581,"inst_green_cmplt_tot":18,"inst_perc_green_tot":0.0309811},"geometry":{"type":"Point","coordinates":[-88.7800064,35.6455727]}},{"type":"Feature","properties":{"year":2021,"instnm":"James A. Rhodes State College","CZ_label":"Lima","inst_cmplt_tot":326,"inst_green_cmplt_tot":35,"inst_perc_green_tot":0.107362},"geometry":{"type":"Point","coordinates":[-84.0263214,40.7383461]}},{"type":"Feature","properties":{"year":2021,"instnm":"James Sprunt Community College","CZ_label":"Greenville","inst_cmplt_tot":188,"inst_green_cmplt_tot":23,"inst_perc_green_tot":0.1223404},"geometry":{"type":"Point","coordinates":[-77.9776382,34.9468002]}},{"type":"Feature","properties":{"year":2021,"instnm":"Jamestown Community College","CZ_label":"Erie","inst_cmplt_tot":501,"inst_green_cmplt_tot":75,"inst_perc_green_tot":0.1497006},"geometry":{"type":"Point","coordinates":[-79.2189636,42.1146011]}},{"type":"Feature","properties":{"year":2021,"instnm":"Jefferson College","CZ_label":"St. Louis","inst_cmplt_tot":613,"inst_green_cmplt_tot":96,"inst_perc_green_tot":0.1566069},"geometry":{"type":"Point","coordinates":[-90.5589523,38.2598877]}},{"type":"Feature","properties":{"year":2021,"instnm":"Jefferson Community College","CZ_label":"Watertown","inst_cmplt_tot":431,"inst_green_cmplt_tot":28,"inst_perc_green_tot":0.0649652},"geometry":{"type":"Point","coordinates":[-75.935051,43.9928284]}},