{"type":"FeatureCollection","features":[{"type":"Feature","properties":{"year":2012,"instnm":"Adirondack Community College","CZ_label":"Albany","inst_cmplt_tot":536,"inst_green_cmplt_tot":46,"inst_perc_green_tot":0.0858209},"geometry":{"type":"Point","coordinates":[-73.655014,43.3534393]}},{"type":"Feature","properties":{"year":2012,"instnm":"Aiken Technical College","CZ_label":"Hilton Head Island & Aiken","inst_cmplt_tot":467,"inst_green_cmplt_tot":94,"inst_perc_green_tot":0.2012848},"geometry":{"type":"Point","coordinates":[-81.8424225,33.5336342]}},{"type":"Feature","properties":{"year":2012,"instnm":"Aims Community College","CZ_label":"Fort Collins","inst_cmplt_tot":1301,"inst_green_cmplt_tot":411,"inst_perc_green_tot":0.3159108},"geometry":{"type":"Point","coordinates":[-104.7643356,40.4090385]}},{"type":"Feature","properties":{"year":2012,"instnm":"Alabama Southern Community College","CZ_label":"Andalusia & Atmore","inst_cmplt_tot":289,"inst_green_cmplt_tot":92,"inst_perc_green_tot":0.3183391},"geometry":{"type":"Point","coordinates":[-87.326355,31.4889259]}},{"type":"Feature","properties":{"year":2012,"instnm":"Alamance Community College","CZ_label":"Burlington","inst_cmplt_tot":698,"inst_green_cmplt_tot":144,"inst_perc_green_tot":0.2063037},"geometry":{"type":"Point","coordinates":[-79.3576584,36.0666847]}},{"type":"Feature","properties":{"year":2012,"instnm":"Albany Technical College","CZ_label":"Albany","inst_cmplt_tot":2176,"inst_green_cmplt_tot":1187,"inst_perc_green_tot":0.5454963},"geometry":{"type":"Point","coordinates":[-84.1742859,31.5543404]}},{"type":"Feature","properties":{"year":2012,"instnm":"Alexandria Technical & Community College","CZ_label":"Alexandria & Fergus Falls","inst_cmplt_tot":692,"inst_green_cmplt_tot":290,"inst_perc_green_tot":0.4190751},"geometry":{"type":"Point","coordinates":[-95.371582,45.8685913]}},{"type":"Feature","properties":{"year":2012,"instnm":"Allan Hancock College","CZ_label":"Santa Barbara","inst_cmplt_tot":986,"inst_green_cmplt_tot":118,"inst_perc_green_tot":0.1196755},"geometry":{"type":"Point","coordinates":[-120.4214859,34.9429779]}},{"type":"Feature","properties":{"year":2012,"instnm":"Allegany College of Maryland","CZ_label":"Cumberland","inst_cmplt_tot":728,"inst_green_cmplt_tot":20,"inst_perc_green_tot":0.0274725},"geometry":{"type":"Point","coordinates":[-78.7297668,39.6526566]}},{"type":"Feature","properties":{"year":2012,"instnm":"Allen County Community College","CZ_label":"Parsons & Chanute","inst_cmplt_tot":484,"inst_green_cmplt_tot":208,"inst_perc_green_tot":0.4297521},"geometry":{"type":"Point","coordinates":[-95.3968124,37.9376984]}},{"type":"Feature","properties":{"year":2012,"instnm":"Alpena Community College","CZ_label":"Alpena","inst_cmplt_tot":400,"inst_green_cmplt_tot":99,"inst_perc_green_tot":0.2475},"geometry":{"type":"Point","coordinates":[-83.4450684,45.081646]}},{"type":"Feature","properties":{"year":2012,"instnm":"Alvin Community College","CZ_label":"Houston","inst_cmplt_tot":707,"inst_green_cmplt_tot":107,"inst_perc_green_tot":0.1513437},"geometry":{"type":"Point","coordinates":[-95.2410812,29.3965816]}},{"type":"Feature","properties":{"year":2012,"instnm":"Amarillo College","CZ_label":"Amarillo","inst_cmplt_tot":1106,"inst_green_cmplt_tot":175,"inst_perc_green_tot":0.1582278},"geometry":{"type":"Point","coordinates":[-101.8471069,35.1884117]}},{"type":"Feature","properties":{"year":2012,"instnm":"American River College","CZ_label":"Sacramento","inst_cmplt_tot":2435,"inst_green_cmplt_tot":688,"inst_perc_green_tot":0.2825462},"geometry":{"type":"Point","coordinates":[-121.3460083,38.6497345]}},{"type":"Feature","properties":{"year":2012,"instnm":"Angelina College","CZ_label":"Lufkin","inst_cmplt_tot":620,"inst_green_cmplt_tot":93,"inst_perc_green_tot":0.15},"geometry":{"type":"Point","coordinates":[-94.7316284,31.2873592]}},{"type":"Feature","properties":{"year":2012,"instnm":"Anne Arundel Community College","CZ_label":"Baltimore","inst_cmplt_tot":1078,"inst_green_cmplt_tot":113,"inst_perc_green_tot":0.1048237},"geometry":{"type":"Point","coordinates":[-76.5122223,39.0498123]}},{"type":"Feature","properties":{"year":2012,"instnm":"Anoka Technical College","CZ_label":"Minneapolis","inst_cmplt_tot":436,"inst_green_cmplt_tot":140,"inst_perc_green_tot":0.3211009},"geometry":{"type":"Point","coordinates":[-93.4159546,45.2163315]}},{"type":"Feature","properties":{"year":2012,"instnm":"Anoka-Ramsey Community College","CZ_label":"Minneapolis","inst_cmplt_tot":1110,"inst_green_cmplt_tot":29,"inst_perc_green_tot":0.0261261},"geometry":{"type":"Point","coordinates":[-93.3516998,45.1729774]}},{"type":"Feature","properties":{"year":2012,"instnm":"Antelope Valley College","CZ_label":"Los Angeles","inst_cmplt_tot":1098,"inst_green_cmplt_tot":248,"inst_perc_green_tot":0.2258652},"geometry":{"type":"Point","coordinates":[-118.1861649,34.6762085]}},{"type":"Feature","properties":{"year":2012,"instnm":"Arapahoe Community College","CZ_label":"Denver","inst_cmplt_tot":1318,"inst_green_cmplt_tot":171,"inst_perc_green_tot":0.129742},"geometry":{"type":"Point","coordinates":[-105.018631,39.6075058]}},{"type":"Feature","properties":{"year":2012,"instnm":"Arizona Western College","CZ_label":"Yuma","inst_cmplt_tot":1295,"inst_green_cmplt_tot":480,"inst_perc_green_tot":0.3706564},"geometry":{"type":"Point","coordinates":[-114.4959717,32.6893044]}},{"type":"Feature","properties":{"year":2012,"instnm":"Arkansas Northeastern College","CZ_label":"Blytheville","inst_cmplt_tot":425,"inst_green_cmplt_tot":51,"inst_perc_green_tot":0.12},"geometry":{"type":"Point","coordinates":[-89.922493,35.8973618]}},{"type":"Feature","properties":{"year":2012,"instnm":"Arkansas State University-Beebe","CZ_label":"Searcy","inst_cmplt_tot":1086,"inst_green_cmplt_tot":249,"inst_perc_green_tot":0.2292818},"geometry":{"type":"Point","coordinates":[-91.8961639,35.0745125]}},{"type":"Feature","properties":{"year":2012,"instnm":"Arkansas State University-Mountain Home","CZ_label":"Mountain Home","inst_cmplt_tot":381,"inst_green_cmplt_tot":22,"inst_perc_green_tot":0.0577428},"geometry":{"type":"Point","coordinates":[-92.3833542,36.3353348]}},{"type":"Feature","properties":{"year":2012,"instnm":"Arkansas State University-Newport","CZ_label":"Searcy","inst_cmplt_tot":821,"inst_green_cmplt_tot":437,"inst_perc_green_tot":0.5322777},"geometry":{"type":"Point","coordinates":[-91.1895218,35.6403275]}},{"type":"Feature","properties":{"year":2012,"instnm":"Asheville-Buncombe Technical Community College","CZ_label":"Asheville","inst_cmplt_tot":1001,"inst_green_cmplt_tot":111,"inst_perc_green_tot":0.1108891},"geometry":{"type":"Point","coordinates":[-82.5558395,35.5710564]}},{"type":"Feature","properties":{"year":2012,"instnm":"Ashland Community and Technical College","CZ_label":"Huntington","inst_cmplt_tot":1673,"inst_green_cmplt_tot":1008,"inst_perc_green_tot":0.6025105},"geometry":{"type":"Point","coordinates":[-82.6506653,38.4692001]}},{"type":"Feature","properties":{"year":2012,"instnm":"Asnuntuck Community College","CZ_label":null,"inst_cmplt_tot":369,"inst_green_cmplt_tot":204,"inst_perc_green_tot":0.5528455},"geometry":{"type":"Point","coordinates":[-72.5701752,41.9984093]}},{"type":"Feature","properties":{"year":2012,"instnm":"Athens Technical College","CZ_label":"Athens","inst_cmplt_tot":1532,"inst_green_cmplt_tot":540,"inst_perc_green_tot":0.3524804},"geometry":{"type":"Point","coordinates":[-83.3395996,33.9901848]}},{"type":"Feature","properties":{"year":2012,"instnm":"Atlanta Technical College","CZ_label":"Atlanta","inst_cmplt_tot":1774,"inst_green_cmplt_tot":920,"inst_perc_green_tot":0.518602},"geometry":{"type":"Point","coordinates":[-84.4049988,33.7120094]}},{"type":"Feature","properties":{"year":2012,"instnm":"Atlantic Cape Community College","CZ_label":"Trenton","inst_cmplt_tot":804,"inst_green_cmplt_tot":0,"inst_perc_green_tot":0},"geometry":{"type":"Point","coordinates":[-74.6822891,39.4613876]}},{"type":"Feature","properties":{"year":2012,"instnm":"Augusta Technical College","CZ_label":"Augusta","inst_cmplt_tot":924,"inst_green_cmplt_tot":311,"inst_perc_green_tot":0.3365801},"geometry":{"type":"Point","coordinates":[-82.048439,33.4189911]}},{"type":"Feature","properties":{"year":2012,"instnm":"Austin Community College District","CZ_label":"Austin","inst_cmplt_tot":2083,"inst_green_cmplt_tot":366,"inst_perc_green_tot":0.1757081},"geometry":{"type":"Point","coordinates":[-97.6817169,30.3335075]}},{"type":"Feature","properties":{"year":2012,"instnm":"Bakersfield College","CZ_label":"Bakersfield","inst_cmplt_tot":1547,"inst_green_cmplt_tot":531,"inst_perc_green_tot":0.343245},"geometry":{"type":"Point","coordinates":[-118.9734879,35.4108009]}},{"type":"Feature","properties":{"year":2012,"instnm":"Baltimore City Community College","CZ_label":"Baltimore","inst_cmplt_tot":545,"inst_green_cmplt_tot":39,"inst_perc_green_tot":0.0715596},"geometry":{"type":"Point","coordinates":[-76.6628799,39.3199768]}},{"type":"Feature","properties":{"year":2012,"instnm":"Barstow Community College","CZ_label":"Los Angeles","inst_cmplt_tot":344,"inst_green_cmplt_tot":28,"inst_perc_green_tot":0.0813953},"geometry":{"type":"Point","coordinates":[-117.0252304,34.8714523]}},{"type":"Feature","properties":{"year":2012,"instnm":"Barton County Community College","CZ_label":"Great Bend","inst_cmplt_tot":754,"inst_green_cmplt_tot":63,"inst_perc_green_tot":0.0835544},"geometry":{"type":"Point","coordinates":[-98.7316971,38.4033089]}},{"type":"Feature","properties":{"year":2012,"instnm":"Bates Technical College","CZ_label":"Seattle","inst_cmplt_tot":1153,"inst_green_cmplt_tot":635,"inst_perc_green_tot":0.5507372},"geometry":{"type":"Point","coordinates":[-122.4464111,47.2515297]}},{"type":"Feature","properties":{"year":2012,"instnm":"Baton Rouge Community College","CZ_label":"Baton Rouge","inst_cmplt_tot":561,"inst_green_cmplt_tot":131,"inst_perc_green_tot":0.2335116},"geometry":{"type":"Point","coordinates":[-91.1379318,30.4482765]}},{"type":"Feature","properties":{"year":2012,"instnm":"Bay de Noc Community College","CZ_label":"Marquette","inst_cmplt_tot":490,"inst_green_cmplt_tot":80,"inst_perc_green_tot":0.1632653},"geometry":{"type":"Point","coordinates":[-87.0807114,45.7697144]}},{"type":"Feature","properties":{"year":2012,"instnm":"Beaufort County Community College","CZ_label":"Washington","inst_cmplt_tot":288,"inst_green_cmplt_tot":52,"inst_perc_green_tot":0.1805556},"geometry":{"type":"Point","coordinates":[-77.0425034,35.5732307]}},{"type":"Feature","properties":{"year":2012,"instnm":"Bellevue College","CZ_label":"Seattle","inst_cmplt_tot":2293,"inst_green_cmplt_tot":199,"inst_perc_green_tot":0.0867859},"geometry":{"type":"Point","coordinates":[-122.1499557,47.5847778]}},{"type":"Feature","properties":{"year":2012,"instnm":"Bellingham Technical College","CZ_label":"Seattle","inst_cmplt_tot":846,"inst_green_cmplt_tot":288,"inst_perc_green_tot":0.3404255},"geometry":{"type":"Point","coordinates":[-122.5121613,48.7661896]}},{"type":"Feature","properties":{"year":2012,"instnm":"Belmont College","CZ_label":"Wheeling","inst_cmplt_tot":388,"inst_green_cmplt_tot":72,"inst_perc_green_tot":0.185567},"geometry":{"type":"Point","coordinates":[-80.9667435,40.0770836]}},{"type":"Feature","properties":{"year":2012,"instnm":"Bergen Community College","CZ_label":"Newark & Jersey City","inst_cmplt_tot":1992,"inst_green_cmplt_tot":45,"inst_perc_green_tot":0.0225904},"geometry":{"type":"Point","coordinates":[-74.0940857,40.9537315]}},{"type":"Feature","properties":{"year":2012,"instnm":"Berkeley City College","CZ_label":"San Francisco","inst_cmplt_tot":138,"inst_green_cmplt_tot":0,"inst_perc_green_tot":0},"geometry":{"type":"Point","coordinates":[-122.2697906,37.8704681]}},{"type":"Feature","properties":{"year":2012,"instnm":"Berkshire Community College","CZ_label":"Pittsfield","inst_cmplt_tot":343,"inst_green_cmplt_tot":42,"inst_perc_green_tot":0.122449},"geometry":{"type":"Point","coordinates":[-73.31884,42.4608765]}},{"type":"Feature","properties":{"year":2012,"instnm":"Bevill State Community College","CZ_label":"Birmingham","inst_cmplt_tot":745,"inst_green_cmplt_tot":275,"inst_perc_green_tot":0.3691275},"geometry":{"type":"Point","coordinates":[-87.2650375,33.8357849]}},{"type":"Feature","properties":{"year":2012,"instnm":"Big Bend Community College","CZ_label":"Moses Lake","inst_cmplt_tot":754,"inst_green_cmplt_tot":168,"inst_perc_green_tot":0.2228117},"geometry":{"type":"Point","coordinates":[-119.3185043,47.1850815]}},{"type":"Feature","properties":{"year":2012,"instnm":"Big Sandy Community and Technical College","CZ_label":"Pikeville","inst_cmplt_tot":1120,"inst_green_cmplt_tot":652,"inst_perc_green_tot":0.5821429},"geometry":{"type":"Point","coordinates":[-82.778389,37.6875839]}},{"type":"Feature","properties":{"year":2012,"instnm":"Bishop State Community College","CZ_label":"Mobile","inst_cmplt_tot":594,"inst_green_cmplt_tot":234,"inst_perc_green_tot":0.3939394},"geometry":{"type":"Point","coordinates":[-88.0569839,30.6939716]}},{"type":"Feature","properties":{"year":2012,"instnm":"Bismarck State College","CZ_label":"Bismarck","inst_cmplt_tot":874,"inst_green_cmplt_tot":329,"inst_perc_green_tot":0.3764302},"geometry":{"type":"Point","coordinates":[-100.8184891,46.8206596]}},{"type":"Feature","properties":{"year":2012,"instnm":"Black Hawk College","CZ_label":"Davenport","inst_cmplt_tot":736,"inst_green_cmplt_tot":125,"inst_perc_green_tot":0.169837},"geometry":{"type":"Point","coordinates":[-90.4494934,41.4759827]}},{"type":"Feature","properties":{"year":2012,"instnm":"Black River Technical College","CZ_label":"Jonesboro","inst_cmplt_tot":553,"inst_green_cmplt_tot":109,"inst_perc_green_tot":0.1971067},"geometry":{"type":"Point","coordinates":[-90.9510345,36.2397919]}},{"type":"Feature","properties":{"year":2012,"instnm":"Blackhawk Technical College","CZ_label":"Milwaukee","inst_cmplt_tot":930,"inst_green_cmplt_tot":169,"inst_perc_green_tot":0.1817204},"geometry":{"type":"Point","coordinates":[-89.0161591,42.5932159]}},{"type":"Feature","properties":{"year":2012,"instnm":"Bladen Community College","CZ_label":"Fayetteville","inst_cmplt_tot":173,"inst_green_cmplt_tot":19,"inst_perc_green_tot":0.1098266},"geometry":{"type":"Point","coordinates":[-78.7317505,34.6460915]}},{"type":"Feature","properties":{"year":2012,"instnm":"Blinn College","CZ_label":"College Station","inst_cmplt_tot":1212,"inst_green_cmplt_tot":401,"inst_perc_green_tot":0.3308581},"geometry":{"type":"Point","coordinates":[-96.4096756,30.1597137]}},{"type":"Feature","properties":{"year":2012,"instnm":"Blue Mountain Community College","CZ_label":"Kennewick","inst_cmplt_tot":355,"inst_green_cmplt_tot":76,"inst_perc_green_tot":0.2140845},"geometry":{"type":"Point","coordinates":[-118.8169403,45.6773148]}},{"type":"Feature","properties":{"year":2012,"instnm":"Blue Ridge Community College","CZ_label":"Asheville","inst_cmplt_tot":193,"inst_green_cmplt_tot":69,"inst_perc_green_tot":0.357513},"geometry":{"type":"Point","coordinates":[-82.4255447,35.3080406]}},{"type":"Feature","properties":{"year":2012,"instnm":"Blue Ridge Community College","CZ_label":"Harrisonburg","inst_cmplt_tot":911,"inst_green_cmplt_tot":106,"inst_perc_green_tot":0.1163557},"geometry":{"type":"Point","coordinates":[-78.9390411,38.279583]}},{"type":"Feature","properties":{"year":2012,"instnm":"Blue Ridge Community and Technical College","CZ_label":"Winchester","inst_cmplt_tot":457,"inst_green_cmplt_tot":35,"inst_perc_green_tot":0.0765864},"geometry":{"type":"Point","coordinates":[-78.002739,39.4377289]}},{"type":"Feature","properties":{"year":2012,"instnm":"Bluegrass Community and Technical College","CZ_label":"Lexington","inst_cmplt_tot":2205,"inst_green_cmplt_tot":520,"inst_perc_green_tot":0.2358277},"geometry":{"type":"Point","coordinates":[-84.5023346,38.0244675]}},{"type":"Feature","properties":{"year":2012,"instnm":"Bossier Parish Community College","CZ_label":"Shreveport","inst_cmplt_tot":929,"inst_green_cmplt_tot":58,"inst_perc_green_tot":0.0624327},"geometry":{"type":"Point","coordinates":[-93.6468811,32.5395508]}},{"type":"Feature","properties":{"year":2012,"instnm":"Brazosport College","CZ_label":"Houston","inst_cmplt_tot":389,"inst_green_cmplt_tot":74,"inst_perc_green_tot":0.1902314},"geometry":{"type":"Point","coordinates":[-95.4090042,29.0483608]}},{"type":"Feature","properties":{"year":2012,"instnm":"Bristol Community College","CZ_label":"Providence","inst_cmplt_tot":1361,"inst_green_cmplt_tot":81,"inst_perc_green_tot":0.0595151},"geometry":{"type":"Point","coordinates":[-71.1202621,41.7213364]}},{"type":"Feature","properties":{"year":2012,"instnm":"Brookdale Community College","CZ_label":"Long Branch","inst_cmplt_tot":2093,"inst_green_cmplt_tot":181,"inst_perc_green_tot":0.0864787},"geometry":{"type":"Point","coordinates":[-74.1327438,40.3249054]}},{"type":"Feature","properties":{"year":2012,"instnm":"Brookhaven College","CZ_label":"Dallas","inst_cmplt_tot":705,"inst_green_cmplt_tot":68,"inst_perc_green_tot":0.0964539},"geometry":{"type":"Point","coordinates":[-96.8501587,32.9282379]}},{"type":"Feature","properties":{"year":2012,"instnm":"Broome Community College","CZ_label":"Binghamton","inst_cmplt_tot":1135,"inst_green_cmplt_tot":165,"inst_perc_green_tot":0.1453744},"geometry":{"type":"Point","coordinates":[-75.9092102,42.1353188]}},{"type":"Feature","properties":{"year":2012,"instnm":"Broward College","CZ_label":"Miami","inst_cmplt_tot":6894,"inst_green_cmplt_tot":272,"inst_perc_green_tot":0.0394546},"geometry":{"type":"Point","coordinates":[-80.2354126,26.0797195]}},{"type":"Feature","properties":{"year":2012,"instnm":"Brunswick Community College","CZ_label":"Wilmington","inst_cmplt_tot":299,"inst_green_cmplt_tot":28,"inst_perc_green_tot":0.0936455},"geometry":{"type":"Point","coordinates":[-78.2297897,34.0389748]}},{"type":"Feature","properties":{"year":2012,"instnm":"Bucks County Community College","CZ_label":"Philadelphia","inst_cmplt_tot":926,"inst_green_cmplt_tot":47,"inst_perc_green_tot":0.0507559},"geometry":{"type":"Point","coordinates":[-74.9658432,40.2391014]}},{"type":"Feature","properties":{"year":2012,"instnm":"Bunker Hill Community College","CZ_label":"Boston","inst_cmplt_tot":1176,"inst_green_cmplt_tot":144,"inst_perc_green_tot":0.122449},"geometry":{"type":"Point","coordinates":[-71.0692596,42.3748055]}},{"type":"Feature","properties":{"year":2012,"instnm":"Burlington County College","CZ_label":"Trenton","inst_cmplt_tot":1284,"inst_green_cmplt_tot":31,"inst_perc_green_tot":0.0241433},"geometry":{"type":"Point","coordinates":[-74.6454697,39.9643517]}},{"type":"Feature","properties":{"year":2012,"instnm":"Butler Community College","CZ_label":"Wichita","inst_cmplt_tot":1072,"inst_green_cmplt_tot":124,"inst_perc_green_tot":0.1156716},"geometry":{"type":"Point","coordinates":[-96.8827209,37.8063774]}},{"type":"Feature","properties":{"year":2012,"instnm":"Butler County Community College","CZ_label":"Pittsburgh","inst_cmplt_tot":447,"inst_green_cmplt_tot":51,"inst_perc_green_tot":0.114094},"geometry":{"type":"Point","coordinates":[-79.9111481,40.8299599]}},{"type":"Feature","properties":{"year":2012,"instnm":"Butte College","CZ_label":"Redding & Chico","inst_cmplt_tot":1956,"inst_green_cmplt_tot":419,"inst_perc_green_tot":0.2142127},"geometry":{"type":"Point","coordinates":[-121.6446915,39.6491165]}},{"type":"Feature","properties":{"year":2012,"instnm":"CUNY Borough of Manhattan Community College","CZ_label":"New York","inst_cmplt_tot":3017,"inst_green_cmplt_tot":300,"inst_perc_green_tot":0.0994365},"geometry":{"type":"Point","coordinates":[-74.0118256,40.7187881]}},{"type":"Feature","properties":{"year":2012,"instnm":"CUNY Bronx Community College","CZ_label":"New York","inst_cmplt_tot":1349,"inst_green_cmplt_tot":147,"inst_perc_green_tot":0.1089696},"geometry":{"type":"Point","coordinates":[-73.9097443,40.8571854]}},{"type":"Feature","properties":{"year":2012,"instnm":"CUNY Hostos Community College","CZ_label":"New York","inst_cmplt_tot":786,"inst_green_cmplt_tot":103,"inst_perc_green_tot":0.1310433},"geometry":{"type":"Point","coordinates":[-73.9273605,40.8176003]}},{"type":"Feature","properties":{"year":2012,"instnm":"CUNY Kingsborough Community College","CZ_label":"New York","inst_cmplt_tot":2504,"inst_green_cmplt_tot":360,"inst_perc_green_tot":0.14377},"geometry":{"type":"Point","coordinates":[-73.9347763,40.5764465]}},{"type":"Feature","properties":{"year":2012,"instnm":"CUNY LaGuardia Community College","CZ_label":"New York","inst_cmplt_tot":3419,"inst_green_cmplt_tot":595,"inst_perc_green_tot":0.1740275},"geometry":{"type":"Point","coordinates":[-73.9350586,40.7444992]}},{"type":"Feature","properties":{"year":2012,"instnm":"CUNY Queensborough Community College","CZ_label":"New York","inst_cmplt_tot":1970,"inst_green_cmplt_tot":378,"inst_perc_green_tot":0.1918782},"geometry":{"type":"Point","coordinates":[-73.7545471,40.7548561]}},{"type":"Feature","properties":{"year":2012,"instnm":"Cabrillo College","CZ_label":"San Jose","inst_cmplt_tot":917,"inst_green_cmplt_tot":101,"inst_perc_green_tot":0.1101418},"geometry":{"type":"Point","coordinates":[-121.9279251,36.9891014]}},{"type":"Feature","properties":{"year":2012,"instnm":"Caldwell Community College and Technical Institute","CZ_label":"Hickory","inst_cmplt_tot":510,"inst_green_cmplt_tot":152,"inst_perc_green_tot":0.2980392},"geometry":{"type":"Point","coordinates":[-81.4841461,35.8546028]}},{"type":"Feature","properties":{"year":2012,"instnm":"Camden County College","CZ_label":"Trenton","inst_cmplt_tot":1662,"inst_green_cmplt_tot":85,"inst_perc_green_tot":0.0511432},"geometry":{"type":"Point","coordinates":[-75.0404739,39.7850838]}},{"type":"Feature","properties":{"year":2012,"instnm":"Canada College","CZ_label":"San Francisco","inst_cmplt_tot":369,"inst_green_cmplt_tot":42,"inst_perc_green_tot":0.1138211},"geometry":{"type":"Point","coordinates":[-122.2655487,37.4473648]}},{"type":"Feature","properties":{"year":2012,"instnm":"Cape Cod Community College","CZ_label":"Boston","inst_cmplt_tot":624,"inst_green_cmplt_tot":62,"inst_perc_green_tot":0.099359},"geometry":{"type":"Point","coordinates":[-70.3373337,41.6919212]}},{"type":"Feature","properties":{"year":2012,"instnm":"Cape Fear Community College","CZ_label":"Wilmington","inst_cmplt_tot":1131,"inst_green_cmplt_tot":517,"inst_perc_green_tot":0.4571176},"geometry":{"type":"Point","coordinates":[-77.9489822,34.240242]}},{"type":"Feature","properties":{"year":2012,"instnm":"Capital Area Technical College-Baton Rouge Campus","CZ_label":"Baton Rouge","inst_cmplt_tot":2182,"inst_green_cmplt_tot":1736,"inst_perc_green_tot":0.7956004},"geometry":{"type":"Point","coordinates":[-91.1554031,30.4775867]}},{"type":"Feature","properties":{"year":2012,"instnm":"Capital Community College","CZ_label":null,"inst_cmplt_tot":245,"inst_green_cmplt_tot":1,"inst_perc_green_tot":0.0040816},"geometry":{"type":"Point","coordinates":[-72.6727371,41.7683983]}},{"type":"Feature","properties":{"year":2012,"instnm":"Carl Albert State College","CZ_label":"McAlester","inst_cmplt_tot":509,"inst_green_cmplt_tot":48,"inst_perc_green_tot":0.0943026},"geometry":{"type":"Point","coordinates":[-94.6338272,35.0382118]}},{"type":"Feature","properties":{"year":2012,"instnm":"Carl Sandburg College","CZ_label":"Davenport","inst_cmplt_tot":405,"inst_green_cmplt_tot":38,"inst_perc_green_tot":0.0938272},"geometry":{"type":"Point","coordinates":[-90.4082031,40.9812813]}},{"type":"Feature","properties":{"year":2012,"instnm":"Carroll Community College","CZ_label":"Baltimore","inst_cmplt_tot":552,"inst_green_cmplt_tot":1,"inst_perc_green_tot":0.0018116},"geometry":{"type":"Point","coordinates":[-76.9911118,39.5318031]}},{"type":"Feature","properties":{"year":2012,"instnm":"Carteret Community College","CZ_label":"Jacksonville","inst_cmplt_tot":210,"inst_green_cmplt_tot":17,"inst_perc_green_tot":0.0809524},"geometry":{"type":"Point","coordinates":[-76.7566757,34.7246361]}},{"type":"Feature","properties":{"year":2012,"instnm":"Cascadia Community College","CZ_label":"Seattle","inst_cmplt_tot":444,"inst_green_cmplt_tot":46,"inst_perc_green_tot":0.1036036},"geometry":{"type":"Point","coordinates":[-122.1911087,47.7599564]}},{"type":"Feature","properties":{"year":2012,"instnm":"Casper College","CZ_label":"Casper","inst_cmplt_tot":767,"inst_green_cmplt_tot":185,"inst_perc_green_tot":0.2411995},"geometry":{"type":"Point","coordinates":[-106.3270035,42.8305168]}},{"type":"Feature","properties":{"year":2012,"instnm":"Catawba Valley Community College","CZ_label":"Hickory","inst_cmplt_tot":574,"inst_green_cmplt_tot":129,"inst_perc_green_tot":0.2247387},"geometry":{"type":"Point","coordinates":[-81.2879181,35.6997337]}},{"type":"Feature","properties":{"year":2012,"instnm":"Cayuga County Community College","CZ_label":"Syracuse","inst_cmplt_tot":626,"inst_green_cmplt_tot":15,"inst_perc_green_tot":0.0239617},"geometry":{"type":"Point","coordinates":[-76.54319,42.9438019]}},{"type":"Feature","properties":{"year":2012,"instnm":"Cecil College","CZ_label":"Philadelphia","inst_cmplt_tot":282,"inst_green_cmplt_tot":6,"inst_perc_green_tot":0.0212766},"geometry":{"type":"Point","coordinates":[-75.9559479,39.6422234]}},{"type":"Feature","properties":{"year":2012,"instnm":"Cedar Valley College","CZ_label":"Dallas","inst_cmplt_tot":696,"inst_green_cmplt_tot":238,"inst_perc_green_tot":0.341954},"geometry":{"type":"Point","coordinates":[-96.7634201,32.6256866]}},{"type":"Feature","properties":{"year":2012,"instnm":"Central Alabama Community College","CZ_label":"Anniston","inst_cmplt_tot":300,"inst_green_cmplt_tot":36,"inst_perc_green_tot":0.12},"geometry":{"type":"Point","coordinates":[-85.9465332,32.9244308]}},{"type":"Feature","properties":{"year":2012,"instnm":"Central Arizona College","CZ_label":"Phoenix","inst_cmplt_tot":1140,"inst_green_cmplt_tot":455,"inst_perc_green_tot":0.3991228},"geometry":{"type":"Point","coordinates":[-111.652504,32.9570923]}},{"type":"Feature","properties":{"year":2012,"instnm":"Central Carolina Community College","CZ_label":"Fayetteville","inst_cmplt_tot":740,"inst_green_cmplt_tot":175,"inst_perc_green_tot":0.2364865},"geometry":{"type":"Point","coordinates":[-79.1445084,35.4723167]}},{"type":"Feature","properties":{"year":2012,"instnm":"Central Carolina Technical College","CZ_label":"Columbia","inst_cmplt_tot":710,"inst_green_cmplt_tot":306,"inst_perc_green_tot":0.4309859},"geometry":{"type":"Point","coordinates":[-80.3674011,33.9328003]}},{"type":"Feature","properties":{"year":2012,"instnm":"Central Community College","CZ_label":"Grand Island","inst_cmplt_tot":1293,"inst_green_cmplt_tot":652,"inst_perc_green_tot":0.5042537},"geometry":{"type":"Point","coordinates":[-98.372551,40.8895836]}},{"type":"Feature","properties":{"year":2012,"instnm":"Central Lakes College-Brainerd","CZ_label":"Bemidji & Brainerd","inst_cmplt_tot":903,"inst_green_cmplt_tot":205,"inst_perc_green_tot":0.227021},"geometry":{"type":"Point","coordinates":[-94.2152405,46.3460045]}},{"type":"Feature","properties":{"year":2012,"instnm":"Central Louisiana Technical Community College","CZ_label":"Alexandria","inst_cmplt_tot":2632,"inst_green_cmplt_tot":1940,"inst_perc_green_tot":0.7370821},"geometry":{"type":"Point","coordinates":[-92.4450455,31.2595596]}},{"type":"Feature","properties":{"year":2012,"instnm":"Central Maine Community College","CZ_label":"Portland","inst_cmplt_tot":477,"inst_green_cmplt_tot":126,"inst_perc_green_tot":0.2641509},"geometry":{"type":"Point","coordinates":[-70.2354965,44.134346]}},{"type":"Feature","properties":{"year":2012,"instnm":"Central New Mexico Community College","CZ_label":"Albuquerque","inst_cmplt_tot":5140,"inst_green_cmplt_tot":1396,"inst_perc_green_tot":0.2715953},"geometry":{"type":"Point","coordinates":[-106.6249542,35.0759888]}},{"type":"Feature","properties":{"year":2012,"instnm":"Central Ohio Technical College","CZ_label":"Columbus","inst_cmplt_tot":661,"inst_green_cmplt_tot":41,"inst_perc_green_tot":0.0620272},"geometry":{"type":"Point","coordinates":[-82.4474411,40.069313]}},{"type":"Feature","properties":{"year":2012,"instnm":"Central Oregon Community College","CZ_label":"Bend","inst_cmplt_tot":1014,"inst_green_cmplt_tot":306,"inst_perc_green_tot":0.3017751},"geometry":{"type":"Point","coordinates":[-121.3458023,44.070652]}},{"type":"Feature","properties":{"year":2012,"instnm":"Central Piedmont Community College","CZ_label":"Charlotte","inst_cmplt_tot":744,"inst_green_cmplt_tot":117,"inst_perc_green_tot":0.1572581},"geometry":{"type":"Point","coordinates":[-80.8297958,35.2177734]}},{"type":"Feature","properties":{"year":2012,"instnm":"Central Texas College","CZ_label":"Killeen","inst_cmplt_tot":1049,"inst_green_cmplt_tot":184,"inst_perc_green_tot":0.1754051},"geometry":{"type":"Point","coordinates":[-97.8097076,31.1190548]}},{"type":"Feature","properties":{"year":2012,"instnm":"Central Virginia Community College","CZ_label":"Lynchburg","inst_cmplt_tot":905,"inst_green_cmplt_tot":239,"inst_perc_green_tot":0.2640884},"geometry":{"type":"Point","coordinates":[-79.1843872,37.3588943]}},{"type":"Feature","properties":{"year":2012,"instnm":"Central Wyoming College","CZ_label":"Riverton","inst_cmplt_tot":335,"inst_green_cmplt_tot":69,"inst_perc_green_tot":0.2059701},"geometry":{"type":"Point","coordinates":[-108.4270096,43.0304909]}},{"type":"Feature","properties":{"year":2012,"instnm":"Centralia College","CZ_label":"Seattle","inst_cmplt_tot":999,"inst_green_cmplt_tot":332,"inst_perc_green_tot":0.3323323},"geometry":{"type":"Point","coordinates":[-122.9607468,46.716301]}},{"type":"Feature","properties":{"year":2012,"instnm":"Century College","CZ_label":"Minneapolis","inst_cmplt_tot":1553,"inst_green_cmplt_tot":121,"inst_perc_green_tot":0.0779137},"geometry":{"type":"Point","coordinates":[-92.9821091,45.0418167]}},{"type":"Feature","properties":{"year":2012,"instnm":"Cerritos College","CZ_label":"Los Angeles","inst_cmplt_tot":976,"inst_green_cmplt_tot":84,"inst_perc_green_tot":0.0860656},"geometry":{"type":"Point","coordinates":[-118.0972595,33.8858414]}},{"type":"Feature","properties":{"year":2012,"instnm":"Cerro Coso Community College","CZ_label":"Bakersfield","inst_cmplt_tot":194,"inst_green_cmplt_tot":9,"inst_perc_green_tot":0.0463918},"geometry":{"type":"Point","coordinates":[-117.6677094,35.5677643]}},{"type":"Feature","properties":{"year":2012,"instnm":"Chabot College","CZ_label":"San Francisco","inst_cmplt_tot":924,"inst_green_cmplt_tot":261,"inst_perc_green_tot":0.2824675},"geometry":{"type":"Point","coordinates":[-122.1069717,37.6425133]}},{"type":"Feature","properties":{"year":2012,"instnm":"Chaffey College","CZ_label":"Los Angeles","inst_cmplt_tot":1744,"inst_green_cmplt_tot":190,"inst_perc_green_tot":0.108945},"geometry":{"type":"Point","coordinates":[-117.5730896,34.147049]}},{"type":"Feature","properties":{"year":2012,"instnm":"Chandler/Gilbert Community College","CZ_label":"Phoenix","inst_cmplt_tot":1829,"inst_green_cmplt_tot":519,"inst_perc_green_tot":0.2837616},"geometry":{"type":"Point","coordinates":[-111.7959213,33.2938957]}},{"type":"Feature","properties":{"year":2012,"instnm":"Chattahoochee Technical College","CZ_label":"Atlanta","inst_cmplt_tot":1459,"inst_green_cmplt_tot":339,"inst_perc_green_tot":0.2323509},"geometry":{"type":"Point","coordinates":[-84.5524902,33.9290924]}},{"type":"Feature","properties":{"year":2012,"instnm":"Chattahoochee Valley Community College","CZ_label":"Columbus","inst_cmplt_tot":213,"inst_green_cmplt_tot":0,"inst_perc_green_tot":0},"geometry":{"type":"Point","coordinates":[-85.0314865,32.4239082]}},{"type":"Feature","properties":{"year":2012,"instnm":"Chattanooga State Community College","CZ_label":"Chattanooga","inst_cmplt_tot":950,"inst_green_cmplt_tot":74,"inst_perc_green_tot":0.0778947},"geometry":{"type":"Point","coordinates":[-85.2373886,35.1002007]}},{"type":"Feature","properties":{"year":2012,"instnm":"Chemeketa Community College","CZ_label":"Portland","inst_cmplt_tot":1493,"inst_green_cmplt_tot":121,"inst_perc_green_tot":0.0810449},"geometry":{"type":"Point","coordinates":[-122.9771805,44.9782066]}},{"type":"Feature","properties":{"year":2012,"instnm":"Chesapeake College","CZ_label":"Dover","inst_cmplt_tot":283,"inst_green_cmplt_tot":1,"inst_perc_green_tot":0.0035336},"geometry":{"type":"Point","coordinates":[-76.0831146,38.9517784]}},{"type":"Feature","properties":{"year":2012,"instnm":"Chipola College","CZ_label":"Panama City","inst_cmplt_tot":552,"inst_green_cmplt_tot":17,"inst_perc_green_tot":0.0307971},"geometry":{"type":"Point","coordinates":[-85.2319489,30.7906475]}},{"type":"Feature","properties":{"year":2012,"instnm":"Chippewa Valley Technical College","CZ_label":"Eau Claire","inst_cmplt_tot":1682,"inst_green_cmplt_tot":596,"inst_perc_green_tot":0.3543401},"geometry":{"type":"Point","coordinates":[-91.5056763,44.7948685]}},{"type":"Feature","properties":{"year":2012,"instnm":"Cincinnati State Technical and Community College","CZ_label":"Cincinnati","inst_cmplt_tot":1525,"inst_green_cmplt_tot":295,"inst_perc_green_tot":0.1934426},"geometry":{"type":"Point","coordinates":[-84.5352325,39.1505699]}},{"type":"Feature","properties":{"year":2012,"instnm":"Cisco College","CZ_label":"Graham","inst_cmplt_tot":697,"inst_green_cmplt_tot":168,"inst_perc_green_tot":0.241033},"geometry":{"type":"Point","coordinates":[-98.9856796,32.4016953]}},{"type":"Feature","properties":{"year":2012,"instnm":"Citrus College","CZ_label":"Los Angeles","inst_cmplt_tot":1342,"inst_green_cmplt_tot":73,"inst_perc_green_tot":0.0543964},"geometry":{"type":"Point","coordinates":[-117.8852692,34.1354866]}},{"type":"Feature","properties":{"year":2012,"instnm":"City College of San Francisco","CZ_label":"San Francisco","inst_cmplt_tot":2320,"inst_green_cmplt_tot":322,"inst_perc_green_tot":0.1387931},"geometry":{"type":"Point","coordinates":[-122.4511566,37.7259521]}},{"type":"Feature","properties":{"year":2012,"instnm":"City Colleges of Chicago-Harold Washington College","CZ_label":"Chicago","inst_cmplt_tot":6152,"inst_green_cmplt_tot":4540,"inst_perc_green_tot":0.7379714},"geometry":{"type":"Point","coordinates":[-87.6265945,41.8860664]}},{"type":"Feature","properties":{"year":2012,"instnm":"City Colleges of Chicago-Harry S Truman College","CZ_label":"Chicago","inst_cmplt_tot":818,"inst_green_cmplt_tot":77,"inst_perc_green_tot":0.094132},"geometry":{"type":"Point","coordinates":[-87.6591034,41.9645004]}},{"type":"Feature","properties":{"year":2012,"instnm":"City Colleges of Chicago-Kennedy-King College","CZ_label":"Chicago","inst_cmplt_tot":734,"inst_green_cmplt_tot":263,"inst_perc_green_tot":0.3583106},"geometry":{"type":"Point","coordinates":[-87.643425,41.7802544]}},{"type":"Feature","properties":{"year":2012,"instnm":"City Colleges of Chicago-Malcolm X College","CZ_label":"Chicago","inst_cmplt_tot":753,"inst_green_cmplt_tot":0,"inst_perc_green_tot":0},"geometry":{"type":"Point","coordinates":[-87.6741257,41.8769417]}},{"type":"Feature","properties":{"year":2012,"instnm":"City Colleges of Chicago-Olive-Harvey College","CZ_label":"Chicago","inst_cmplt_tot":548,"inst_green_cmplt_tot":138,"inst_perc_green_tot":0.2518248},"geometry":{"type":"Point","coordinates":[-87.5892487,41.7099953]}},{"type":"Feature","properties":{"year":2012,"instnm":"City Colleges of Chicago-Richard J Daley College","CZ_label":"Chicago","inst_cmplt_tot":768,"inst_green_cmplt_tot":68,"inst_perc_green_tot":0.0885417},"geometry":{"type":"Point","coordinates":[-87.7239838,41.7559547]}},{"type":"Feature","properties":{"year":2012,"instnm":"City Colleges of Chicago-Wilbur Wright College","CZ_label":"Chicago","inst_cmplt_tot":1385,"inst_green_cmplt_tot":93,"inst_perc_green_tot":0.067148},"geometry":{"type":"Point","coordinates":[-87.7878647,41.9587746]}},{"type":"Feature","properties":{"year":2012,"instnm":"Clackamas Community College","CZ_label":"Portland","inst_cmplt_tot":810,"inst_green_cmplt_tot":71,"inst_perc_green_tot":0.0876543},"geometry":{"type":"Point","coordinates":[-122.5742722,45.323185]}},{"type":"Feature","properties":{"year":2012,"instnm":"Clarendon College","CZ_label":"Amarillo","inst_cmplt_tot":276,"inst_green_cmplt_tot":137,"inst_perc_green_tot":0.4963768},"geometry":{"type":"Point","coordinates":[-100.9045792,34.945076]}},{"type":"Feature","properties":{"year":2012,"instnm":"Clark College","CZ_label":"Portland","inst_cmplt_tot":1892,"inst_green_cmplt_tot":286,"inst_perc_green_tot":0.1511628},"geometry":{"type":"Point","coordinates":[-122.652977,45.6343079]}},{"type":"Feature","properties":{"year":2012,"instnm":"Clark State Community College","CZ_label":"Dayton","inst_cmplt_tot":488,"inst_green_cmplt_tot":31,"inst_perc_green_tot":0.0635246},"geometry":{"type":"Point","coordinates":[-83.7992859,39.8963394]}},{"type":"Feature","properties":{"year":2012,"instnm":"Clatsop Community College","CZ_label":"Aberdeen","inst_cmplt_tot":151,"inst_green_cmplt_tot":31,"inst_perc_green_tot":0.205298},"geometry":{"type":"Point","coordinates":[-123.8247528,46.1831779]}},{"type":"Feature","properties":{"year":2012,"instnm":"Cleveland Community College","CZ_label":"Charlotte","inst_cmplt_tot":217,"inst_green_cmplt_tot":67,"inst_perc_green_tot":0.3087558},"geometry":{"type":"Point","coordinates":[-81.4917145,35.2777901]}},{"type":"Feature","properties":{"year":2012,"instnm":"Cleveland State Community College","CZ_label":"Chattanooga","inst_cmplt_tot":499,"inst_green_cmplt_tot":48,"inst_perc_green_tot":0.0961924},"geometry":{"type":"Point","coordinates":[-84.8791428,35.200779]}},{"type":"Feature","properties":{"year":2012,"instnm":"Clinton Community College","CZ_label":"Plattsburgh","inst_cmplt_tot":351,"inst_green_cmplt_tot":22,"inst_perc_green_tot":0.0626781},"geometry":{"type":"Point","coordinates":[-73.4420624,44.6481056]}},{"type":"Feature","properties":{"year":2012,"instnm":"Cloud County Community College","CZ_label":"Concordia","inst_cmplt_tot":540,"inst_green_cmplt_tot":8,"inst_perc_green_tot":0.0148148},"geometry":{"type":"Point","coordinates":[-97.6641464,39.5541992]}},{"type":"Feature","properties":{"year":2012,"instnm":"Clover Park Technical College","CZ_label":"Seattle","inst_cmplt_tot":1034,"inst_green_cmplt_tot":161,"inst_perc_green_tot":0.155706},"geometry":{"type":"Point","coordinates":[-122.4955215,47.1754761]}},{"type":"Feature","properties":{"year":2012,"instnm":"Clovis Community College","CZ_label":"Clovis","inst_cmplt_tot":334,"inst_green_cmplt_tot":89,"inst_perc_green_tot":0.2664671},"geometry":{"type":"Point","coordinates":[-103.1658859,34.4024849]}},{"type":"Feature","properties":{"year":2012,"instnm":"Coahoma Community College","CZ_label":"Oxford","inst_cmplt_tot":418,"inst_green_cmplt_tot":57,"inst_perc_green_tot":0.1363636},"geometry":{"type":"Point","coordinates":[-90.5703049,34.2556267]}},{"type":"Feature","properties":{"year":2012,"instnm":"Coastal Bend College","CZ_label":"McAllen","inst_cmplt_tot":392,"inst_green_cmplt_tot":105,"inst_perc_green_tot":0.2678571},"geometry":{"type":"Point","coordinates":[-97.7563171,28.4357567]}},{"type":"Feature","properties":{"year":2012,"instnm":"Coastal Carolina Community College","CZ_label":"Jacksonville","inst_cmplt_tot":899,"inst_green_cmplt_tot":110,"inst_perc_green_tot":0.1223582},"geometry":{"type":"Point","coordinates":[-77.3847885,34.7716866]}},{"type":"Feature","properties":{"year":2012,"instnm":"Coastline Community College","CZ_label":"Los Angeles","inst_cmplt_tot":1605,"inst_green_cmplt_tot":187,"inst_perc_green_tot":0.1165109},"geometry":{"type":"Point","coordinates":[-117.8618469,33.6097717]}},{"type":"Feature","properties":{"year":2012,"instnm":"Cochise College","CZ_label":"Tucson","inst_cmplt_tot":3967,"inst_green_cmplt_tot":2277,"inst_perc_green_tot":0.5739854},"geometry":{"type":"Point","coordinates":[-109.6904221,31.365757]}},{"type":"Feature","properties":{"year":2012,"instnm":"Coconino Community College","CZ_label":"Prescott Valley & Flagstaff","inst_cmplt_tot":155,"inst_green_cmplt_tot":5,"inst_perc_green_tot":0.0322581},"geometry":{"type":"Point","coordinates":[-111.6456299,35.1713295]}},{"type":"Feature","properties":{"year":2012,"instnm":"Coffeyville Community College","CZ_label":"Bartlesville","inst_cmplt_tot":501,"inst_green_cmplt_tot":21,"inst_perc_green_tot":0.0419162},"geometry":{"type":"Point","coordinates":[-95.621376,37.0338135]}},{"type":"Feature","properties":{"year":2012,"instnm":"Colby Community College","CZ_label":"Colby","inst_cmplt_tot":346,"inst_green_cmplt_tot":19,"inst_perc_green_tot":0.0549133},"geometry":{"type":"Point","coordinates":[-101.0513,39.3780212]}},{"type":"Feature","properties":{"year":2012,"instnm":"College of Alameda","CZ_label":"San Francisco","inst_cmplt_tot":334,"inst_green_cmplt_tot":46,"inst_perc_green_tot":0.1377246},"geometry":{"type":"Point","coordinates":[-122.2792587,37.7823906]}},{"type":"Feature","properties":{"year":2012,"instnm":"College of Central Florida","CZ_label":"Orlando","inst_cmplt_tot":1584,"inst_green_cmplt_tot":136,"inst_perc_green_tot":0.0858586},"geometry":{"type":"Point","coordinates":[-82.1756897,29.1660786]}},{"type":"Feature","properties":{"year":2012,"instnm":"College of DuPage","CZ_label":"Chicago","inst_cmplt_tot":2786,"inst_green_cmplt_tot":232,"inst_perc_green_tot":0.0832735},"geometry":{"type":"Point","coordinates":[-88.0716324,41.8415756]}},{"type":"Feature","properties":{"year":2012,"instnm":"College of Lake County","CZ_label":"Chicago","inst_cmplt_tot":1862,"inst_green_cmplt_tot":341,"inst_perc_green_tot":0.1831364},"geometry":{"type":"Point","coordinates":[-88.0123901,42.3558807]}},{"type":"Feature","properties":{"year":2012,"instnm":"College of Marin","CZ_label":"San Francisco","inst_cmplt_tot":285,"inst_green_cmplt_tot":41,"inst_perc_green_tot":0.1438596},"geometry":{"type":"Point","coordinates":[-122.5499344,37.9550133]}},{"type":"Feature","properties":{"year":2012,"instnm":"College of Micronesia-FSM","CZ_label":null,"inst_cmplt_tot":355,"inst_green_cmplt_tot":86,"inst_perc_green_tot":0.2422535},"geometry":{"type":"Point","coordinates":[158.2092285,6.9552498]}},{"type":"Feature","properties":{"year":2012,"instnm":"College of San Mateo","CZ_label":"San Francisco","inst_cmplt_tot":589,"inst_green_cmplt_tot":212,"inst_perc_green_tot":0.3599321},"geometry":{"type":"Point","coordinates":[-122.3360748,37.5343552]}},{"type":"Feature","properties":{"year":2012,"instnm":"College of Southern Idaho","CZ_label":"Twin Falls","inst_cmplt_tot":900,"inst_green_cmplt_tot":61,"inst_perc_green_tot":0.0677778},"geometry":{"type":"Point","coordinates":[-114.4743729,42.5814781]}},{"type":"Feature","properties":{"year":2012,"instnm":"College of Southern Maryland","CZ_label":"Washington","inst_cmplt_tot":1095,"inst_green_cmplt_tot":101,"inst_perc_green_tot":0.0922374},"geometry":{"type":"Point","coordinates":[-77.0093307,38.5596466]}},{"type":"Feature","properties":{"year":2012,"instnm":"College of Southern Nevada","CZ_label":"Las Vegas","inst_cmplt_tot":2217,"inst_green_cmplt_tot":335,"inst_perc_green_tot":0.1511051},"geometry":{"type":"Point","coordinates":[-115.2337875,36.1584435]}},{"type":"Feature","properties":{"year":2012,"instnm":"College of Western Idaho","CZ_label":"Boise","inst_cmplt_tot":619,"inst_green_cmplt_tot":217,"inst_perc_green_tot":0.3505654},"geometry":{"type":"Point","coordinates":[-116.5073166,43.6141052]}},{"type":"Feature","properties":{"year":2012,"instnm":"College of the Albemarle","CZ_label":"Virginia Beach","inst_cmplt_tot":347,"inst_green_cmplt_tot":38,"inst_perc_green_tot":0.1095101},"geometry":{"type":"Point","coordinates":[-76.2196045,36.3248253]}},{"type":"Feature","properties":{"year":2012,"instnm":"College of the Canyons","CZ_label":"Los Angeles","inst_cmplt_tot":1283,"inst_green_cmplt_tot":30,"inst_perc_green_tot":0.0233827},"geometry":{"type":"Point","coordinates":[-118.5695267,34.4031219]}},{"type":"Feature","properties":{"year":2012,"instnm":"College of the Desert","CZ_label":"Los Angeles","inst_cmplt_tot":722,"inst_green_cmplt_tot":114,"inst_perc_green_tot":0.1578947},"geometry":{"type":"Point","coordinates":[-116.3876114,33.7324829]}},{"type":"Feature","properties":{"year":2012,"instnm":"College of the Mainland","CZ_label":"Houston","inst_cmplt_tot":521,"inst_green_cmplt_tot":100,"inst_perc_green_tot":0.1919386},"geometry":{"type":"Point","coordinates":[-94.9997406,29.3955135]}},{"type":"Feature","properties":{"year":2012,"instnm":"College of the Marshall Islands","CZ_label":null,"inst_cmplt_tot":74,"inst_green_cmplt_tot":0,"inst_perc_green_tot":0},"geometry":{"type":"Point","coordinates":[171.3784485,7.1027398]}},{"type":"Feature","properties":{"year":2012,"instnm":"College of the Ouachitas","CZ_label":"Hot Springs","inst_cmplt_tot":600,"inst_green_cmplt_tot":208,"inst_perc_green_tot":0.3466667},"geometry":{"type":"Point","coordinates":[-92.8214188,34.378746]}},{"type":"Feature","properties":{"year":2012,"instnm":"College of the Redwoods","CZ_label":"Eureka","inst_cmplt_tot":370,"inst_green_cmplt_tot":49,"inst_perc_green_tot":0.1324324},"geometry":{"type":"Point","coordinates":[-124.195076,40.696743]}},{"type":"Feature","properties":{"year":2012,"instnm":"College of the Sequoias","CZ_label":"Fresno","inst_cmplt_tot":1102,"inst_green_cmplt_tot":100,"inst_perc_green_tot":0.0907441},"geometry":{"type":"Point","coordinates":[-119.3147736,36.3229561]}},{"type":"Feature","properties":{"year":2012,"instnm":"College of the Siskiyous","CZ_label":"Klamath Falls","inst_cmplt_tot":219,"inst_green_cmplt_tot":5,"inst_perc_green_tot":0.0228311},"geometry":{"type":"Point","coordinates":[-122.3891678,41.4138489]}},{"type":"Feature","properties":{"year":2012,"instnm":"Collin County Community College District","CZ_label":"Dallas","inst_cmplt_tot":1841,"inst_green_cmplt_tot":23,"inst_perc_green_tot":0.0124932},"geometry":{"type":"Point","coordinates":[-96.6389389,33.1624107]}},{"type":"Feature","properties":{"year":2012,"instnm":"Colorado Mountain College","CZ_label":"Rifle & Edwards","inst_cmplt_tot":694,"inst_green_cmplt_tot":85,"inst_perc_green_tot":0.1224784},"geometry":{"type":"Point","coordinates":[-107.3247757,39.5464478]}},{"type":"Feature","properties":{"year":2012,"instnm":"Colorado Northwestern Community College","CZ_label":"Steamboat Springs","inst_cmplt_tot":262,"inst_green_cmplt_tot":87,"inst_perc_green_tot":0.3320611},"geometry":{"type":"Point","coordinates":[-108.7902985,40.0807457]}},{"type":"Feature","properties":{"year":2012,"instnm":"Columbia Basin College","CZ_label":"Kennewick","inst_cmplt_tot":1309,"inst_green_cmplt_tot":128,"inst_perc_green_tot":0.0977846},"geometry":{"type":"Point","coordinates":[-119.1186066,46.2515488]}},{"type":"Feature","properties":{"year":2012,"instnm":"Columbia College","CZ_label":"Stockton & Modesto","inst_cmplt_tot":239,"inst_green_cmplt_tot":32,"inst_perc_green_tot":0.1338912},"geometry":{"type":"Point","coordinates":[-120.3876038,38.0303612]}},{"type":"Feature","properties":{"year":2012,"instnm":"Columbia Gorge Community College","CZ_label":"The Dalles","inst_cmplt_tot":258,"inst_green_cmplt_tot":64,"inst_perc_green_tot":0.248062},"geometry":{"type":"Point","coordinates":[-121.1902008,45.5907249]}},{"type":"Feature","properties":{"year":2012,"instnm":"Columbia State Community College","CZ_label":"Spring Hill","inst_cmplt_tot":447,"inst_green_cmplt_tot":11,"inst_perc_green_tot":0.0246085},"geometry":{"type":"Point","coordinates":[-87.1019135,35.6167564]}},{"type":"Feature","properties":{"year":2012,"instnm":"Columbia-Greene Community College","CZ_label":"Albany","inst_cmplt_tot":330,"inst_green_cmplt_tot":12,"inst_perc_green_tot":0.0363636},"geometry":{"type":"Point","coordinates":[-73.7878113,42.2301788]}},{"type":"Feature","properties":{"year":2012,"instnm":"Columbus State Community College","CZ_label":"Columbus","inst_cmplt_tot":2667,"inst_green_cmplt_tot":328,"inst_perc_green_tot":0.1229846},"geometry":{"type":"Point","coordinates":[-82.9876556,39.9699745]}},{"type":"Feature","properties":{"year":2012,"instnm":"Columbus Technical College","CZ_label":"Columbus","inst_cmplt_tot":969,"inst_green_cmplt_tot":403,"inst_perc_green_tot":0.4158927},"geometry":{"type":"Point","coordinates":[-84.9793472,32.5056953]}},{"type":"Feature","properties":{"year":2012,"instnm":"Community College of Allegheny County","CZ_label":"Pittsburgh","inst_cmplt_tot":2506,"inst_green_cmplt_tot":649,"inst_perc_green_tot":0.2589785},"geometry":{"type":"Point","coordinates":[-80.0185471,40.4506302]}},{"type":"Feature","properties":{"year":2012,"instnm":"Community College of Aurora","CZ_label":"Denver","inst_cmplt_tot":597,"inst_green_cmplt_tot":45,"inst_perc_green_tot":0.0753769},"geometry":{"type":"Point","coordinates":[-104.8018646,39.7177658]}},{"type":"Feature","properties":{"year":2012,"instnm":"Community College of Beaver County","CZ_label":"Pittsburgh","inst_cmplt_tot":446,"inst_green_cmplt_tot":121,"inst_perc_green_tot":0.2713004},"geometry":{"type":"Point","coordinates":[-80.305275,40.6548233]}},{"type":"Feature","properties":{"year":2012,"instnm":"Community College of Denver","CZ_label":"Denver","inst_cmplt_tot":829,"inst_green_cmplt_tot":32,"inst_perc_green_tot":0.0386007},"geometry":{"type":"Point","coordinates":[-105.003006,39.7414207]}},{"type":"Feature","properties":{"year":2012,"instnm":"Community College of Philadelphia","CZ_label":"Philadelphia","inst_cmplt_tot":2020,"inst_green_cmplt_tot":249,"inst_perc_green_tot":0.1232673},"geometry":{"type":"Point","coordinates":[-75.1660614,39.9623756]}},{"type":"Feature","properties":{"year":2012,"instnm":"Community College of Rhode Island","CZ_label":"Providence","inst_cmplt_tot":1761,"inst_green_cmplt_tot":69,"inst_perc_green_tot":0.0391823},"geometry":{"type":"Point","coordinates":[-71.4815063,41.7128181]}},{"type":"Feature","properties":{"year":2012,"instnm":"Community College of Vermont","CZ_label":"Burlington","inst_cmplt_tot":610,"inst_green_cmplt_tot":17,"inst_perc_green_tot":0.0278689},"geometry":{"type":"Point","coordinates":[-73.1818161,44.4916]}},{"type":"Feature","properties":{"year":2012,"instnm":"Connors State College","CZ_label":"Muskogee","inst_cmplt_tot":139,"inst_green_cmplt_tot":14,"inst_perc_green_tot":0.1007194},"geometry":{"type":"Point","coordinates":[-95.3195419,35.4928741]}},{"type":"Feature","properties":{"year":2012,"instnm":"Contra Costa College","CZ_label":"San Francisco","inst_cmplt_tot":754,"inst_green_cmplt_tot":135,"inst_perc_green_tot":0.1790451},"geometry":{"type":"Point","coordinates":[-122.3423843,37.9686241]}},{"type":"Feature","properties":{"year":2012,"instnm":"Copiah-Lincoln Community College","CZ_label":"Jackson","inst_cmplt_tot":897,"inst_green_cmplt_tot":195,"inst_perc_green_tot":0.2173913},"geometry":{"type":"Point","coordinates":[-90.3991318,31.6900597]}},{"type":"Feature","properties":{"year":2012,"instnm":"Copper Mountain Community College","CZ_label":"Los Angeles","inst_cmplt_tot":153,"inst_green_cmplt_tot":2,"inst_perc_green_tot":0.0130719},"geometry":{"type":"Point","coordinates":[-116.2139359,34.1404648]}},{"type":"Feature","properties":{"year":2012,"instnm":"Corning Community College","CZ_label":"Ithaca & Elmira","inst_cmplt_tot":693,"inst_green_cmplt_tot":64,"inst_perc_green_tot":0.0923521},"geometry":{"type":"Point","coordinates":[-77.0737076,42.1172409]}},{"type":"Feature","properties":{"year":2012,"instnm":"Cossatot Community College of the University of Arkansas","CZ_label":"Idabel & De Queen & Mena","inst_cmplt_tot":305,"inst_green_cmplt_tot":81,"inst_perc_green_tot":0.2655738},"geometry":{"type":"Point","coordinates":[-94.3673019,34.0433884]}},{"type":"Feature","properties":{"year":2012,"instnm":"Cosumnes River College","CZ_label":"Sacramento","inst_cmplt_tot":931,"inst_green_cmplt_tot":218,"inst_perc_green_tot":0.2341568},"geometry":{"type":"Point","coordinates":[-121.4229736,38.4538345]}},{"type":"Feature","properties":{"year":2012,"instnm":"County College of Morris","CZ_label":"Newark & Jersey City","inst_cmplt_tot":1140,"inst_green_cmplt_tot":85,"inst_perc_green_tot":0.0745614},"geometry":{"type":"Point","coordinates":[-74.577507,40.8534279]}},{"type":"Feature","properties":{"year":2012,"instnm":"Cowley County Community College","CZ_label":"Wichita","inst_cmplt_tot":537,"inst_green_cmplt_tot":62,"inst_perc_green_tot":0.1154562},"geometry":{"type":"Point","coordinates":[-97.0419388,37.0619164]}},{"type":"Feature","properties":{"year":2012,"instnm":"Crafton Hills College","CZ_label":"Los Angeles","inst_cmplt_tot":585,"inst_green_cmplt_tot":12,"inst_perc_green_tot":0.0205128},"geometry":{"type":"Point","coordinates":[-117.1008224,34.0385132]}},{"type":"Feature","properties":{"year":2012,"instnm":"Craven Community College","CZ_label":"Jacksonville","inst_cmplt_tot":586,"inst_green_cmplt_tot":130,"inst_perc_green_tot":0.221843},"geometry":{"type":"Point","coordinates":[-77.1022339,35.111515]}},{"type":"Feature","properties":{"year":2012,"instnm":"Crowder College","CZ_label":"Joplin","inst_cmplt_tot":696,"inst_green_cmplt_tot":142,"inst_perc_green_tot":0.204023},"geometry":{"type":"Point","coordinates":[-94.3632202,36.8117104]}},{"type":"Feature","properties":{"year":2012,"instnm":"Cuesta College","CZ_label":"Santa Barbara","inst_cmplt_tot":876,"inst_green_cmplt_tot":63,"inst_perc_green_tot":0.0719178},"geometry":{"type":"Point","coordinates":[-120.7416229,35.3298607]}},{"type":"Feature","properties":{"year":2012,"instnm":"Cumberland County College","CZ_label":"Trenton","inst_cmplt_tot":479,"inst_green_cmplt_tot":2,"inst_perc_green_tot":0.0041754},"geometry":{"type":"Point","coordinates":[-75.0546875,39.4384155]}},{"type":"Feature","properties":{"year":2012,"instnm":"Cuyahoga Community College District","CZ_label":"Cleveland","inst_cmplt_tot":2443,"inst_green_cmplt_tot":75,"inst_perc_green_tot":0.0307},"geometry":{"type":"Point","coordinates":[-81.6696396,41.4939804]}},{"type":"Feature","properties":{"year":2012,"instnm":"Cuyamaca College","CZ_label":"San Diego","inst_cmplt_tot":578,"inst_green_cmplt_tot":179,"inst_perc_green_tot":0.3096886},"geometry":{"type":"Point","coordinates":[-116.9410477,32.7430725]}},{"type":"Feature","properties":{"year":2012,"instnm":"Cypress College","CZ_label":"Los Angeles","inst_cmplt_tot":908,"inst_green_cmplt_tot":61,"inst_perc_green_tot":0.0671806},"geometry":{"type":"Point","coordinates":[-118.0238876,33.8276253]}},{"type":"Feature","properties":{"year":2012,"instnm":"Dabney S Lancaster Community College","CZ_label":"Covington","inst_cmplt_tot":244,"inst_green_cmplt_tot":73,"inst_perc_green_tot":0.2991803},"geometry":{"type":"Point","coordinates":[-79.8517914,37.8125458]}},{"type":"Feature","properties":{"year":2012,"instnm":"Dakota College at Bottineau","CZ_label":"Minot","inst_cmplt_tot":88,"inst_green_cmplt_tot":28,"inst_perc_green_tot":0.3181818},"geometry":{"type":"Point","coordinates":[-100.4411011,48.8325043]}},{"type":"Feature","properties":{"year":2012,"instnm":"Dakota County Technical College","CZ_label":"Minneapolis","inst_cmplt_tot":728,"inst_green_cmplt_tot":227,"inst_perc_green_tot":0.3118132},"geometry":{"type":"Point","coordinates":[-93.0793457,44.7389297]}},{"type":"Feature","properties":{"year":2012,"instnm":"Danville Area Community College","CZ_label":"Lafayette","inst_cmplt_tot":734,"inst_green_cmplt_tot":139,"inst_perc_green_tot":0.1893733},"geometry":{"type":"Point","coordinates":[-87.5863495,40.1284676]}},{"type":"Feature","properties":{"year":2012,"instnm":"Danville Community College","CZ_label":"Burlington","inst_cmplt_tot":736,"inst_green_cmplt_tot":351,"inst_perc_green_tot":0.4769022},"geometry":{"type":"Point","coordinates":[-79.4085464,36.5657158]}},{"type":"Feature","properties":{"year":2012,"instnm":"Davidson County Community College","CZ_label":"Winston-Salem","inst_cmplt_tot":901,"inst_green_cmplt_tot":321,"inst_perc_green_tot":0.3562708},"geometry":{"type":"Point","coordinates":[-80.1817398,35.8655396]}},{"type":"Feature","properties":{"year":2012,"instnm":"Dawson Community College","CZ_label":"Miles City","inst_cmplt_tot":136,"inst_green_cmplt_tot":47,"inst_perc_green_tot":0.3455882},"geometry":{"type":"Point","coordinates":[-104.7252426,47.0852242]}},{"type":"Feature","properties":{"year":2012,"instnm":"Daytona State College","CZ_label":"Deltona","inst_cmplt_tot":3914,"inst_green_cmplt_tot":206,"inst_perc_green_tot":0.0526316},"geometry":{"type":"Point","coordinates":[-81.0512695,29.2022858]}},{"type":"Feature","properties":{"year":2012,"instnm":"De Anza College","CZ_label":"San Jose","inst_cmplt_tot":1414,"inst_green_cmplt_tot":179,"inst_perc_green_tot":0.1265912},"geometry":{"type":"Point","coordinates":[-122.0453644,37.3191757]}},{"type":"Feature","properties":{"year":2012,"instnm":"Del Mar College","CZ_label":"McAllen","inst_cmplt_tot":1403,"inst_green_cmplt_tot":417,"inst_perc_green_tot":0.2972202},"geometry":{"type":"Point","coordinates":[-97.4076233,27.7636223]}},{"type":"Feature","properties":{"year":2012,"instnm":"Delaware County Community College","CZ_label":"Philadelphia","inst_cmplt_tot":1354,"inst_green_cmplt_tot":243,"inst_perc_green_tot":0.1794682},"geometry":{"type":"Point","coordinates":[-75.3930817,39.9667244]}},{"type":"Feature","properties":{"year":2012,"instnm":"Delaware Technical Community College-Terry","CZ_label":"Dover","inst_cmplt_tot":468,"inst_green_cmplt_tot":21,"inst_perc_green_tot":0.0448718},"geometry":{"type":"Point","coordinates":[-75.5601196,39.1983719]}},{"type":"Feature","properties":{"year":2012,"instnm":"Delgado Community College","CZ_label":"New Orleans","inst_cmplt_tot":2110,"inst_green_cmplt_tot":213,"inst_perc_green_tot":0.1009479},"geometry":{"type":"Point","coordinates":[-90.1039658,29.9851494]}},{"type":"Feature","properties":{"year":2012,"instnm":"Delta College","CZ_label":"Saginaw","inst_cmplt_tot":1487,"inst_green_cmplt_tot":223,"inst_perc_green_tot":0.1499664},"geometry":{"type":"Point","coordinates":[-83.9859467,43.5594902]}},{"type":"Feature","properties":{"year":2012,"instnm":"Denmark Technical College","CZ_label":"Columbia","inst_cmplt_tot":367,"inst_green_cmplt_tot":148,"inst_perc_green_tot":0.4032698},"geometry":{"type":"Point","coordinates":[-81.1236267,33.3133545]}},{"type":"Feature","properties":{"year":2012,"instnm":"Des Moines Area Community College","CZ_label":"Des Moines","inst_cmplt_tot":1274,"inst_green_cmplt_tot":288,"inst_perc_green_tot":0.2260597},"geometry":{"type":"Point","coordinates":[-93.6115952,41.7073479]}},{"type":"Feature","properties":{"year":2012,"instnm":"Diablo Valley College","CZ_label":"San Francisco","inst_cmplt_tot":794,"inst_green_cmplt_tot":142,"inst_perc_green_tot":0.1788413},"geometry":{"type":"Point","coordinates":[-122.0698624,37.9680367]}},{"type":"Feature","properties":{"year":2012,"instnm":"Dine College","CZ_label":"Gallup","inst_cmplt_tot":161,"inst_green_cmplt_tot":5,"inst_perc_green_tot":0.0310559},"geometry":{"type":"Point","coordinates":[-109.2946777,36.3275871]}},{"type":"Feature","properties":{"year":2012,"instnm":"Dodge City Community College","CZ_label":"Dodge City","inst_cmplt_tot":221,"inst_green_cmplt_tot":29,"inst_perc_green_tot":0.1312217},"geometry":{"type":"Point","coordinates":[-100.0372772,37.7778397]}},{"type":"Feature","properties":{"year":2012,"instnm":"Durham Technical Community College","CZ_label":"Raleigh","inst_cmplt_tot":749,"inst_green_cmplt_tot":67,"inst_perc_green_tot":0.0894526},"geometry":{"type":"Point","coordinates":[-78.8807373,35.9752007]}},{"type":"Feature","properties":{"year":2012,"instnm":"Dutchess Community College","CZ_label":"Poughkeepsie","inst_cmplt_tot":1174,"inst_green_cmplt_tot":91,"inst_perc_green_tot":0.0775128},"geometry":{"type":"Point","coordinates":[-73.904953,41.7264748]}},{"type":"Feature","properties":{"year":2012,"instnm":"Dyersburg State Community College","CZ_label":"Dyersburg","inst_cmplt_tot":294,"inst_green_cmplt_tot":0,"inst_perc_green_tot":0},"geometry":{"type":"Point","coordinates":[-89.3906631,36.0471954]}},{"type":"Feature","properties":{"year":2012,"instnm":"East Arkansas Community College","CZ_label":"Forrest City","inst_cmplt_tot":341,"inst_green_cmplt_tot":83,"inst_perc_green_tot":0.2434018},"geometry":{"type":"Point","coordinates":[-90.7674484,35.0396729]}},{"type":"Feature","properties":{"year":2012,"instnm":"East Central College","CZ_label":"St. Louis","inst_cmplt_tot":403,"inst_green_cmplt_tot":45,"inst_perc_green_tot":0.1116625},"geometry":{"type":"Point","coordinates":[-90.9755325,38.4302979]}},{"type":"Feature","properties":{"year":2012,"instnm":"East Central Community College","CZ_label":"Meridian","inst_cmplt_tot":424,"inst_green_cmplt_tot":73,"inst_perc_green_tot":0.1721698},"geometry":{"type":"Point","coordinates":[-89.1127853,32.4406281]}},{"type":"Feature","properties":{"year":2012,"instnm":"East Los Angeles College","CZ_label":"Los Angeles","inst_cmplt_tot":2262,"inst_green_cmplt_tot":190,"inst_perc_green_tot":0.0839965},"geometry":{"type":"Point","coordinates":[-118.1483841,34.0392036]}},{"type":"Feature","properties":{"year":2012,"instnm":"East Mississippi Community College","CZ_label":"Meridian","inst_cmplt_tot":979,"inst_green_cmplt_tot":209,"inst_perc_green_tot":0.2134831},"geometry":{"type":"Point","coordinates":[-88.4835129,32.830246]}},{"type":"Feature","properties":{"year":2012,"instnm":"Eastern Arizona College","CZ_label":"Deming","inst_cmplt_tot":1231,"inst_green_cmplt_tot":361,"inst_perc_green_tot":0.2932575},"geometry":{"type":"Point","coordinates":[-109.7616653,32.8407173]}},{"type":"Feature","properties":{"year":2012,"instnm":"Eastern Florida State College","CZ_label":"Palm Bay & Port St. Lucie","inst_cmplt_tot":4065,"inst_green_cmplt_tot":151,"inst_perc_green_tot":0.0371464},"geometry":{"type":"Point","coordinates":[-80.7581329,28.3847904]}},{"type":"Feature","properties":{"year":2012,"instnm":"Eastern Gateway Community College","CZ_label":"Wheeling","inst_cmplt_tot":251,"inst_green_cmplt_tot":19,"inst_perc_green_tot":0.0756972},"geometry":{"type":"Point","coordinates":[-80.6724091,40.3761749]}},{"type":"Feature","properties":{"year":2012,"instnm":"Eastern Idaho Technical College","CZ_label":"Idaho Falls","inst_cmplt_tot":241,"inst_green_cmplt_tot":97,"inst_perc_green_tot":0.4024896},"geometry":{"type":"Point","coordinates":[-111.984642,43.4818001]}},{"type":"Feature","properties":{"year":2012,"instnm":"Eastern Iowa Community College District","CZ_label":"Davenport","inst_cmplt_tot":1234,"inst_green_cmplt_tot":234,"inst_perc_green_tot":0.1896272},"geometry":{"type":"Point","coordinates":[-90.5771637,41.5202789]}},{"type":"Feature","properties":{"year":2012,"instnm":"Eastern Maine Community College","CZ_label":"Bangor","inst_cmplt_tot":372,"inst_green_cmplt_tot":157,"inst_perc_green_tot":0.422043},"geometry":{"type":"Point","coordinates":[-68.7444534,44.8260498]}},{"type":"Feature","properties":{"year":2012,"instnm":"Eastern New Mexico University-Roswell Campus","CZ_label":"Roswell","inst_cmplt_tot":609,"inst_green_cmplt_tot":323,"inst_perc_green_tot":0.5303777},"geometry":{"type":"Point","coordinates":[-104.5243378,33.3139]}},{"type":"Feature","properties":{"year":2012,"instnm":"Eastern New Mexico University-Ruidoso Campus","CZ_label":"Alamogordo","inst_cmplt_tot":106,"inst_green_cmplt_tot":2,"inst_perc_green_tot":0.0188679},"geometry":{"type":"Point","coordinates":[-105.66539,33.3586311]}},{"type":"Feature","properties":{"year":2012,"instnm":"Eastern Oklahoma State College","CZ_label":"McAlester","inst_cmplt_tot":239,"inst_green_cmplt_tot":50,"inst_perc_green_tot":0.209205},"geometry":{"type":"Point","coordinates":[-95.3276825,34.9133377]}},{"type":"Feature","properties":{"year":2012,"instnm":"Eastern Shore Community College","CZ_label":"Chincoteague","inst_cmplt_tot":190,"inst_green_cmplt_tot":39,"inst_perc_green_tot":0.2052632},"geometry":{"type":"Point","coordinates":[-75.7508011,37.640461]}},{"type":"Feature","properties":{"year":2012,"instnm":"Eastern West Virginia Community and Technical College","CZ_label":"Cumberland","inst_cmplt_tot":79,"inst_green_cmplt_tot":13,"inst_perc_green_tot":0.164557},"geometry":{"type":"Point","coordinates":[-78.9320908,39.0753899]}},{"type":"Feature","properties":{"year":2012,"instnm":"Eastern Wyoming College","CZ_label":"Torrington","inst_cmplt_tot":199,"inst_green_cmplt_tot":93,"inst_perc_green_tot":0.4673367},"geometry":{"type":"Point","coordinates":[-104.1908264,42.0793533]}},{"type":"Feature","properties":{"year":2012,"instnm":"Eastfield College","CZ_label":"Dallas","inst_cmplt_tot":1111,"inst_green_cmplt_tot":351,"inst_perc_green_tot":0.3159316},"geometry":{"type":"Point","coordinates":[-96.6594696,32.8156776]}},{"type":"Feature","properties":{"year":2012,"instnm":"Edgecombe Community College","CZ_label":"Rocky Mount & Wilson","inst_cmplt_tot":307,"inst_green_cmplt_tot":12,"inst_perc_green_tot":0.0390879},"geometry":{"type":"Point","coordinates":[-77.571785,35.8798676]}},{"type":"Feature","properties":{"year":2012,"instnm":"Edison State College","CZ_label":"Cape Coral","inst_cmplt_tot":2489,"inst_green_cmplt_tot":19,"inst_perc_green_tot":0.0076336},"geometry":{"type":"Point","coordinates":[-81.8873749,26.5547371]}},{"type":"Feature","properties":{"year":2012,"instnm":"Edison State Community College","CZ_label":"Dayton","inst_cmplt_tot":272,"inst_green_cmplt_tot":3,"inst_perc_green_tot":0.0110294},"geometry":{"type":"Point","coordinates":[-84.2125549,40.1579971]}},{"type":"Feature","properties":{"year":2012,"instnm":"Edmonds Community College","CZ_label":"Seattle","inst_cmplt_tot":3098,"inst_green_cmplt_tot":1593,"inst_perc_green_tot":0.5142027},"geometry":{"type":"Point","coordinates":[-122.3274841,47.8167419]}},{"type":"Feature","properties":{"year":2012,"instnm":"El Camino College-Compton Center","CZ_label":"Los Angeles","inst_cmplt_tot":253,"inst_green_cmplt_tot":14,"inst_perc_green_tot":0.055336},"geometry":{"type":"Point","coordinates":[-118.2091827,33.8766632]}},{"type":"Feature","properties":{"year":2012,"instnm":"El Camino Community College District","CZ_label":"Los Angeles","inst_cmplt_tot":766,"inst_green_cmplt_tot":193,"inst_perc_green_tot":0.2519582},"geometry":{"type":"Point","coordinates":[-118.326622,33.8855858]}},{"type":"Feature","properties":{"year":2012,"instnm":"El Centro College","CZ_label":"Dallas","inst_cmplt_tot":1034,"inst_green_cmplt_tot":1,"inst_perc_green_tot":0.0009671},"geometry":{"type":"Point","coordinates":[-96.8053589,32.7798157]}},{"type":"Feature","properties":{"year":2012,"instnm":"El Paso Community College","CZ_label":"El Paso","inst_cmplt_tot":4338,"inst_green_cmplt_tot":434,"inst_perc_green_tot":0.1000461},"geometry":{"type":"Point","coordinates":[-106.3691177,31.7736053]}},{"type":"Feature","properties":{"year":2012,"instnm":"Elgin Community College","CZ_label":"Chicago","inst_cmplt_tot":1937,"inst_green_cmplt_tot":245,"inst_perc_green_tot":0.1264843},"geometry":{"type":"Point","coordinates":[-88.3219376,42.0180664]}},{"type":"Feature","properties":{"year":2012,"instnm":"Elizabethtown Community and Technical College","CZ_label":"Elizabethtown","inst_cmplt_tot":1498,"inst_green_cmplt_tot":625,"inst_perc_green_tot":0.417223},"geometry":{"type":"Point","coordinates":[-85.8614197,37.7030678]}},{"type":"Feature","properties":{"year":2012,"instnm":"Ellsworth Community College","CZ_label":"Iowa Falls & Hampton","inst_cmplt_tot":213,"inst_green_cmplt_tot":25,"inst_perc_green_tot":0.1173709},"geometry":{"type":"Point","coordinates":[-93.2658539,42.527523]}},{"type":"Feature","properties":{"year":2012,"instnm":"Enterprise State Community College","CZ_label":"Dothan","inst_cmplt_tot":372,"inst_green_cmplt_tot":208,"inst_perc_green_tot":0.5591398},"geometry":{"type":"Point","coordinates":[-85.8369522,31.2974968]}},{"type":"Feature","properties":{"year":2012,"instnm":"Erie Community College","CZ_label":"Buffalo","inst_cmplt_tot":2405,"inst_green_cmplt_tot":338,"inst_perc_green_tot":0.1405405},"geometry":{"type":"Point","coordinates":[-78.8726807,42.8817711]}},{"type":"Feature","properties":{"year":2012,"instnm":"Essex County College","CZ_label":"Newark & Jersey City","inst_cmplt_tot":1482,"inst_green_cmplt_tot":319,"inst_perc_green_tot":0.2152497},"geometry":{"type":"Point","coordinates":[-74.1782303,40.7384453]}},{"type":"Feature","properties":{"year":2012,"instnm":"Estrella Mountain Community College","CZ_label":"Phoenix","inst_cmplt_tot":1137,"inst_green_cmplt_tot":126,"inst_perc_green_tot":0.1108179},"geometry":{"type":"Point","coordinates":[-112.3431549,33.4807205]}},{"type":"Feature","properties":{"year":2012,"instnm":"Everett Community College","CZ_label":"Seattle","inst_cmplt_tot":1367,"inst_green_cmplt_tot":194,"inst_perc_green_tot":0.1419166},"geometry":{"type":"Point","coordinates":[-122.2047348,48.0066261]}},{"type":"Feature","properties":{"year":2012,"instnm":"Evergreen Valley College","CZ_label":"San Jose","inst_cmplt_tot":542,"inst_green_cmplt_tot":62,"inst_perc_green_tot":0.1143911},"geometry":{"type":"Point","coordinates":[-121.7666855,37.3017349]}},{"type":"Feature","properties":{"year":2012,"instnm":"Fashion Institute of Technology","CZ_label":"New York","inst_cmplt_tot":1664,"inst_green_cmplt_tot":0,"inst_perc_green_tot":0},"geometry":{"type":"Point","coordinates":[-73.9947815,40.7473106]}},{"type":"Feature","properties":{"year":2012,"instnm":"Fayetteville Technical Community College","CZ_label":"Fayetteville","inst_cmplt_tot":1005,"inst_green_cmplt_tot":170,"inst_perc_green_tot":0.1691542},"geometry":{"type":"Point","coordinates":[-78.9245148,35.0683136]}},{"type":"Feature","properties":{"year":2012,"instnm":"Feather River Community College District","CZ_label":"Susanville","inst_cmplt_tot":187,"inst_green_cmplt_tot":43,"inst_perc_green_tot":0.2299465},"geometry":{"type":"Point","coordinates":[-120.9708786,39.9523964]}},{"type":"Feature","properties":{"year":2012,"instnm":"Finger Lakes Community College","CZ_label":"Rochester","inst_cmplt_tot":1040,"inst_green_cmplt_tot":170,"inst_perc_green_tot":0.1634615},"geometry":{"type":"Point","coordinates":[-77.2417984,42.8675575]}},{"type":"Feature","properties":{"year":2012,"instnm":"Flathead Valley Community College","CZ_label":"Kalispell","inst_cmplt_tot":392,"inst_green_cmplt_tot":53,"inst_perc_green_tot":0.1352041},"geometry":{"type":"Point","coordinates":[-114.3272552,48.2273903]}},{"type":"Feature","properties":{"year":2012,"instnm":"Flint Hills Technical College","CZ_label":"Emporia","inst_cmplt_tot":267,"inst_green_cmplt_tot":122,"inst_perc_green_tot":0.4569288},"geometry":{"type":"Point","coordinates":[-96.2236252,38.4209557]}},{"type":"Feature","properties":{"year":2012,"instnm":"Florence-Darlington Technical College","CZ_label":"Myrtle Beach","inst_cmplt_tot":828,"inst_green_cmplt_tot":229,"inst_perc_green_tot":0.27657},"geometry":{"type":"Point","coordinates":[-79.8146896,34.2438812]}},{"type":"Feature","properties":{"year":2012,"instnm":"Florida Gateway College","CZ_label":"Gainesville","inst_cmplt_tot":732,"inst_green_cmplt_tot":80,"inst_perc_green_tot":0.1092896},"geometry":{"type":"Point","coordinates":[-82.569664,30.1743069]}},{"type":"Feature","properties":{"year":2012,"instnm":"Florida Keys Community College","CZ_label":"Miami","inst_cmplt_tot":287,"inst_green_cmplt_tot":22,"inst_perc_green_tot":0.0766551},"geometry":{"type":"Point","coordinates":[-81.7444611,24.5827484]}},{"type":"Feature","properties":{"year":2012,"instnm":"Florida State College at Jacksonville","CZ_label":"Jacksonville","inst_cmplt_tot":8055,"inst_green_cmplt_tot":715,"inst_perc_green_tot":0.0887647},"geometry":{"type":"Point","coordinates":[-81.6599045,30.3349171]}},{"type":"Feature","properties":{"year":2012,"instnm":"Folsom Lake College","CZ_label":"Sacramento","inst_cmplt_tot":700,"inst_green_cmplt_tot":78,"inst_perc_green_tot":0.1114286},"geometry":{"type":"Point","coordinates":[-121.1266937,38.6625977]}},{"type":"Feature","properties":{"year":2012,"instnm":"Fond du Lac Tribal and Community College","CZ_label":"Duluth","inst_cmplt_tot":364,"inst_green_cmplt_tot":13,"inst_perc_green_tot":0.0357143},"geometry":{"type":"Point","coordinates":[-92.4441299,46.6888237]}},{"type":"Feature","properties":{"year":2012,"instnm":"Foothill College","CZ_label":"San Jose","inst_cmplt_tot":1095,"inst_green_cmplt_tot":68,"inst_perc_green_tot":0.0621005},"geometry":{"type":"Point","coordinates":[-122.1283264,37.3611031]}},{"type":"Feature","properties":{"year":2012,"instnm":"Forsyth Technical Community College","CZ_label":"Winston-Salem","inst_cmplt_tot":838,"inst_green_cmplt_tot":187,"inst_perc_green_tot":0.2231504},"geometry":{"type":"Point","coordinates":[-80.2722168,36.0685387]}},{"type":"Feature","properties":{"year":2012,"instnm":"Fort Scott Community College","CZ_label":"Joplin","inst_cmplt_tot":644,"inst_green_cmplt_tot":459,"inst_perc_green_tot":0.7127329},"geometry":{"type":"Point","coordinates":[-94.7159653,37.8161926]}},{"type":"Feature","properties":{"year":2012,"instnm":"Fox Valley Technical College","CZ_label":"Appleton","inst_cmplt_tot":2783,"inst_green_cmplt_tot":844,"inst_perc_green_tot":0.3032699},"geometry":{"type":"Point","coordinates":[-88.458931,44.2831726]}},{"type":"Feature","properties":{"year":2012,"instnm":"Frank Phillips College","CZ_label":"Amarillo","inst_cmplt_tot":159,"inst_green_cmplt_tot":63,"inst_perc_green_tot":0.3962264},"geometry":{"type":"Point","coordinates":[-101.4056549,35.6551514]}},{"type":"Feature","properties":{"year":2012,"instnm":"Frederick Community College","CZ_label":"Hagerstown & Frederick","inst_cmplt_tot":601,"inst_green_cmplt_tot":6,"inst_perc_green_tot":0.0099834},"geometry":{"type":"Point","coordinates":[-77.4178467,39.45224]}},{"type":"Feature","properties":{"year":2012,"instnm":"Fresno City College","CZ_label":"Fresno","inst_cmplt_tot":1294,"inst_green_cmplt_tot":179,"inst_perc_green_tot":0.1383308},"geometry":{"type":"Point","coordinates":[-119.7951279,36.7675171]}},{"type":"Feature","properties":{"year":2012,"instnm":"Front Range Community College","CZ_label":"Denver","inst_cmplt_tot":2895,"inst_green_cmplt_tot":310,"inst_perc_green_tot":0.1070812},"geometry":{"type":"Point","coordinates":[-105.03936,39.9017563]}},{"type":"Feature","properties":{"year":2012,"instnm":"Fullerton College","CZ_label":"Los Angeles","inst_cmplt_tot":1444,"inst_green_cmplt_tot":210,"inst_perc_green_tot":0.1454294},"geometry":{"type":"Point","coordinates":[-117.9169846,33.8767929]}},{"type":"Feature","properties":{"year":2012,"instnm":"Fulton-Montgomery Community College","CZ_label":"Albany","inst_cmplt_tot":252,"inst_green_cmplt_tot":26,"inst_perc_green_tot":0.1031746},"geometry":{"type":"Point","coordinates":[-74.2941437,42.9830475]}},{"type":"Feature","properties":{"year":2012,"instnm":"Gadsden State Community College","CZ_label":"Gadsden","inst_cmplt_tot":754,"inst_green_cmplt_tot":207,"inst_perc_green_tot":0.2745358},"geometry":{"type":"Point","coordinates":[-85.9913025,33.9918671]}},{"type":"Feature","properties":{"year":2012,"instnm":"Galveston College","CZ_label":"Houston","inst_cmplt_tot":364,"inst_green_cmplt_tot":63,"inst_perc_green_tot":0.1730769},"geometry":{"type":"Point","coordinates":[-94.8085403,29.2842121]}},{"type":"Feature","properties":{"year":2012,"instnm":"Garden City Community College","CZ_label":"Garden City","inst_cmplt_tot":356,"inst_green_cmplt_tot":122,"inst_perc_green_tot":0.3426966},"geometry":{"type":"Point","coordinates":[-100.8473587,37.9709778]}},{"type":"Feature","properties":{"year":2012,"instnm":"Garrett College","CZ_label":"Cumberland","inst_cmplt_tot":135,"inst_green_cmplt_tot":11,"inst_perc_green_tot":0.0814815},"geometry":{"type":"Point","coordinates":[-79.3432693,39.5606575]}},{"type":"Feature","properties":{"year":2012,"instnm":"Gaston College","CZ_label":"Charlotte","inst_cmplt_tot":710,"inst_green_cmplt_tot":186,"inst_perc_green_tot":0.2619718},"geometry":{"type":"Point","coordinates":[-81.1894836,35.3120155]}},{"type":"Feature","properties":{"year":2012,"instnm":"GateWay Community College","CZ_label":"Phoenix","inst_cmplt_tot":1277,"inst_green_cmplt_tot":458,"inst_perc_green_tot":0.3586531},"geometry":{"type":"Point","coordinates":[-111.9965286,33.449501]}},{"type":"Feature","properties":{"year":2012,"instnm":"Gateway Community College","CZ_label":null,"inst_cmplt_tot":704,"inst_green_cmplt_tot":133,"inst_perc_green_tot":0.1889205},"geometry":{"type":"Point","coordinates":[-72.9271164,41.3043289]}},{"type":"Feature","properties":{"year":2012,"instnm":"Gateway Community and Technical College","CZ_label":"Cincinnati","inst_cmplt_tot":1216,"inst_green_cmplt_tot":460,"inst_perc_green_tot":0.3782895},"geometry":{"type":"Point","coordinates":[-84.6294708,38.9610558]}},{"type":"Feature","properties":{"year":2012,"instnm":"Gateway Technical College","CZ_label":"Chicago","inst_cmplt_tot":2359,"inst_green_cmplt_tot":288,"inst_perc_green_tot":0.1220856},"geometry":{"type":"Point","coordinates":[-87.8466949,42.6056786]}},{"type":"Feature","properties":{"year":2012,"instnm":"Gavilan College","CZ_label":"San Jose","inst_cmplt_tot":269,"inst_green_cmplt_tot":23,"inst_perc_green_tot":0.0855019},"geometry":{"type":"Point","coordinates":[-121.5681763,36.9732742]}},{"type":"Feature","properties":{"year":2012,"instnm":"Genesee Community College","CZ_label":"Buffalo","inst_cmplt_tot":739,"inst_green_cmplt_tot":9,"inst_perc_green_tot":0.0121786},"geometry":{"type":"Point","coordinates":[-78.1380234,43.0168304]}},{"type":"Feature","properties":{"year":2012,"instnm":"George C Wallace State Community College-Dothan","CZ_label":"Dothan","inst_cmplt_tot":698,"inst_green_cmplt_tot":142,"inst_perc_green_tot":0.2034384},"geometry":{"type":"Point","coordinates":[-85.4635468,31.3160858]}},{"type":"Feature","properties":{"year":2012,"instnm":"George C Wallace State Community College-Hanceville","CZ_label":"Birmingham","inst_cmplt_tot":966,"inst_green_cmplt_tot":97,"inst_perc_green_tot":0.1004141},"geometry":{"type":"Point","coordinates":[-86.7817459,34.07341]}},{"type":"Feature","properties":{"year":2012,"instnm":"George C Wallace State Community College-Selma","CZ_label":"Tuscaloosa","inst_cmplt_tot":524,"inst_green_cmplt_tot":150,"inst_perc_green_tot":0.2862595},"geometry":{"type":"Point","coordinates":[-87.013237,32.44561]}},{"type":"Feature","properties":{"year":2012,"instnm":"Georgia Northwestern Technical College","CZ_label":"Dalton","inst_cmplt_tot":1659,"inst_green_cmplt_tot":609,"inst_perc_green_tot":0.3670886},"geometry":{"type":"Point","coordinates":[-85.1713638,34.2246742]}},{"type":"Feature","properties":{"year":2012,"instnm":"Georgia Piedmont Technical College","CZ_label":"Atlanta","inst_cmplt_tot":835,"inst_green_cmplt_tot":454,"inst_perc_green_tot":0.5437126},"geometry":{"type":"Point","coordinates":[-84.2345047,33.7898979]}},{"type":"Feature","properties":{"year":2012,"instnm":"Germanna Community College","CZ_label":"Culpeper","inst_cmplt_tot":1355,"inst_green_cmplt_tot":50,"inst_perc_green_tot":0.0369004},"geometry":{"type":"Point","coordinates":[-77.7801285,38.3755569]}},{"type":"Feature","properties":{"year":2012,"instnm":"Glen Oaks Community College","CZ_label":"South Bend","inst_cmplt_tot":313,"inst_green_cmplt_tot":40,"inst_perc_green_tot":0.1277955},"geometry":{"type":"Point","coordinates":[-85.4969254,41.8925056]}},{"type":"Feature","properties":{"year":2012,"instnm":"Glendale Community College","CZ_label":"Phoenix","inst_cmplt_tot":2871,"inst_green_cmplt_tot":477,"inst_perc_green_tot":0.1661442},"geometry":{"type":"Point","coordinates":[-112.1883316,33.567482]}},{"type":"Feature","properties":{"year":2012,"instnm":"Glendale Community College","CZ_label":"Los Angeles","inst_cmplt_tot":540,"inst_green_cmplt_tot":28,"inst_perc_green_tot":0.0518519},"geometry":{"type":"Point","coordinates":[-118.2282486,34.1664238]}},{"type":"Feature","properties":{"year":2012,"instnm":"Gloucester County College","CZ_label":"Trenton","inst_cmplt_tot":947,"inst_green_cmplt_tot":152,"inst_perc_green_tot":0.1605069},"geometry":{"type":"Point","coordinates":[-75.121727,39.7824821]}},{"type":"Feature","properties":{"year":2012,"instnm":"Gogebic Community College","CZ_label":"Ironwood","inst_cmplt_tot":244,"inst_green_cmplt_tot":46,"inst_perc_green_tot":0.1885246},"geometry":{"type":"Point","coordinates":[-90.1655884,46.4718933]}},{"type":"Feature","properties":{"year":2012,"instnm":"Golden West College","CZ_label":"Los Angeles","inst_cmplt_tot":737,"inst_green_cmplt_tot":78,"inst_perc_green_tot":0.1058345},"geometry":{"type":"Point","coordinates":[-118.0030365,33.7337761]}},{"type":"Feature","properties":{"year":2012,"instnm":"Grand Rapids Community College","CZ_label":"Grand Rapids","inst_cmplt_tot":1962,"inst_green_cmplt_tot":309,"inst_perc_green_tot":0.1574924},"geometry":{"type":"Point","coordinates":[-85.6665726,42.9664078]}},{"type":"Feature","properties":{"year":2012,"instnm":"Grays Harbor College","CZ_label":"Aberdeen","inst_cmplt_tot":824,"inst_green_cmplt_tot":495,"inst_perc_green_tot":0.6007282},"geometry":{"type":"Point","coordinates":[-123.8029327,46.9534111]}},{"type":"Feature","properties":{"year":2012,"instnm":"Grayson College","CZ_label":"Dallas","inst_cmplt_tot":804,"inst_green_cmplt_tot":187,"inst_perc_green_tot":0.2325871},"geometry":{"type":"Point","coordinates":[-96.6335602,33.7064819]}},{"type":"Feature","properties":{"year":2012,"instnm":"Great Basin College","CZ_label":"Elko","inst_cmplt_tot":479,"inst_green_cmplt_tot":270,"inst_perc_green_tot":0.5636743},"geometry":{"type":"Point","coordinates":[-115.7673264,40.8424187]}},{"type":"Feature","properties":{"year":2012,"instnm":"Great Bay Community College","CZ_label":"Nashua","inst_cmplt_tot":225,"inst_green_cmplt_tot":8,"inst_perc_green_tot":0.0355556},"geometry":{"type":"Point","coordinates":[-70.8902512,43.0447273]}},{"type":"Feature","properties":{"year":2012,"instnm":"Great Falls College Montana State University","CZ_label":"Great Falls","inst_cmplt_tot":403,"inst_green_cmplt_tot":50,"inst_perc_green_tot":0.1240695},"geometry":{"type":"Point","coordinates":[-111.2695618,47.4855804]}},{"type":"Feature","properties":{"year":2012,"instnm":"Green River Community College","CZ_label":"Seattle","inst_cmplt_tot":2518,"inst_green_cmplt_tot":1022,"inst_perc_green_tot":0.4058777},"geometry":{"type":"Point","coordinates":[-122.1781769,47.3122787]}},{"type":"Feature","properties":{"year":2012,"instnm":"Greenfield Community College","CZ_label":"Springfield","inst_cmplt_tot":372,"inst_green_cmplt_tot":15,"inst_perc_green_tot":0.0403226},"geometry":{"type":"Point","coordinates":[-72.6309814,42.5995216]}},{"type":"Feature","properties":{"year":2012,"instnm":"Greenville Technical College","CZ_label":"Greenville","inst_cmplt_tot":2062,"inst_green_cmplt_tot":740,"inst_perc_green_tot":0.3588749},"geometry":{"type":"Point","coordinates":[-82.3691788,34.8213654]}},{"type":"Feature","properties":{"year":2012,"instnm":"Grossmont College","CZ_label":"San Diego","inst_cmplt_tot":1019,"inst_green_cmplt_tot":15,"inst_perc_green_tot":0.0147203},"geometry":{"type":"Point","coordinates":[-117.0072937,32.8160782]}},{"type":"Feature","properties":{"year":2012,"instnm":"Guam Community College","CZ_label":null,"inst_cmplt_tot":258,"inst_green_cmplt_tot":4,"inst_perc_green_tot":0.0155039},"geometry":{"type":"Point","coordinates":[144.8089447,13.440649]}},{"type":"Feature","properties":{"year":2012,"instnm":"Guilford Technical Community College","CZ_label":"Winston-Salem","inst_cmplt_tot":1230,"inst_green_cmplt_tot":183,"inst_perc_green_tot":0.1487805},"geometry":{"type":"Point","coordinates":[-79.9154053,35.9967842]}},{"type":"Feature","properties":{"year":2012,"instnm":"Gulf Coast State College","CZ_label":"Panama City","inst_cmplt_tot":1286,"inst_green_cmplt_tot":18,"inst_perc_green_tot":0.0139969},"geometry":{"type":"Point","coordinates":[-85.7272491,30.1861038]}},{"type":"Feature","properties":{"year":2012,"instnm":"Gwinnett Technical College","CZ_label":"Gainesville","inst_cmplt_tot":1552,"inst_green_cmplt_tot":187,"inst_perc_green_tot":0.1204897},"geometry":{"type":"Point","coordinates":[-84.0662231,33.9627647]}},{"type":"Feature","properties":{"year":2012,"instnm":"H Councill Trenholm State Technical College","CZ_label":"Montgomery","inst_cmplt_tot":417,"inst_green_cmplt_tot":233,"inst_perc_green_tot":0.558753},"geometry":{"type":"Point","coordinates":[-86.3430557,32.3501091]}},{"type":"Feature","properties":{"year":2012,"instnm":"Hagerstown Community College","CZ_label":"Hagerstown & Frederick","inst_cmplt_tot":951,"inst_green_cmplt_tot":319,"inst_perc_green_tot":0.3354364},"geometry":{"type":"Point","coordinates":[-77.6673813,39.6310081]}},{"type":"Feature","properties":{"year":2012,"instnm":"Halifax Community College","CZ_label":"Roanoke Rapids","inst_cmplt_tot":339,"inst_green_cmplt_tot":135,"inst_perc_green_tot":0.3982301},"geometry":{"type":"Point","coordinates":[-77.6176834,36.4277115]}},{"type":"Feature","properties":{"year":2012,"instnm":"Harford Community College","CZ_label":"Baltimore","inst_cmplt_tot":868,"inst_green_cmplt_tot":69,"inst_perc_green_tot":0.0794931},"geometry":{"type":"Point","coordinates":[-76.2817993,39.561348]}},{"type":"Feature","properties":{"year":2012,"instnm":"Harper College","CZ_label":"Chicago","inst_cmplt_tot":4038,"inst_green_cmplt_tot":416,"inst_perc_green_tot":0.1030213},"geometry":{"type":"Point","coordinates":[-88.0693893,42.081356]}},{"type":"Feature","properties":{"year":2012,"instnm":"Harrisburg Area Community College-Harrisburg","CZ_label":"Harrisburg & Lancaster","inst_cmplt_tot":1948,"inst_green_cmplt_tot":332,"inst_perc_green_tot":0.1704312},"geometry":{"type":"Point","coordinates":[-76.8863373,40.2982559]}},{"type":"Feature","properties":{"year":2012,"instnm":"Hartnell College","CZ_label":"San Jose","inst_cmplt_tot":643,"inst_green_cmplt_tot":82,"inst_perc_green_tot":0.1275272},"geometry":{"type":"Point","coordinates":[-121.6687622,36.6730537]}},{"type":"Feature","properties":{"year":2012,"instnm":"Hawaii Community College","CZ_label":"Hilo","inst_cmplt_tot":372,"inst_green_cmplt_tot":71,"inst_perc_green_tot":0.1908602},"geometry":{"type":"Point","coordinates":[-155.0805206,19.6990337]}},{"type":"Feature","properties":{"year":2012,"instnm":"Hawkeye Community College","CZ_label":"Waterloo","inst_cmplt_tot":1254,"inst_green_cmplt_tot":490,"inst_perc_green_tot":0.3907496},"geometry":{"type":"Point","coordinates":[-92.3306351,42.4300041]}},{"type":"Feature","properties":{"year":2012,"instnm":"Haywood Community College","CZ_label":"Waynesville","inst_cmplt_tot":299,"inst_green_cmplt_tot":75,"inst_perc_green_tot":0.2508361},"geometry":{"type":"Point","coordinates":[-82.9279175,35.5259056]}},{"type":"Feature","properties":{"year":2012,"instnm":"Hazard Community and Technical College","CZ_label":"Hazard","inst_cmplt_tot":1003,"inst_green_cmplt_tot":411,"inst_perc_green_tot":0.4097707},"geometry":{"type":"Point","coordinates":[-83.1745377,37.2338104]}},{"type":"Feature","properties":{"year":2012,"instnm":"Heartland Community College","CZ_label":"Champaign & Bloomington","inst_cmplt_tot":727,"inst_green_cmplt_tot":44,"inst_perc_green_tot":0.0605227},"geometry":{"type":"Point","coordinates":[-89.0144577,40.5334015]}},{"type":"Feature","properties":{"year":2012,"instnm":"Helena College University of Montana","CZ_label":"Bozeman","inst_cmplt_tot":281,"inst_green_cmplt_tot":104,"inst_perc_green_tot":0.3701068},"geometry":{"type":"Point","coordinates":[-112.016037,46.5953827]}},{"type":"Feature","properties":{"year":2012,"instnm":"Henderson Community College","CZ_label":"Henderson","inst_cmplt_tot":410,"inst_green_cmplt_tot":56,"inst_perc_green_tot":0.1365854},"geometry":{"type":"Point","coordinates":[-87.6500931,37.7976875]}},{"type":"Feature","properties":{"year":2012,"instnm":"Hennepin Technical College","CZ_label":"Minneapolis","inst_cmplt_tot":1012,"inst_green_cmplt_tot":284,"inst_perc_green_tot":0.2806324},"geometry":{"type":"Point","coordinates":[-93.3977585,45.0965347]}},{"type":"Feature","properties":{"year":2012,"instnm":"Henry Ford Community College","CZ_label":"Detroit","inst_cmplt_tot":1745,"inst_green_cmplt_tot":225,"inst_perc_green_tot":0.1289398},"geometry":{"type":"Point","coordinates":[-83.2384109,42.3245773]}},{"type":"Feature","properties":{"year":2012,"instnm":"Herkimer County Community College","CZ_label":"Syracuse","inst_cmplt_tot":639,"inst_green_cmplt_tot":0,"inst_perc_green_tot":0},"geometry":{"type":"Point","coordinates":[-75.00737,43.0325851]}},{"type":"Feature","properties":{"year":2012,"instnm":"Hibbing Community College-A Technical and Community College","CZ_label":"Duluth","inst_cmplt_tot":350,"inst_green_cmplt_tot":115,"inst_perc_green_tot":0.3285714},"geometry":{"type":"Point","coordinates":[-92.921051,47.4222755]}},{"type":"Feature","properties":{"year":2012,"instnm":"Highland Community College","CZ_label":"Rockford","inst_cmplt_tot":502,"inst_green_cmplt_tot":101,"inst_perc_green_tot":0.2011952},"geometry":{"type":"Point","coordinates":[-89.6735992,42.2833138]}},{"type":"Feature","properties":{"year":2012,"instnm":"Highland Community College","CZ_label":"St. Joseph","inst_cmplt_tot":566,"inst_green_cmplt_tot":54,"inst_perc_green_tot":0.0954064},"geometry":{"type":"Point","coordinates":[-95.2725525,39.8602867]}},{"type":"Feature","properties":{"year":2012,"instnm":"Highlands College of Montana Tech","CZ_label":"Missoula","inst_cmplt_tot":119,"inst_green_cmplt_tot":88,"inst_perc_green_tot":0.7394958},"geometry":{"type":"Point","coordinates":[-112.5092316,45.9377022]}},{"type":"Feature","properties":{"year":2012,"instnm":"Highline Community College","CZ_label":"Seattle","inst_cmplt_tot":1271,"inst_green_cmplt_tot":97,"inst_perc_green_tot":0.0763179},"geometry":{"type":"Point","coordinates":[-122.3025894,47.3883324]}},{"type":"Feature","properties":{"year":2012,"instnm":"Hill College","CZ_label":"Killeen","inst_cmplt_tot":1135,"inst_green_cmplt_tot":353,"inst_perc_green_tot":0.3110132},"geometry":{"type":"Point","coordinates":[-97.0862579,32.0128937]}},{"type":"Feature","properties":{"year":2012,"instnm":"Hillsborough Community College","CZ_label":"Tampa","inst_cmplt_tot":5087,"inst_green_cmplt_tot":315,"inst_perc_green_tot":0.0619225},"geometry":{"type":"Point","coordinates":[-82.4569168,27.9345131]}},{"type":"Feature","properties":{"year":2012,"instnm":"Hinds Community College","CZ_label":"Jackson","inst_cmplt_tot":2004,"inst_green_cmplt_tot":492,"inst_perc_green_tot":0.245509},"geometry":{"type":"Point","coordinates":[-90.4160614,32.2581291]}},{"type":"Feature","properties":{"year":2012,"instnm":"Hocking College","CZ_label":"Athens","inst_cmplt_tot":1452,"inst_green_cmplt_tot":214,"inst_perc_green_tot":0.1473829},"geometry":{"type":"Point","coordinates":[-82.2217484,39.4432983]}},{"type":"Feature","properties":{"year":2012,"instnm":"Holmes Community College","CZ_label":"Jackson","inst_cmplt_tot":1190,"inst_green_cmplt_tot":212,"inst_perc_green_tot":0.1781513},"geometry":{"type":"Point","coordinates":[-89.915802,32.969986]}},{"type":"Feature","properties":{"year":2012,"instnm":"Holyoke Community College","CZ_label":"Springfield","inst_cmplt_tot":973,"inst_green_cmplt_tot":47,"inst_perc_green_tot":0.0483042},"geometry":{"type":"Point","coordinates":[-72.6506805,42.1955032]}},{"type":"Feature","properties":{"year":2012,"instnm":"Honolulu Community College","CZ_label":"Honolulu","inst_cmplt_tot":690,"inst_green_cmplt_tot":419,"inst_perc_green_tot":0.6072464},"geometry":{"type":"Point","coordinates":[-157.8748779,21.3199463]}},{"type":"Feature","properties":{"year":2012,"instnm":"Hopkinsville Community College","CZ_label":"Clarksville","inst_cmplt_tot":863,"inst_green_cmplt_tot":55,"inst_perc_green_tot":0.0637312},"geometry":{"type":"Point","coordinates":[-87.4916229,36.8860703]}},{"type":"Feature","properties":{"year":2012,"instnm":"Horry-Georgetown Technical College","CZ_label":"Myrtle Beach","inst_cmplt_tot":1203,"inst_green_cmplt_tot":145,"inst_perc_green_tot":0.120532},"geometry":{"type":"Point","coordinates":[-79.0036087,33.7961388]}},{"type":"Feature","properties":{"year":2012,"instnm":"Housatonic Community College","CZ_label":null,"inst_cmplt_tot":394,"inst_green_cmplt_tot":9,"inst_perc_green_tot":0.0228426},"geometry":{"type":"Point","coordinates":[-73.1910019,41.1752281]}},{"type":"Feature","properties":{"year":2012,"instnm":"Houston Community College","CZ_label":"Houston","inst_cmplt_tot":4294,"inst_green_cmplt_tot":203,"inst_perc_green_tot":0.0472753},"geometry":{"type":"Point","coordinates":[-95.3765259,29.7373028]}},{"type":"Feature","properties":{"year":2012,"instnm":"Howard College","CZ_label":"Odessa & Midland","inst_cmplt_tot":395,"inst_green_cmplt_tot":27,"inst_perc_green_tot":0.0683544},"geometry":{"type":"Point","coordinates":[-101.4501114,32.2522964]}},{"type":"Feature","properties":{"year":2012,"instnm":"Howard Community College","CZ_label":"Baltimore","inst_cmplt_tot":960,"inst_green_cmplt_tot":25,"inst_perc_green_tot":0.0260417},"geometry":{"type":"Point","coordinates":[-76.8784332,39.2115707]}},{"type":"Feature","properties":{"year":2012,"instnm":"Hudson County Community College","CZ_label":"Newark & Jersey City","inst_cmplt_tot":879,"inst_green_cmplt_tot":54,"inst_perc_green_tot":0.0614334},"geometry":{"type":"Point","coordinates":[-74.0628586,40.7305603]}},{"type":"Feature","properties":{"year":2012,"instnm":"Hudson Valley Community College","CZ_label":"Albany","inst_cmplt_tot":2327,"inst_green_cmplt_tot":656,"inst_perc_green_tot":0.281908},"geometry":{"type":"Point","coordinates":[-73.6825256,42.6964607]}},{"type":"Feature","properties":{"year":2012,"instnm":"Hutchinson Community College","CZ_label":"Hutchinson","inst_cmplt_tot":919,"inst_green_cmplt_tot":265,"inst_perc_green_tot":0.2883569},"geometry":{"type":"Point","coordinates":[-97.9196472,38.0668411]}},{"type":"Feature","properties":{"year":2012,"instnm":"Illinois Central College","CZ_label":"Peoria","inst_cmplt_tot":1677,"inst_green_cmplt_tot":289,"inst_perc_green_tot":0.1723315},"geometry":{"type":"Point","coordinates":[-89.5254135,40.7062454]}},{"type":"Feature","properties":{"year":2012,"instnm":"Illinois Eastern Community Colleges-Frontier Community Coll","CZ_label":"Olney","inst_cmplt_tot":225,"inst_green_cmplt_tot":29,"inst_perc_green_tot":0.1288889},"geometry":{"type":"Point","coordinates":[-88.3921356,38.3822746]}},{"type":"Feature","properties":{"year":2012,"instnm":"Illinois Eastern Community Colleges-Lincoln Trail College","CZ_label":"Vincennes","inst_cmplt_tot":224,"inst_green_cmplt_tot":36,"inst_perc_green_tot":0.1607143},"geometry":{"type":"Point","coordinates":[-87.6888428,39.0193291]}},{"type":"Feature","properties":{"year":2012,"instnm":"Illinois Eastern Community Colleges-Olney Central College","CZ_label":"Olney","inst_cmplt_tot":607,"inst_green_cmplt_tot":48,"inst_perc_green_tot":0.0790774},"geometry":{"type":"Point","coordinates":[-88.0957642,38.7339058]}},{"type":"Feature","properties":{"year":2012,"instnm":"Illinois Eastern Community Colleges-Wabash Valley College","CZ_label":"Evansville","inst_cmplt_tot":436,"inst_green_cmplt_tot":223,"inst_perc_green_tot":0.5114679},"geometry":{"type":"Point","coordinates":[-87.7820511,38.4292984]}},{"type":"Feature","properties":{"year":2012,"instnm":"Illinois Valley Community College","CZ_label":"Peoria","inst_cmplt_tot":1448,"inst_green_cmplt_tot":372,"inst_perc_green_tot":0.2569061},"geometry":{"type":"Point","coordinates":[-89.1020355,41.3065186]}},{"type":"Feature","properties":{"year":2012,"instnm":"Imperial Valley College","CZ_label":"Yuma","inst_cmplt_tot":623,"inst_green_cmplt_tot":44,"inst_perc_green_tot":0.070626},"geometry":{"type":"Point","coordinates":[-115.5039062,32.8275642]}},{"type":"Feature","properties":{"year":2012,"instnm":"Independence Community College","CZ_label":"Bartlesville","inst_cmplt_tot":349,"inst_green_cmplt_tot":11,"inst_perc_green_tot":0.0315186},"geometry":{"type":"Point","coordinates":[-95.72052,37.1956139]}},{"type":"Feature","properties":{"year":2012,"instnm":"Indian Hills Community College","CZ_label":"Ottumwa","inst_cmplt_tot":1332,"inst_green_cmplt_tot":320,"inst_perc_green_tot":0.2402402},"geometry":{"type":"Point","coordinates":[-92.3947372,41.045105]}},{"type":"Feature","properties":{"year":2012,"instnm":"Indian River State College","CZ_label":"Palm Bay & Port St. Lucie","inst_cmplt_tot":3789,"inst_green_cmplt_tot":295,"inst_perc_green_tot":0.077857},"geometry":{"type":"Point","coordinates":[-80.3578491,27.4231205]}},{"type":"Feature","properties":{"year":2012,"instnm":"Inver Hills Community College","CZ_label":"Minneapolis","inst_cmplt_tot":894,"inst_green_cmplt_tot":16,"inst_perc_green_tot":0.0178971},"geometry":{"type":"Point","coordinates":[-93.0545883,44.8283844]}},{"type":"Feature","properties":{"year":2012,"instnm":"Iowa Central Community College","CZ_label":"Fort Dodge","inst_cmplt_tot":1293,"inst_green_cmplt_tot":277,"inst_perc_green_tot":0.2142305},"geometry":{"type":"Point","coordinates":[-94.2014084,42.4898224]}},{"type":"Feature","properties":{"year":2012,"instnm":"Iowa Lakes Community College","CZ_label":"Spencer","inst_cmplt_tot":641,"inst_green_cmplt_tot":223,"inst_perc_green_tot":0.3478939},"geometry":{"type":"Point","coordinates":[-94.8357697,43.4017296]}},{"type":"Feature","properties":{"year":2012,"instnm":"Iowa Western Community College","CZ_label":"Omaha","inst_cmplt_tot":510,"inst_green_cmplt_tot":135,"inst_perc_green_tot":0.2647059},"geometry":{"type":"Point","coordinates":[-95.8010483,41.2741356]}},{"type":"Feature","properties":{"year":2012,"instnm":"Irvine Valley College","CZ_label":"Los Angeles","inst_cmplt_tot":1021,"inst_green_cmplt_tot":108,"inst_perc_green_tot":0.1057786},"geometry":{"type":"Point","coordinates":[-117.7785721,33.6750793]}},{"type":"Feature","properties":{"year":2012,"instnm":"Isothermal Community College","CZ_label":"Spartanburg","inst_cmplt_tot":322,"inst_green_cmplt_tot":64,"inst_perc_green_tot":0.1987578},"geometry":{"type":"Point","coordinates":[-81.9118576,35.3367271]}},{"type":"Feature","properties":{"year":2012,"instnm":"Itasca Community College","CZ_label":"Duluth","inst_cmplt_tot":365,"inst_green_cmplt_tot":52,"inst_perc_green_tot":0.1424658},"geometry":{"type":"Point","coordinates":[-93.4944839,47.2424698]}},{"type":"Feature","properties":{"year":2012,"instnm":"Itawamba Community College","CZ_label":"Tupelo","inst_cmplt_tot":1655,"inst_green_cmplt_tot":278,"inst_perc_green_tot":0.1679758},"geometry":{"type":"Point","coordinates":[-88.4129257,34.2762756]}},{"type":"Feature","properties":{"year":2012,"instnm":"Ivy Tech Community College","CZ_label":"Indianapolis","inst_cmplt_tot":11298,"inst_green_cmplt_tot":2765,"inst_perc_green_tot":0.2447336},"geometry":{"type":"Point","coordinates":[-86.1582108,39.8037529]}},{"type":"Feature","properties":{"year":2012,"instnm":"J F Drake State Community and Technical College","CZ_label":"Huntsville","inst_cmplt_tot":201,"inst_green_cmplt_tot":77,"inst_perc_green_tot":0.3830846},"geometry":{"type":"Point","coordinates":[-86.5738144,34.7721176]}},{"type":"Feature","properties":{"year":2012,"instnm":"J F Ingram State Technical College","CZ_label":"Montgomery","inst_cmplt_tot":222,"inst_green_cmplt_tot":130,"inst_perc_green_tot":0.5855856},"geometry":{"type":"Point","coordinates":[-86.3923721,32.5823135]}},{"type":"Feature","properties":{"year":2012,"instnm":"J Sargeant Reynolds Community College","CZ_label":"Richmond","inst_cmplt_tot":1383,"inst_green_cmplt_tot":187,"inst_perc_green_tot":0.1352133},"geometry":{"type":"Point","coordinates":[-77.4729614,37.6374168]}},{"type":"Feature","properties":{"year":2012,"instnm":"Jackson Community College","CZ_label":"Jackson","inst_cmplt_tot":985,"inst_green_cmplt_tot":436,"inst_perc_green_tot":0.4426396},"geometry":{"type":"Point","coordinates":[-84.4039383,42.1648293]}},